[{"id":"manual_mcdonald_s_k_ln_hauptbahnhof_5094","lat":50.943,"lon":6.9583,"name":"McDonald's Köln Hauptbahnhof","city":"Köln","category":"gastro","tags":["barrierefrei"],"opening_hours":"24/7","operator":"McDonald's","fee":"no"},{"id":"manual_mcdonald_s_heumarkt_5093","lat":50.9361,"lon":6.9603,"name":"McDonald's Heumarkt","city":"Köln","category":"gastro","tags":["barrierefrei"],"opening_hours":"06:00-24:00","operator":"McDonald's","fee":"no"},{"id":"manual_mcdonald_s_neumarkt_5093","lat":50.9372,"lon":6.9478,"name":"McDonald's Neumarkt","city":"Köln","category":"gastro","tags":["barrierefrei"],"opening_hours":"06:00-24:00","operator":"McDonald's","fee":"no"},{"id":"manual_rhein_center_5098","lat":50.98,"lon":6.9,"name":"Rhein-Center","city":"Köln","category":"other","tags":["barrierefrei"],"opening_hours":"10:00-20:00","operator":"Rhein-Center","fee":"no"},{"id":"manual_universit_tsklinikum_k_ln_5087","lat":50.878,"lon":6.988,"name":"Universitätsklinikum Köln","city":"Köln","category":"public_24h","tags":["barrierefrei"],"opening_hours":"24/7","operator":"Universitätsklinikum","fee":"no"},{"id":"fuel_27380382","lat":50.6332898,"lon":6.9591535,"name":"Raiffeisen Tankstelle","city":"","category":"other","tags":[],"opening_hours":"Mo-Fr 06:30-22:00; Sa 07:00-22:00; Su 08:00-22:00","operator":"Raiffeisen Rhein-Ahr-Eifel"},{"id":"fuel_34026808","lat":50.8015222,"lon":6.1108609,"name":"Markant","city":"","category":"other","tags":[],"opening_hours":"Mo-Sa 05:00-23:00; Su 07:00-23:00"},{"id":"fuel_40955454","lat":50.9831602,"lon":6.2751252,"name":"Shell","city":"","category":"other","tags":[],"operator":"Shell"},{"id":"fuel_51354792","lat":50.9597906,"lon":6.224599,"name":"Aral","city":"Linnich","category":"other","tags":[],"operator":"Total"},{"id":"fuel_53979527","lat":50.9430962,"lon":6.8987719,"name":"Aral","city":"","category":"other","tags":[],"opening_hours":"Mo-Fr 06:00-22:00; Sa 07:00-22:00; Su 08:00-22:00","operator":"Aral"},{"id":"fuel_53980042","lat":50.9450045,"lon":6.9074639,"name":"Jet","city":"Köln","category":"other","tags":[],"opening_hours":"Mo-Fr 06:00-23:00; Sa 07:00-23:00; Su 07:00-22:00","operator":"Mehmet Oezdemir"},{"id":"fuel_58850620","lat":50.942048,"lon":6.6519829,"name":"Shell","city":"Bergheim","category":"other","tags":[],"operator":"Shell"},{"id":"fuel_58850629","lat":50.9508834,"lon":6.6253923,"name":"ARAL Tankstelle","city":"","category":"other","tags":[],"operator":"Aral"},{"id":"fuel_60027904","lat":50.9240294,"lon":6.3651157,"name":"Jet","city":"Jülich","category":"other","tags":[],"opening_hours":"Mo-Fr 06:00-22:00; Sa 07:00-22:00; Su 08:00-22:00","operator":"JET"},{"id":"fuel_68633830","lat":50.9280692,"lon":6.3658211,"name":"Aral","city":"Jülich","category":"other","tags":[],"opening_hours":"24/7","operator":"Aral"},{"id":"fuel_68633836","lat":50.9282121,"lon":6.3666529,"name":"Shell","city":"Jülich","category":"other","tags":[],"opening_hours":"Mo-Fr 06:00-23:00;Sa 06:00-23:00;Su 07:00-23:00","operator":"Shell"},{"id":"fuel_87104950","lat":50.6252971,"lon":6.9599133,"name":"Shell","city":"","category":"other","tags":[],"opening_hours":"Mo-Sa 06:00-23:00; Su 07:00-23:00","operator":"Deyring GmbH"},{"id":"fuel_87754188","lat":50.9977184,"lon":6.2058315,"name":"Freie Tankstelle","city":"","category":"other","tags":[],"opening_hours":"Mo-Th 08:00-18:30; Fr 08:00-19:00; Sa 07:30-16:00","operator":"Freie Tankstelle"},{"id":"fuel_98033687","lat":50.799031,"lon":6.2362726,"name":"ARAL","city":"","category":"other","tags":[],"operator":"ARAL"},{"id":"fuel_98223348","lat":50.8743767,"lon":6.1691825,"name":"Aral Piet Esser","city":"","category":"other","tags":[],"opening_hours":"24/7","operator":"Aral"},{"id":"fuel_146683011","lat":50.6423674,"lon":6.1891369,"name":"bft","city":"Roetgen","category":"other","tags":[],"opening_hours":"Mo-Fr 06:00-22:00; Sa 06:30-22:00; Su,PH 08:00-22:00","operator":"bft"},{"id":"fuel_149226435","lat":50.8878971,"lon":6.1725447,"name":"Shell","city":"Alsdorf","category":"other","tags":[],"opening_hours":"24/7","operator":"Shell"},{"id":"fuel_151014401","lat":50.9271847,"lon":6.3728682,"name":"Markant (Tankautomat)","city":"","category":"other","tags":[],"opening_hours":"Mo-Su,PH 00:00-24:00"},{"id":"fuel_183435081","lat":50.8868803,"lon":6.1208886,"name":"Total","city":"","category":"other","tags":[],"operator":"Total"},{"id":"fuel_220371249","lat":50.8858468,"lon":6.1090306,"name":"Pfennings","city":"Herzogenrath","category":"other","tags":[],"operator":"Fred Pfennings GmbH & Co. KG"},{"id":"fuel_221184073","lat":50.6921117,"lon":6.484006,"name":"ARAL","city":"Nideggen","category":"other","tags":[],"operator":"Klinkhammer GmbH"},{"id":"fuel_221251562","lat":50.8022869,"lon":6.495088,"name":"PM","city":"","category":"other","tags":[],"operator":"Aral"},{"id":"fuel_226655902","lat":50.7548699,"lon":6.4887857,"name":"PM","city":"","category":"other","tags":[],"operator":"PM"},{"id":"fuel_240188409","lat":50.9057565,"lon":6.187078,"name":"bft","city":"","category":"other","tags":[],"operator":"bft"},{"id":"fuel_240188520","lat":50.9100025,"lon":6.1906188,"name":"Shell","city":"Baesweiler","category":"other","tags":[],"operator":"Fred Pfennings GmbH & Co. KG"},{"id":"fuel_241857047","lat":50.6253226,"lon":6.9579357,"name":"PM","city":"","category":"other","tags":[],"opening_hours":"Mo-Fr 06:00-22:00; Sa 07:00-22:00; Su,PH 08:00-22:00","operator":"KT Tankstelle GmbH"},{"id":"fuel_241860413","lat":50.8568279,"lon":6.9235596,"name":"bft","city":"","category":"other","tags":[],"operator":"bft"},{"id":"fuel_243052760","lat":50.829448,"lon":6.0781775,"name":"Aral","city":"","category":"other","tags":[],"opening_hours":"24/7","operator":"Aral"},{"id":"fuel_243137297","lat":50.8274544,"lon":6.0893625,"name":"Euro Tank, Freie Tankstelle","city":"","category":"other","tags":[]},{"id":"fuel_244177460","lat":50.8132081,"lon":6.4885037,"name":"Total","city":"","category":"other","tags":[],"operator":"Total"},{"id":"fuel_244446223","lat":50.8053075,"lon":6.4949519,"name":"PM","city":"","category":"other","tags":[],"opening_hours":"24/7","operator":"PM Pfennings"},{"id":"fuel_244446229","lat":50.8019885,"lon":6.4960657,"name":"Star","city":"","category":"other","tags":[],"operator":"star"},{"id":"fuel_247699224","lat":50.8324396,"lon":6.4586786,"name":"Aral","city":"","category":"other","tags":[],"opening_hours":"24/7","operator":"Aral"},{"id":"fuel_248212729","lat":50.8546838,"lon":6.2009451,"name":"Shell","city":"","category":"other","tags":[],"operator":"Shell"},{"id":"fuel_249820226","lat":50.9281188,"lon":6.0672969,"name":"Aral","city":"","category":"other","tags":[],"operator":"Aral"},{"id":"fuel_249925676","lat":50.6043449,"lon":6.9935307,"name":"ED","city":"","category":"other","tags":[],"opening_hours":"Mo-Sa 06:00-22:00; Su 08:00-22:00","operator":"ED"},{"id":"fuel_251056118","lat":50.9058175,"lon":6.9379079,"name":"Aral","city":"Köln","category":"other","tags":[],"opening_hours":"24/7","operator":"Aral"},{"id":"fuel_252024875","lat":50.9952128,"lon":6.8100929,"name":"Aral","city":"Pulheim","category":"other","tags":[],"operator":"Aral"},{"id":"fuel_252024876","lat":50.991975,"lon":6.8190125,"name":"Badziong","city":"Pulheim","category":"other","tags":[]},{"id":"fuel_254629229","lat":50.9107066,"lon":6.8177705,"name":"Aral","city":"","category":"other","tags":[],"opening_hours":"24/7","operator":"Aral"},{"id":"fuel_254630910","lat":50.9127787,"lon":6.8270332,"name":"star","city":"Frechen","category":"other","tags":[],"opening_hours":"Mo-Fr 05:30-23:00; Sa 07:00-23:00; Su 07:30-23:00","operator":"star"},{"id":"fuel_254845598","lat":50.8807844,"lon":6.1551383,"name":"Freie Tankstelle","city":"","category":"other","tags":[],"operator":"Freie Tankstelle"},{"id":"fuel_256505272","lat":50.748608,"lon":6.491041,"name":"Total","city":"Kreuzau","category":"other","tags":[],"operator":"Total"},{"id":"fuel_260495142","lat":50.7470065,"lon":6.169155,"name":"OIL!","city":"","category":"other","tags":[],"opening_hours":"Mo-Fr 06:00-22:00; Sa 07:00-22:00; Su 08:00-22:00","operator":"OIL!"},{"id":"fuel_265727934","lat":50.9158911,"lon":6.9607663,"name":"Shell","city":"Köln","category":"other","tags":[],"opening_hours":"24/7","operator":"Shell"},{"id":"fuel_268405969","lat":50.694507,"lon":6.35783,"name":"bft","city":"Hürtgenwald","category":"other","tags":[],"operator":"bft"},{"id":"fuel_268439305","lat":50.9364255,"lon":6.9223048,"name":"Aral","city":"","category":"other","tags":[],"opening_hours":"Mo-Fr 06:00-22:00; Sa, Su 07:00-22:00","operator":"Kuttenkeuler GmbH"},{"id":"fuel_269042361","lat":50.9367245,"lon":6.7763173,"name":"AVEX Tankstelle","city":"Frechen","category":"other","tags":[],"opening_hours":"Mo-Fr 06:00-22:00; Sa 07:00-22:00; Su 09:00-22:00","operator":"AVEX Mineralölhandelsgesellschaft mbH"},{"id":"fuel_287716729","lat":50.8299777,"lon":6.8945522,"name":"FTB","city":"","category":"other","tags":[],"opening_hours":"Mo-Fr 06:00-22:00; Sa 07:00-22:00; Su 08:00-22:00","operator":"H.J. Ernzer"},{"id":"fuel_289638550","lat":50.8803596,"lon":6.6942773,"name":"Freie Tankstelle","city":"","category":"other","tags":[],"operator":"Freie Tankstelle"},{"id":"fuel_289638551","lat":50.8766869,"lon":6.6931163,"name":"Esso","city":"","category":"other","tags":[],"operator":"Esso"},{"id":"fuel_290693707","lat":50.8162305,"lon":6.0654124,"name":"SB-Tank","city":"","category":"other","tags":[],"opening_hours":"Mo-Sa 08:00-20:00","operator":"Johanna Gerbig"},{"id":"fuel_294070673","lat":50.2246035,"lon":6.6781218,"name":"Aral","city":"","category":"other","tags":[],"operator":"Aral"},{"id":"fuel_304618965","lat":50.521841,"lon":6.993926,"name":"Shell Tankstelle Auto Schmitz","city":"Altenahr","category":"other","tags":[],"opening_hours":"Mo-Fr 06:00-21:00; Su,PH 08:00-20:00","operator":"Shell"},{"id":"fuel_309976410","lat":50.7977259,"lon":6.4526079,"name":"Jet","city":"","category":"other","tags":[],"operator":"JET"},{"id":"fuel_311108503","lat":50.0921055,"lon":6.8075711,"name":"Tankstelle Wolter","city":"Manderscheid","category":"other","tags":[],"opening_hours":"Mo-Fr 07:00-18:00, Sa 08:00-13:00"},{"id":"fuel_311853465","lat":50.319969,"lon":6.6248145,"name":"Ford Demary","city":"","category":"other","tags":[],"operator":"Joseph Demary"},{"id":"fuel_312870444","lat":50.9983062,"lon":6.9960898,"name":"Freie Tankstelle","city":"","category":"other","tags":[],"operator":"Freie Tankstelle"},{"id":"fuel_319810034","lat":50.9209488,"lon":6.109772,"name":"Shell","city":"","category":"other","tags":[],"operator":"Shell"},{"id":"fuel_322998809","lat":50.8746024,"lon":6.9497479,"name":"Total","city":"Köln","category":"other","tags":[],"operator":"Total"},{"id":"fuel_334127530","lat":50.8877917,"lon":6.924748,"name":"Independent","city":"Köln","category":"other","tags":[],"opening_hours":"24/7","operator":"Independent"},{"id":"fuel_334374744","lat":50.8659485,"lon":6.4343186,"name":"Markant","city":"","category":"other","tags":[]},{"id":"fuel_334374748","lat":50.8665032,"lon":6.4344777,"name":"Aral","city":"","category":"other","tags":[],"operator":"Aral"},{"id":"fuel_365927250","lat":50.282387,"lon":6.7025373,"name":"Zufelde","city":"","category":"other","tags":[],"operator":"ED"},{"id":"fuel_370642094","lat":50.8196921,"lon":6.2920434,"name":"Total","city":"Eschweiler","category":"other","tags":[],"operator":"Total Deutschland GmbH"},{"id":"fuel_371204321","lat":50.8179107,"lon":6.2854611,"name":"SB-Tank am Hit","city":"","category":"other","tags":[],"operator":"Mundorf Mineralölhandels GmbH und Co. KG"},{"id":"fuel_371686441","lat":50.9865133,"lon":6.6716665,"name":"Aral","city":"","category":"other","tags":[],"operator":"Aral#"},{"id":"fuel_371726921","lat":50.5915112,"lon":6.9292356,"name":"Autohaus Appel","city":"Rheinbach","category":"other","tags":[],"opening_hours":"Mo-Fr 06:30-20:00; Sa-Su 07:00-18:30; PH 07:00-18:30","operator":"ED"},{"id":"fuel_376064264","lat":50.9996459,"lon":6.8796043,"name":"Avex","city":"","category":"other","tags":[]},{"id":"fuel_385108536","lat":50.8000481,"lon":6.4972678,"name":"SB Tank","city":"","category":"other","tags":[],"operator":"SB Tank"},{"id":"fuel_390449295","lat":50.9503101,"lon":6.6559496,"name":"Star","city":"","category":"other","tags":[],"operator":"Star"},{"id":"fuel_406372033","lat":50.8698065,"lon":6.7580484,"name":"Westfalen","city":"","category":"other","tags":[]},{"id":"fuel_406372644","lat":50.8698537,"lon":6.7566501,"name":"Aral Diesel Automatik","city":"","category":"other","tags":[],"operator":"Aral"},{"id":"fuel_414680753","lat":50.857873,"lon":6.9717479,"name":"SB-Tankstelle Amin Chaudhry","city":"","category":"other","tags":[]},{"id":"fuel_428840826","lat":50.2032572,"lon":6.8267897,"name":"Rheinbach","city":"","category":"other","tags":[],"opening_hours":"Mo-Fr 05:00-22:00, Sa 06:30-22:00, Su 07:00-22:00","operator":"Aral"},{"id":"fuel_430533293","lat":50.2953141,"lon":6.6710156,"name":"RWZ Hillesheim","city":"","category":"other","tags":[],"opening_hours":"Mo-Fr 08:00-18:00; Sa 08:00-12:00","operator":"Raiffeisen Waren-Zentrale Rhein-Main eG"},{"id":"fuel_447362200","lat":50.918945,"lon":6.1746294,"name":"Shell","city":"Baesweiler","category":"other","tags":[],"opening_hours":"Mo - Fr 05:00-22:00; Sa 07:00-22:00; Su 08:00-22:00","operator":"Fred Pfennings GmbH & Co. KG"},{"id":"fuel_449283456","lat":50.809638,"lon":6.825702,"name":"Morgenstern GmbH","city":"Erftstadt","category":"other","tags":[],"opening_hours":"Mo-Su 06:00-22:00"},{"id":"fuel_452591093","lat":50.970661,"lon":6.1197632,"name":"Aral","city":"","category":"other","tags":[],"operator":"Zimmermanns"},{"id":"fuel_471823685","lat":50.6375134,"lon":6.9496299,"name":"Autogas Rheinbach","city":"","category":"other","tags":[],"opening_hours":"24/7","operator":"Autogas Rheinbach GmbH & Co. KG"},{"id":"fuel_472369282","lat":50.8096831,"lon":6.6366933,"name":"Aral","city":"Nörvenich","category":"other","tags":[],"operator":"Georg Wilde GmbH"},{"id":"fuel_477228146","lat":50.3342906,"lon":6.7857834,"name":"bft","city":"","category":"other","tags":[],"operator":"Walter Hoffmann"},{"id":"fuel_482987676","lat":50.194502,"lon":6.8399262,"name":"ED","city":"","category":"other","tags":[],"opening_hours":"Mo-Fr 06:00-22:00; Sa 07:00-22:00; Su,PH 08:00-22:00","operator":"Fa. Doetsch"},{"id":"fuel_483724476","lat":50.3574275,"lon":6.8585806,"name":"TC Tankstelle","city":"","category":"other","tags":[]},{"id":"fuel_483724477","lat":50.357554,"lon":6.8572142,"name":"Aral","city":"","category":"other","tags":[]},{"id":"fuel_508284683","lat":50.4979799,"lon":6.6749893,"name":"Shell","city":"","category":"other","tags":[],"operator":"Shell"},{"id":"fuel_510759802","lat":50.8102976,"lon":6.8085,"name":"Aral","city":"","category":"other","tags":[],"operator":"Aral"},{"id":"fuel_510765599","lat":50.7993872,"lon":6.7746416,"name":"Esso","city":"","category":"other","tags":[],"opening_hours":"24/7","operator":"Esso"},{"id":"fuel_513654414","lat":50.7613854,"lon":6.8437271,"name":"JET","city":"","category":"other","tags":[],"operator":"JET"},{"id":"fuel_520183588","lat":50.8382754,"lon":6.793155,"name":"bft","city":"","category":"other","tags":[],"opening_hours":"Mo-Fr 06:00-22:00; Sa,Su,PH 08:00-21:00","operator":"bft"},{"id":"fuel_529855167","lat":50.2080051,"lon":6.4267449,"name":"BFT Tankstelle Prüm","city":"Prüm","category":"other","tags":[],"opening_hours":"24/7","operator":"Raiffeisen Westeifel"},{"id":"fuel_535884562","lat":50.9377427,"lon":6.8890571,"name":"Avex","city":"Köln","category":"other","tags":[],"opening_hours":"Mo-Fr 06:00-22:00; Sa-Su 07:00-22:00","operator":"AVEX Mineralölhandelsgesellschaft mbH"},{"id":"fuel_541415731","lat":50.9484534,"lon":6.6376986,"name":"HEM Tankstelle","city":"","category":"other","tags":[],"operator":"STAR"},{"id":"fuel_568486699","lat":50.89035,"lon":6.9919217,"name":"Shell","city":"Köln","category":"other","tags":[],"operator":"Shell"},{"id":"fuel_587937570","lat":50.9511979,"lon":6.4239343,"name":"Tankstelle West","city":"","category":"other","tags":[]},{"id":"fuel_593877607","lat":50.8605515,"lon":6.7527155,"name":"Esso","city":"Kerpen","category":"other","tags":[],"operator":"Esso Deutschland GmbH"},{"id":"fuel_593877608","lat":50.8482013,"lon":6.7763718,"name":"bft","city":"Kerpen","category":"other","tags":[],"operator":"bft"},{"id":"fuel_595712985","lat":50.9111706,"lon":6.8302081,"name":"AVEX","city":"","category":"other","tags":[],"operator":"Noname"},{"id":"fuel_654132325","lat":50.8203148,"lon":6.9884734,"name":"Tankstelle","city":"","category":"other","tags":[],"opening_hours":"24/7","operator":"RuLa-Autogas"},{"id":"fuel_697179434","lat":50.5691774,"lon":6.7636262,"name":"Raiffeisen","city":"Bad Münstereifel","category":"other","tags":[],"operator":"Indipend."},{"id":"fuel_732711857","lat":50.91667,"lon":6.37694,"name":"Propan Esser","city":"Jülich","category":"other","tags":[],"opening_hours":"Mo-Fr 08:00-18:30; Sa 09:00-14:00"},{"id":"fuel_732711989","lat":50.4029721,"lon":6.9241992,"name":"ED","city":"Leimbach","category":"other","tags":[],"opening_hours":"Mo-Fr 06:00-20:00; Sa-Su,PH 08:00-20:00","operator":"ED"},{"id":"fuel_732712145","lat":50.8615372,"lon":6.9273968,"name":"RuLa Autogas GmbH","city":"","category":"other","tags":[]},{"id":"fuel_732712228","lat":50.8412173,"lon":6.4557344,"name":"Adalbert Michna","city":"","category":"other","tags":[],"opening_hours":"Mo-Fr 09:00-17:00; Sa 10:00-14:00"},{"id":"fuel_732712294","lat":50.9681101,"lon":6.6002126,"name":"AVEX","city":"Bergheim","category":"other","tags":[],"opening_hours":"Mo-Fr 06:00-22:00; Sa,Su 07:00-22:00"},{"id":"fuel_732712446","lat":50.6535227,"lon":6.7922514,"name":"RuLa Autogas GmbH","city":"Euskirchen","category":"other","tags":[],"opening_hours":"24/7","operator":"Agri V Raiffeisen eG"},{"id":"fuel_732712657","lat":50.8467,"lon":6.90813,"name":"Propan Rheingas GmbH&Co...","city":"Brühl","category":"other","tags":[]},{"id":"fuel_732713404","lat":50.2844458,"lon":6.9135796,"name":"Star","city":"Kelberg","category":"other","tags":[],"opening_hours":"Mo-Fr 06:00-21:00, Sa 07:00-21:00, Su 08:00-21:00","operator":"Star"},{"id":"fuel_732713510","lat":50.8213936,"lon":6.8117548,"name":"Gase- Goldbecker","city":"","category":"other","tags":[],"opening_hours":"Mo-Fr 09:00-18:00; Sa 09:00-13:00"},{"id":"fuel_732715132","lat":50.9999939,"lon":6.9358986,"name":"Tankstelle","city":"","category":"other","tags":[],"opening_hours":"24/7","operator":"McGas"},{"id":"fuel_732715765","lat":50.9813518,"lon":6.1020322,"name":"Auto Backus","city":"Geilenkirchen","category":"other","tags":[],"opening_hours":"Mo-Fr 09:00-13:00,15:00-19:00; Sa 10:00-13:00"},{"id":"fuel_732716242","lat":50.5919245,"lon":6.6612495,"name":"RuLa Autogas GmbH iG","city":"","category":"other","tags":[]},{"id":"fuel_732717061","lat":50.8198601,"lon":6.5328843,"name":"Total","city":"Merzenich","category":"other","tags":[],"opening_hours":"24/7","operator":"Total"},{"id":"fuel_732717344","lat":50.8275563,"lon":6.3069697,"name":"Johannes Bartz","city":"Eschweiler","category":"other","tags":[]},{"id":"fuel_732717739","lat":50.6075986,"lon":6.3116102,"name":"LPG-Tankstelle","city":"Simmerath","category":"other","tags":[],"opening_hours":"24/7","operator":"MCS Mietservice & Containerdienst"},{"id":"fuel_775342709","lat":50.786913,"lon":6.2226909,"name":"Shell","city":"","category":"other","tags":[],"opening_hours":"06:00-22:00","operator":"Shell"},{"id":"fuel_794982001","lat":50.8493777,"lon":6.9782659,"name":"Faul","city":"","category":"other","tags":[]},{"id":"fuel_861371541","lat":50.7814654,"lon":6.5086352,"name":"Westfalen","city":"Düren","category":"other","tags":[],"opening_hours":"Mo-Su 05:30-21:00","operator":"Westfalen AG"},{"id":"fuel_880241787","lat":50.8987806,"lon":6.6821494,"name":"SB- Tank am Hit","city":"Kerpen","category":"other","tags":[],"operator":"Hit"},{"id":"fuel_883431217","lat":50.1258036,"lon":6.9013474,"name":"Tankstelle","city":"Gillenfeld","category":"other","tags":[],"opening_hours":"Mo-Fr 06:00-21:00; Sa 07:00-21:00; Su, PH 08:00-21:00","operator":"BFT"},{"id":"fuel_923163726","lat":50.6075143,"lon":6.3123399,"name":"Markant Tankstelle","city":"Simmerath","category":"other","tags":[],"opening_hours":"24/7","operator":"Westfalen"},{"id":"fuel_989011097","lat":50.4737794,"lon":6.9603568,"name":"ED - Tankstelle","city":"Hönningen","category":"other","tags":[],"opening_hours":"Mo-Fr 06:00-20:00; Sa 07:00-20:00; Su 08:00-20:00; PH 08:00-20:00","operator":"Maria Kreucher"},{"id":"fuel_1028927043","lat":50.0916455,"lon":6.3679581,"name":"Tankstelle Schaus","city":"","category":"other","tags":[],"operator":"Irmburg Schaus"},{"id":"fuel_1069107877","lat":50.6976813,"lon":6.6575243,"name":"Gastankstelle LPG","city":"Zülpich","category":"other","tags":[],"opening_hours":"24/7"},{"id":"fuel_1142791007","lat":50.7978418,"lon":6.1039422,"name":"Linde","city":"","category":"other","tags":[],"opening_hours":"Mo-Fr 07:00-18:00; Sa 09:00-13:00","operator":"Linde"},{"id":"fuel_1159353036","lat":50.1611102,"lon":6.4602304,"name":"Raiffeisen Westeifel","city":"","category":"other","tags":[],"opening_hours":"Mo-Su 07:00-19:00"},{"id":"fuel_1213358478","lat":50.749867,"lon":6.8507051,"name":"Aral","city":"","category":"other","tags":[],"opening_hours":"24/7","operator":"Aral"},{"id":"fuel_1251597560","lat":50.5753865,"lon":6.2619921,"name":"Total","city":"","category":"other","tags":[],"operator":"Total"},{"id":"fuel_1256757895","lat":50.8582956,"lon":6.8046733,"name":"Shell","city":"","category":"other","tags":[],"opening_hours":"24/7","operator":"Shell"},{"id":"fuel_1257009695","lat":50.8570423,"lon":6.8061832,"name":"Aral","city":"","category":"other","tags":[],"opening_hours":"24/7","operator":"Aral"},{"id":"fuel_1271551369","lat":50.6614833,"lon":6.4124157,"name":"Tankstelle","city":"","category":"other","tags":[],"operator":"bft"},{"id":"fuel_1287465199","lat":50.9922514,"lon":6.6528109,"name":"Tankstelle für Dienstfahrzeuge","city":"","category":"other","tags":[],"operator":"RWE-Power"},{"id":"fuel_1334684215","lat":50.5500892,"lon":6.5744077,"name":"Tank Point Karls","city":"Kall","category":"other","tags":[]},{"id":"fuel_1335615680","lat":50.4454692,"lon":6.8108026,"name":"Independent","city":"","category":"other","tags":[],"opening_hours":"24/7","operator":"Raiffeisen"},{"id":"fuel_1338714670","lat":50.1100883,"lon":6.2921483,"name":"BFT Theis","city":"","category":"other","tags":[],"operator":"bft"},{"id":"fuel_1353905416","lat":50.9827381,"lon":6.063968,"name":"STAR","city":"","category":"other","tags":[],"operator":"STAR"},{"id":"fuel_1359861300","lat":50.7679316,"lon":6.15787,"name":"Leyendecker Heizöl","city":"","category":"other","tags":[],"opening_hours":"24/7"},{"id":"fuel_1509939026","lat":50.8999935,"lon":6.1338741,"name":"Jet","city":"","category":"other","tags":[],"operator":"Jet"},{"id":"fuel_1557059349","lat":50.832885,"lon":6.7494875,"name":"ED Tankstelle","city":"Erftstadt","category":"other","tags":[],"operator":"ED"},{"id":"fuel_1560677215","lat":50.9721823,"lon":6.0939756,"name":"Waschlowsky","city":"","category":"other","tags":[],"operator":"Waschlowsky"},{"id":"fuel_1641723990","lat":50.796861,"lon":6.7813795,"name":"Tankstelle","city":"","category":"other","tags":[],"operator":"Knauber Gas"},{"id":"fuel_1648566624","lat":50.7995012,"lon":6.7805845,"name":"Tankstelle","city":"","category":"other","tags":[]},{"id":"fuel_1666811219","lat":50.9034558,"lon":6.1371733,"name":"LPG Tankstelle","city":"","category":"other","tags":[],"opening_hours":"24/7","operator":"Independent"},{"id":"fuel_1669842836","lat":50.3080119,"lon":6.3857068,"name":"Tankstelle","city":"","category":"other","tags":[]},{"id":"fuel_1688939521","lat":50.9143702,"lon":6.1459092,"name":"LPG Tankstelle","city":"","category":"other","tags":[],"operator":"Independent"},{"id":"fuel_1711333738","lat":50.3514218,"lon":6.9812836,"name":"Döttinger Höhe","city":"Meuspath","category":"other","tags":[],"operator":"Hans Joachim Retterath"},{"id":"fuel_1831332091","lat":50.2044214,"lon":6.4229829,"name":"Raiffeisen Prüm","city":"","category":"other","tags":[],"opening_hours":"24/7","operator":"Raiffeisen-Waren-GmbH Westeifel"},{"id":"fuel_2021539636","lat":50.7725696,"lon":6.2135821,"name":"Avia Express","city":"","category":"other","tags":[]},{"id":"fuel_2062527132","lat":50.8188155,"lon":6.2820609,"name":"Total Station","city":"Eschweiler","category":"other","tags":[],"operator":"Total"},{"id":"fuel_2093832340","lat":50.8836193,"lon":6.8943103,"name":"Jet","city":"Hürth","category":"other","tags":[],"opening_hours":"Mo-Fr 05:00-24:00; Sa 06:00-24:00; Su 07:00-24:00","operator":"JET"},{"id":"fuel_2262996189","lat":50.3285711,"lon":6.4428545,"name":"Raiffeisen-Tankstelle","city":"Ormont","category":"other","tags":[],"opening_hours":"24/7","operator":"Raiffeisen Rhein-Ahr-Eifel"},{"id":"fuel_2539752897","lat":50.2356681,"lon":6.2800471,"name":"Tankstelle","city":"","category":"other","tags":[]},{"id":"fuel_2597609090","lat":50.9382765,"lon":6.9097702,"name":"Esso","city":"","category":"other","tags":[],"opening_hours":"Mo-Su,PH 00:00-24:00","operator":"Bernd Koenig"},{"id":"fuel_2604235167","lat":50.9895643,"lon":6.998708,"name":"Aral","city":"","category":"other","tags":[],"operator":"Aral"},{"id":"fuel_2815522692","lat":50.0263541,"lon":6.233815,"name":"Hormisch Daniel Baustoffe u. Tankstelle","city":"","category":"other","tags":[],"operator":"Independent"},{"id":"fuel_2826566704","lat":50.9884884,"lon":6.0329312,"name":"Aral","city":"","category":"other","tags":[],"operator":"Bodo Stegemann & Söhne GmbH"},{"id":"fuel_3085881893","lat":50.470858,"lon":6.5307972,"name":"Total","city":"","category":"other","tags":[],"operator":"TotalEnergies"},{"id":"fuel_3086217748","lat":50.1903725,"lon":6.8025826,"name":"Roth","city":"","category":"other","tags":[],"opening_hours":"24/7","operator":"Adolf ROTH GmbH & Co KG"},{"id":"fuel_3332889579","lat":50.9773385,"lon":6.895116,"name":"Shell","city":"Köln","category":"other","tags":[],"operator":"Shell"},{"id":"fuel_3566512282","lat":50.2687951,"lon":6.4555135,"name":"Zur Schneifel","city":"","category":"other","tags":[],"operator":"TotalEnergies"},{"id":"fuel_3574628193","lat":50.8344901,"lon":6.4623821,"name":"Tankpool24","city":"","category":"other","tags":[],"opening_hours":"24/7"},{"id":"fuel_4577158668","lat":50.4705108,"lon":6.5334055,"name":"bft","city":"","category":"other","tags":[],"operator":"Finder"},{"id":"fuel_4681881674","lat":50.9147504,"lon":6.8344291,"name":"LKW Mundorf Tank Autohof Frechen","city":"","category":"other","tags":[],"opening_hours":"24/7"},{"id":"fuel_4681881676","lat":50.9146521,"lon":6.835723,"name":"Mundorf Tank Autohof Frechen","city":"","category":"other","tags":[],"opening_hours":"24/7"},{"id":"fuel_4796772396","lat":50.242402,"lon":6.2845796,"name":"ED Grunow","city":"","category":"other","tags":[],"opening_hours":"Mo-Sa 07:00-20:00; Su 08:30-14:00; PH 08:30-14:00"},{"id":"fuel_4894253789","lat":50.923099,"lon":6.8692502,"name":"Aral","city":"Köln","category":"other","tags":[],"opening_hours":"Mo-Su 06:00-22:00","operator":"Petra Wielpütz"},{"id":"fuel_4964426156","lat":50.7496627,"lon":6.7743225,"name":"Tankstelle","city":"Erftstadt","category":"other","tags":[],"operator":"Autohaus Hiller"},{"id":"fuel_5280950413","lat":50.9123698,"lon":6.9554213,"name":"Shell Automaten Tankstation","city":"","category":"other","tags":[],"opening_hours":"24/7","operator":"Pflipsen GmbH & Co. KG"},{"id":"fuel_5386519178","lat":50.8529453,"lon":6.9759938,"name":"Shell","city":"","category":"other","tags":[],"operator":"Shell"},{"id":"fuel_5896438858","lat":50.9800026,"lon":6.8468659,"name":"Westfalen","city":"","category":"other","tags":[],"opening_hours":"24/7","operator":"Westfalen"},{"id":"fuel_5897133120","lat":50.9806902,"lon":6.8449431,"name":"Westfalen - LKW","city":"","category":"other","tags":[],"opening_hours":"24/7","operator":"Westfalen"},{"id":"fuel_5954078101","lat":50.7735681,"lon":6.4920965,"name":"Tankstelle","city":"Düren","category":"other","tags":[],"opening_hours":"24/7","operator":"Agri V Raiffeisen eG"},{"id":"fuel_6054835797","lat":50.6938322,"lon":6.8281538,"name":"Tankpool24","city":"","category":"other","tags":[],"operator":"Heinz Peter Schmitz Internationale Spedition & Logistik GmbH"},{"id":"fuel_6088458456","lat":50.8766818,"lon":6.8874161,"name":"Shell","city":"","category":"other","tags":[],"operator":"Shell"},{"id":"fuel_6223081795","lat":50.6363802,"lon":6.8134238,"name":"Raiffeisen-Tankstelle","city":"","category":"other","tags":[],"opening_hours":"Mo-Fr 08:00-19:00; Sa 08:00-14:00","operator":"Raiffeisen"},{"id":"fuel_6319420469","lat":50.8881051,"lon":6.8903479,"name":"Star","city":"Hürth","category":"other","tags":[],"operator":"star"},{"id":"fuel_6669723782","lat":50.7527743,"lon":6.8551878,"name":"RHV","city":"","category":"other","tags":[],"opening_hours":"24/7"},{"id":"fuel_6669723783","lat":50.7551826,"lon":6.8535291,"name":"Tankpool24","city":"Weilerswist","category":"other","tags":[],"operator":"tankpool24"},{"id":"fuel_6791522319","lat":50.8230233,"lon":6.2482167,"name":"Tankstelle","city":"","category":"other","tags":[]},{"id":"fuel_6798772003","lat":50.1119716,"lon":6.6860685,"name":"Fred Neuerburg","city":"","category":"other","tags":[],"opening_hours":"24/7","operator":"Independent"},{"id":"fuel_6853468489","lat":50.9200972,"lon":6.353297,"name":"Esso","city":"Jülich","category":"other","tags":[],"opening_hours":"Mo-Fr 00:00-24:00","operator":"Esso"},{"id":"fuel_7154537431","lat":50.9440047,"lon":6.9835259,"name":"Shell","city":"Köln","category":"other","tags":[],"opening_hours":"24/7","operator":"Shell"},{"id":"fuel_7188599169","lat":50.7499754,"lon":6.0881499,"name":"Shell","city":"","category":"other","tags":[],"operator":"Shell"},{"id":"fuel_7190335188","lat":50.6327083,"lon":6.8102467,"name":"DK 24h-Tankstelle","city":"Euskirchen","category":"other","tags":[],"opening_hours":"Mo-Fr 06:00-18:00; Sa 07:00-18:00; Su,PH 11:00-16:00","operator":"Tankstelle DK Energiehandel GmbH"},{"id":"fuel_7197773678","lat":50.8228005,"lon":6.252346,"name":"Jet","city":"Eschweiler","category":"other","tags":[],"operator":"Jet"},{"id":"fuel_7248158364","lat":50.9499868,"lon":6.8852692,"name":"Rummel GmbH","city":"Köln","category":"other","tags":[]},{"id":"fuel_7273144602","lat":50.0236386,"lon":6.7893496,"name":"Ludwig","city":"","category":"other","tags":[],"operator":"bft"},{"id":"fuel_7373119619","lat":50.7643738,"lon":6.2172775,"name":"Total","city":"Stolberg (Rhld.)","category":"other","tags":[],"opening_hours":"Mo-Sa 06:00-21:00; Su 07:00-21:00","operator":"Total"},{"id":"fuel_7506603714","lat":50.9871857,"lon":6.576059,"name":"Autogas Heinrich Ludwig","city":"","category":"other","tags":[],"opening_hours":"24/7","operator":"Heinrich Ludwig GmbH, Bonn"},{"id":"fuel_7577851793","lat":50.7363978,"lon":6.2670886,"name":"Q1","city":"Stolberg (Rhld.)","category":"other","tags":[],"opening_hours":"Mo-Fr 06:00-21:00; Sa-Su 07:00-21:00","operator":"Q1"},{"id":"fuel_7680741176","lat":50.675734,"lon":6.7138371,"name":"Tankstelle","city":"","category":"other","tags":[],"operator":"Buir Bliesheimer Dürscheven"},{"id":"fuel_7683008982","lat":50.8325703,"lon":6.3004607,"name":"Tankstelle","city":"Eschweiler","category":"other","tags":[]},{"id":"fuel_8834370562","lat":50.9197343,"lon":6.8524314,"name":"Shell","city":"Köln","category":"other","tags":[],"opening_hours":"24/7","operator":"Kurt Mainzer GmbH"},{"id":"fuel_9199532957","lat":50.8114517,"lon":6.990345,"name":"H2 Tankstelle","city":"Wesseling","category":"other","tags":[],"opening_hours":"24/7","operator":"H2 MOBILITY"},{"id":"fuel_9289021028","lat":50.8953596,"lon":6.6543634,"name":"Rumag Energy","city":"","category":"other","tags":[],"opening_hours":"Mo-Sa 00:00-24:00; Su,PH off","operator":"Rumag Energy"},{"id":"fuel_9358634386","lat":50.9780252,"lon":6.2830249,"name":"Treibgas (Staplergas)","city":"","category":"other","tags":[],"operator":"Primagas"},{"id":"fuel_9397877709","lat":50.9008918,"lon":6.9657818,"name":"Total","city":"Köln","category":"other","tags":[],"opening_hours":"Mo-Fr 06:00-23:00; Sa 07:00-23:00; PH,Su 08:00-23:00","operator":"TotalEnergies"},{"id":"fuel_9400391932","lat":50.9378658,"lon":6.8477788,"name":"Jet","city":"Köln","category":"other","tags":[],"opening_hours":"24/7","operator":"JET"},{"id":"fuel_9400391933","lat":50.9383335,"lon":6.8485325,"name":"Aral","city":"","category":"other","tags":[],"operator":"Aral"},{"id":"fuel_9409610755","lat":50.8793974,"lon":6.9163107,"name":"tankpool24","city":"Köln","category":"other","tags":[],"opening_hours":"24/7"},{"id":"fuel_9410042296","lat":50.8208836,"lon":6.8951734,"name":"Aral","city":"Brühl","category":"other","tags":[],"opening_hours":"Mo-Fr 05:00-22:00; Sa 07:00-22:00; Su 08:00-22:00","operator":"Ralf Tannenläufer"},{"id":"fuel_10027987924","lat":50.2281052,"lon":6.4819343,"name":"Raiffeisen","city":"","category":"other","tags":[],"operator":"Raiffeisen"},{"id":"fuel_10265103493","lat":50.2084381,"lon":6.9703338,"name":"LNG","city":"","category":"other","tags":[]},{"id":"fuel_10632716526","lat":50.7747902,"lon":6.9312149,"name":"Shell","city":"Bornheim","category":"other","tags":[],"operator":"Shell"},{"id":"fuel_10899649913","lat":50.8221897,"lon":6.4614654,"name":"Total","city":"Düren","category":"other","tags":[],"operator":"TotalEnergies"},{"id":"fuel_10911703826","lat":50.6861971,"lon":6.8376856,"name":"ViGo Bioenergy LNG-Tankstelle","city":"Euskirchen","category":"other","tags":[]},{"id":"fuel_10915875872","lat":50.8947525,"lon":6.90483,"name":"Aral Tankstelle","city":"Hürth","category":"other","tags":[],"operator":"Robert Herrmann"},{"id":"fuel_11113936557","lat":50.9430541,"lon":6.5846421,"name":"Mirag","city":"","category":"other","tags":[]},{"id":"fuel_11262814980","lat":50.8303775,"lon":6.9661019,"name":"OIL!","city":"Wesseling","category":"other","tags":[],"opening_hours":"Mo-Su 06:00-22:00; PH 09:00-22:00","operator":"OIL! Tankstellen GmbH"},{"id":"fuel_11455585614","lat":50.4141757,"lon":6.7428237,"name":"Raifaisen","city":"","category":"other","tags":[],"operator":"Raifaisen"},{"id":"fuel_11543562442","lat":50.4501354,"lon":6.6680665,"name":"Tankstelle","city":"","category":"other","tags":[]},{"id":"fuel_12023011572","lat":50.3780403,"lon":6.9492187,"name":"Aral","city":"Adenau","category":"other","tags":[],"opening_hours":"Mo-Fr 06:00-22:00; Sa-Su 07:00-22:00","operator":"Stefanie Trunschke"},{"id":"fuel_12365483347","lat":50.4857334,"lon":6.9740144,"name":"Aral","city":"Ahrbrück","category":"other","tags":[],"opening_hours":"Mo-FR 06:00-22:00; Sa 08:00-00:00; Su 08:00-24:00","operator":"SLS Tankstellen GmbH"},{"id":"fuel_12372457178","lat":50.8122471,"lon":6.4744893,"name":"Total","city":"","category":"other","tags":[],"operator":"Total"},{"id":"fuel_12856587489","lat":50.9243105,"lon":6.7055724,"name":"Aral","city":"Kerpen","category":"other","tags":[],"operator":"ARAL"},{"id":"fuel_13076014780","lat":50.8116178,"lon":6.9910169,"name":"H2 Tankstelle","city":"Wesseling","category":"other","tags":[],"opening_hours":"Mo-Su 06:00-22:00","operator":"H2 MOBILITY"},{"id":"fuel_13098682814","lat":50.8340327,"lon":6.4595579,"name":"H2 Tankstelle","city":"Düren","category":"other","tags":[],"opening_hours":"24/7","operator":"H2 MOBILITY"},{"id":"fuel_13098694026","lat":50.8738979,"lon":6.8898278,"name":"H2 Tankstelle","city":"Hürth","category":"other","tags":[],"operator":"Air Products"}]