[{"id":"fuel_60278778","lat":48.1831973,"lon":10.975298,"name":"Tankstelle","city":"","category":"other","tags":[],"gplace_id":"ChIJqRHJlG8nnEcR3g-TftvQYKA"},{"id":"fuel_60328747","lat":48.2743166,"lon":10.9774019,"name":"Aral","city":"Mering","category":"other","tags":[],"opening_hours":"24/7","operator":"Aral"},{"id":"fuel_90847094","lat":48.3978623,"lon":10.9262165,"name":"HEM","city":"Augsburg","category":"other","tags":[],"opening_hours":"Mo-Fr 05:00-23:00, Sa 07:00-23:00, Su 07:00-22:00","operator":"HEM"},{"id":"fuel_114244696","lat":48.2439365,"lon":10.3723687,"name":"Aral","city":"","category":"other","tags":[],"operator":"Aral","opening_hours":"Su 07:00-21:00; Mo 06:00-21:00; Tu 06:00-21:00; We 06:00-21:00; Th 06:00-21:00; Fr 06:00-21:00; Sa 07:00-21:00","gplace_id":"ChIJQxWfSyT-m0cRVuM6AN2NsfU"},{"id":"fuel_118279992","lat":48.2482303,"lon":10.3592326,"name":"Jet","city":"","category":"other","tags":[],"operator":"Ralf Kling","opening_hours":"Su 07:00-23:00; Mo 05:00-23:00; Tu 05:00-23:00; We 05:00-23:00; Th 05:00-23:00; Fr 05:00-23:00; Sa 07:00-23:00","gplace_id":"ChIJRx5FmR7-m0cRQZtwV-wKu34"},{"id":"fuel_157114818","lat":48.9582322,"lon":10.9169692,"name":"Shell","city":"","category":"other","tags":[],"operator":"Shell","opening_hours":"Su 00:00+","gplace_id":"ChIJA81GZmMvn0cRxtXupHOKt40"},{"id":"fuel_253274406","lat":48.9530804,"lon":10.6095779,"name":"ELO","city":"Oettingen i.Bay.","category":"other","tags":[],"opening_hours":"00:00-24:00","operator":"ELO Mineralöl KG"},{"id":"fuel_253862798","lat":48.5452038,"lon":10.8544999,"name":"Jet","city":"Meitingen","category":"other","tags":[],"operator":"Jet","opening_hours":"Su 08:00-20:00; Mo 07:00-20:00; Tu 07:00-20:00; We 07:00-20:00; Th 07:00-20:00; Fr 07:00-20:00; Sa 07:00-20:00","gplace_id":"ChIJ19XhGUbHnkcRBkvvB0Fvx9g"},{"id":"fuel_256214693","lat":48.2654987,"lon":10.843895,"name":"V-Markt","city":"","category":"other","tags":[],"opening_hours":"Su 00:00+","gplace_id":"ChIJd6_MPC6hnkcR4lK0lJWZDMo"},{"id":"fuel_258518745","lat":48.0360897,"lon":10.501321,"name":"Aral","city":"Mindelheim","category":"other","tags":[],"opening_hours":"Su 07:00-00:00; Mo 06:00-00:00; Tu 06:00-00:00; We 06:00-00:00; Th 06:00-00:00; Fr 06:00-00:00; Sa 07:00-00:00","gplace_id":"ChIJOwEcSeIOnEcR-F-sKb8-w1g"},{"id":"fuel_258938939","lat":48.2172459,"lon":10.1028495,"name":"Shell","city":"","category":"other","tags":[],"opening_hours":"Mo-Sa 06:00-22:00; Su,PH 07:00-22:00","operator":"Shell"},{"id":"fuel_260727084","lat":48.2250391,"lon":10.1026557,"name":"Eni","city":"Illertissen","category":"other","tags":[],"opening_hours":"Mo-Su,PH 06:00-22:00","operator":"Rainer Weikmann e.K."},{"id":"fuel_262598482","lat":48.9429223,"lon":10.9149094,"name":"Avia","city":"Treuchtlingen","category":"other","tags":[],"operator":"Linss","opening_hours":"Su 00:00+","gplace_id":"ChIJc4X87Vgvn0cRayCzlBbuUuo"},{"id":"fuel_264049480","lat":48.4032208,"lon":10.5974552,"name":"Avia","city":"","category":"other","tags":[],"operator":"Avia","opening_hours":"Su 00:00+","gplace_id":"ChIJx3WWehuynkcRh4SCR2zVvas"},{"id":"fuel_265650724","lat":48.0579521,"lon":10.847535,"name":"Aral Lechwiesen Süd","city":"","category":"other","tags":[],"opening_hours":"24/7","operator":"Botschek"},{"id":"fuel_266318486","lat":48.411422,"lon":10.4403421,"name":"Shell","city":"","category":"other","tags":[],"opening_hours":"24/7","operator":"Shell"},{"id":"fuel_266318487","lat":48.4094526,"lon":10.4447283,"name":"ARAL","city":"","category":"other","tags":[],"operator":"Aral","opening_hours":"Su 08:00-22:00; Mo 06:00-22:00; Tu 06:00-22:00; We 06:00-22:00; Th 06:00-22:00; Fr 06:00-22:00; Sa 07:00-22:00","gplace_id":"ChIJtdBk_4NNmUcRBeF90p7UWnQ"},{"id":"fuel_266628951","lat":48.5481217,"lon":10.8530584,"name":"Pinoil","city":"Meitingen","category":"other","tags":[],"opening_hours":"Su 07:00-22:00; Mo 06:00-22:00; Tu 06:00-22:00; We 06:00-22:00; Th 06:00-22:00; Fr 06:00-22:00; Sa 07:00-22:00","gplace_id":"ChIJ-d_-dkfHnkcRlNIxZHk9eZ0"},{"id":"fuel_267576670","lat":48.4924671,"lon":10.1056908,"name":"Flüssiggas Tankautomat","city":"","category":"other","tags":[],"gplace_id":"not_found"},{"id":"fuel_267854973","lat":48.9678534,"lon":10.1245125,"name":"Jet","city":"","category":"other","tags":[],"operator":"JET","opening_hours":"Su 07:00-00:00; Mo 05:00-00:00; Tu 05:00-00:00; We 05:00-00:00; Th 05:00-00:00; Fr 05:00-00:00; Sa 06:00-00:00","gplace_id":"ChIJD1-QIgTjmEcR2NYMtJGiksk"},{"id":"fuel_269175397","lat":48.1591976,"lon":10.1144506,"name":"Avia","city":"Altenstadt","category":"other","tags":[],"opening_hours":"Mo-Fr 06:30-20:30; Sa-Su 07:00-20:30","operator":"Merk"},{"id":"fuel_271109272","lat":48.9643375,"lon":10.9114369,"name":"Baywa","city":"","category":"other","tags":[],"opening_hours":"Su 00:00+","gplace_id":"ChIJv4NVo3Avn0cRMbzyRZ8Gd6o"},{"id":"fuel_271396155","lat":48.9650516,"lon":10.1272856,"name":"Top Tank","city":"Ellwangen (Jagst)","category":"other","tags":[],"opening_hours":"Mo-Sa 06:00-22:00; Su 07:00-22:00"},{"id":"fuel_272322954","lat":48.2306683,"lon":10.1010834,"name":"Freie Tankstelle","city":"","category":"other","tags":[],"opening_hours":"Mo-Fr 08:00-20:00; Sa 07:30-20:00","operator":"V-Markt"},{"id":"fuel_274021406","lat":48.6907147,"lon":10.1661145,"name":"Aral","city":"Heidenheim","category":"other","tags":[],"opening_hours":"Mo-Su 00:00-24:00","operator":"Josip Travas"},{"id":"fuel_276510755","lat":48.6800507,"lon":10.1325482,"name":"RAN","city":"Heidenheim an der Brenz","category":"other","tags":[],"operator":"RAN","opening_hours":"Su 07:00-00:00; Mo 05:00-00:00; Tu 05:00-00:00; We 05:00-00:00; Th 05:00-00:00; Fr 05:00-00:00; Sa 06:00-00:00","gplace_id":"ChIJQ6XDvIAWmUcRXaEHeGn6C0Q"},{"id":"fuel_276592079","lat":48.6780946,"lon":10.8741223,"name":"Avia","city":"","category":"other","tags":[],"gplace_id":"ChIJDRiZKqPFnkcRp0OhvX66_Ys"},{"id":"fuel_276746920","lat":48.051613,"lon":10.8928516,"name":"Allguth","city":"","category":"other","tags":[],"opening_hours":"07:00-22:00"},{"id":"fuel_277562607","lat":48.8231095,"lon":10.1210215,"name":"Esso","city":"Aalen","category":"other","tags":[],"opening_hours":"Mo-Su 06:00-23:00","operator":"Esso"},{"id":"fuel_279592254","lat":48.681927,"lon":10.1572644,"name":"Erdgastankstelle","city":"","category":"other","tags":[],"operator":"Stadtwerke Heidenheim","gplace_id":"not_found"},{"id":"fuel_280284656","lat":48.7164145,"lon":10.7701404,"name":"Esso","city":"","category":"other","tags":[],"opening_hours":"Mo-Su,PH 06:00-23:00","operator":"Esso"},{"id":"fuel_280598087","lat":48.884386,"lon":10.1356769,"name":"Shell","city":"Aalen","category":"other","tags":[],"opening_hours":"24/7","operator":"Shell"},{"id":"fuel_280815436","lat":48.689899,"lon":10.1550568,"name":"Freie Tankstelle","city":"","category":"other","tags":[],"operator":"Freie Tankstelle","opening_hours":"Su 07:00-21:00; Mo 06:00-22:00; Tu 06:00-22:00; We 06:00-22:00; Th 06:00-22:00; Fr 06:00-22:00; Sa 06:30-22:00","gplace_id":"ChIJSxVLT2kWmUcRQxj-iPIS4D4"},{"id":"fuel_281265994","lat":48.7197836,"lon":10.7614277,"name":"BAVARIA petrol","city":"Donauwörth","category":"other","tags":[],"opening_hours":"Mo-Sa 07:00-21:00; Su 08:00-20:00","operator":"BAVARIA petrol"},{"id":"fuel_281661842","lat":48.894494,"lon":10.0080789,"name":"bft","city":"","category":"other","tags":[],"operator":"bft","opening_hours":"Mo 07:30-12:00,13:00-18:00; Tu 07:30-12:00,13:00-18:00; We 07:30-12:00,13:00-18:00; Th 07:30-12:00,13:00-18:00; Fr 07:30-12:00,13:00-18:00; Sa 08:00-13:00","gplace_id":"ChIJrySPG_wCmUcRZIS4rN6yzaA"},{"id":"fuel_282595020","lat":48.312303,"lon":10.90795,"name":"Bavaria Petrol","city":"","category":"other","tags":[],"opening_hours":"Mo-Fr 05:00-22:00; Sa 06:00-22:00; Su 07:00-22:00"},{"id":"fuel_282595652","lat":48.3860735,"lon":10.8490734,"name":"Jet","city":"Augsburg","category":"other","tags":[],"opening_hours":"Mo-Sa 05:00-23:00; Su 06:00-23:00; PH off","operator":"Janine Berneis"},{"id":"fuel_282741073","lat":48.3890369,"lon":10.8817361,"name":"Total","city":"","category":"other","tags":[],"operator":"Total","opening_hours":"Su 00:00+","gplace_id":"ChIJLTL9ERS9nkcRhbMlBBE8sJQ"},{"id":"fuel_282806572","lat":48.3729335,"lon":10.8473322,"name":"Edeka","city":"","category":"other","tags":[],"operator":"Edeka","opening_hours":"Mo 07:00-20:00; Tu 07:00-20:00; We 07:00-20:00; Th 07:00-20:00; Fr 07:00-20:00; Sa 07:00-20:00","gplace_id":"ChIJgTYpV9G8nkcRQflHAzQNHOM"},{"id":"fuel_282964910","lat":48.3781164,"lon":10.9377022,"name":"Aral","city":"","category":"other","tags":[],"opening_hours":"Mo-Su 06:00-24:00","operator":"Gum GmbH"},{"id":"fuel_282965278","lat":48.392711,"lon":10.9334915,"name":"Aral","city":"","category":"other","tags":[],"opening_hours":"24/7","operator":"Werner Bartel"},{"id":"fuel_283936802","lat":48.3658306,"lon":10.3058507,"name":"Pinoil","city":"Ichenhausen","category":"other","tags":[],"opening_hours":"Mo-Fr 06:00-22:00; Sa 07:00-22:00; Su 07:00-22:00"},{"id":"fuel_287073925","lat":48.6592714,"lon":10.8004904,"name":"Tankstelle","city":"","category":"other","tags":[],"gplace_id":"not_found"},{"id":"fuel_287270388","lat":48.2833272,"lon":10.0780545,"name":"Tankstelle","city":"","category":"other","tags":[],"operator":"Pinoil","opening_hours":"Su 08:00-22:00; Mo 06:30-22:00; Tu 06:30-22:00; We 06:30-22:00; Th 06:30-22:00; Fr 06:30-22:00; Sa 07:30-22:00","gplace_id":"ChIJyaqQH49fmUcRe1Z3AfB5Eq0"},{"id":"fuel_288123179","lat":48.6206025,"lon":10.2374551,"name":"BFT Schrem","city":"","category":"other","tags":[],"operator":"bft","opening_hours":"Su 09:00-18:00; Mo 06:30-20:00; Tu 06:30-20:00; We 06:30-20:00; Th 06:30-20:00; Fr 06:30-20:00; Sa 08:00-19:00","gplace_id":"ChIJYclnYYI_mUcRikuuBstu1uE"},{"id":"fuel_288171142","lat":48.4116392,"lon":10.0056072,"name":"RAN","city":"","category":"other","tags":[],"opening_hours":"Mo-Su, PH 06:00-24:00","operator":"Julian Nägele"},{"id":"fuel_288866044","lat":48.0448459,"lon":10.5059072,"name":"V-Markt tanken","city":"","category":"other","tags":[],"opening_hours":"Su 00:00+","gplace_id":"ChIJr-IjOJ4PnEcRsvQiQGIn0HY"},{"id":"fuel_288869609","lat":48.0469667,"lon":10.4927454,"name":"Shell","city":"","category":"other","tags":[],"operator":"Shell","opening_hours":"Su 07:00-22:00; Mo 06:00-23:30; Tu 06:00-23:30; We 06:00-23:30; Th 06:00-23:30; Fr 06:00-23:30; Sa 07:00-23:30","gplace_id":"ChIJz_2pGiMPnEcReS7CuedSmT0"},{"id":"fuel_288869611","lat":48.0483782,"lon":10.5020561,"name":"Esso","city":"","category":"other","tags":[],"operator":"Esso","opening_hours":"Su 06:00-22:00; Mo 05:00-22:00; Tu 05:00-22:00; We 05:00-22:00; Th 05:00-22:00; Fr 05:00-22:00; Sa 05:00-22:00","gplace_id":"ChIJUVwzryIPnEcRxz91GFRW3as"},{"id":"fuel_289083411","lat":48.0386874,"lon":10.7187532,"name":"V-Markt Tankstelle","city":"","category":"other","tags":[],"opening_hours":"24/7","operator":"V-Markt"},{"id":"fuel_289225450","lat":48.32941,"lon":10.7302755,"name":"Pin","city":"Gessertshausen","category":"other","tags":[],"opening_hours":"Mo-Sa 06:00-22:00; Su 08:00-22:00"},{"id":"fuel_290268932","lat":48.4192074,"lon":10.807619,"name":"Aral","city":"","category":"other","tags":[],"opening_hours":"24/7","operator":"Aral"},{"id":"fuel_290886311","lat":48.8036523,"lon":10.1846705,"name":"Avia XPress","city":"Aalen","category":"other","tags":[],"opening_hours":"24/7","operator":"Bernd Hansinger"},{"id":"fuel_291383644","lat":48.7756531,"lon":10.0990705,"name":"Aral Oberkochen e. K.","city":"Oberkochen","category":"other","tags":[],"operator":"Aral","opening_hours":"Su 08:00-21:00; Mo 06:30-21:00; Tu 06:30-21:00; We 06:30-21:00; Th 06:30-21:00; Fr 06:30-21:00; Sa 08:00-21:00","gplace_id":"ChIJafafGBcamUcRCCHS4C0-ZMo"},{"id":"fuel_292432502","lat":48.6925555,"lon":10.2301217,"name":"Tankstelle","city":"","category":"other","tags":[],"opening_hours":"24/7","operator":"Gaveg"},{"id":"fuel_292467095","lat":48.8448925,"lon":10.5007587,"name":"Jet","city":"","category":"other","tags":[],"operator":"Jet","opening_hours":"Su 08:00-23:00; Mo 06:00-23:00; Tu 06:00-23:00; We 06:00-23:00; Th 06:00-23:00; Fr 06:00-23:00; Sa 07:00-23:00","gplace_id":"ChIJS8OBu_gomUcRpoFP4nL-LT8"},{"id":"fuel_292467153","lat":48.8452487,"lon":10.4999226,"name":"Esso","city":"Nördlingen","category":"other","tags":[],"opening_hours":"24/7","operator":"Esso"},{"id":"fuel_292903369","lat":48.8568197,"lon":10.4783423,"name":"Bavaria Petrol","city":"Nördlingen","category":"other","tags":[],"operator":"Bavaria Petrol","opening_hours":"Mo 06:00-20:30; Tu 06:00-20:30; We 06:00-20:30; Th 06:00-20:30; Fr 06:00-20:30; Sa 06:30-20:00","gplace_id":"ChIJsxQv6mUomUcRzH2EL3PlDXs"},{"id":"fuel_292972309","lat":48.8475737,"lon":10.4922216,"name":"Shell","city":"","category":"other","tags":[],"operator":"Shell","opening_hours":"Su 00:00+","gplace_id":"ChIJw2ePkVgomUcRNA8OjyaLdKs"},{"id":"fuel_293189081","lat":48.5147042,"lon":10.5339488,"name":"Freie Tankstelle Martin Peter","city":"Holzheim","category":"other","tags":[],"operator":"Martin Peter","opening_hours":"Su 00:00+","gplace_id":"ChIJ94UjaylLmUcR7T4m2Zu_Ek4"},{"id":"fuel_293431889","lat":48.2853554,"lon":10.1164232,"name":"Esso","city":"Vöhringen","category":"other","tags":[],"opening_hours":"24/7","operator":"EG Group Limited"},{"id":"fuel_293437046","lat":48.1227432,"lon":10.1123355,"name":"Aral Illertal-Ost","city":"Dettingen an der Iller","category":"other","tags":[],"opening_hours":"24/7","operator":"Aral"},{"id":"fuel_294198030","lat":48.2864937,"lon":10.8891007,"name":"Freie Tankstelle","city":"","category":"other","tags":[],"operator":"Freie Tankstelle","opening_hours":"Mo 07:00-20:30; Tu 07:00-20:30; We 07:00-20:30; Th 07:00-20:30; Fr 07:00-20:30; Sa 07:30-20:30","gplace_id":"ChIJq1AJNrKYnkcR1Q1R26zsT7w"},{"id":"fuel_294230878","lat":48.8607717,"lon":10.5019306,"name":"Total","city":"","category":"other","tags":[],"operator":"Total","opening_hours":"Su 06:00-20:00; Mo 06:00-20:00; Tu 06:00-20:00; We 06:00-20:00; Th 06:00-20:00; Fr 06:00-20:00; Sa 06:00-20:00","gplace_id":"ChIJF-_bVk8omUcRQQWNv_9ap74"},{"id":"fuel_297336943","lat":48.7957612,"lon":10.2605123,"name":"AVIA","city":"Neresheim","category":"other","tags":[],"opening_hours":"Mo-Sa 07:00-19:00; PH,Su 09:00-19:00","operator":"Autohaus Weber e.K."},{"id":"fuel_301605994","lat":48.1407605,"lon":10.2480861,"name":"Shell","city":"Babenhausen","category":"other","tags":[],"operator":"Shell","opening_hours":"Su 00:00+","gplace_id":"ChIJ6Yi_-f_6m0cRkZ1aSfnZbIY"},{"id":"fuel_304074337","lat":48.3945577,"lon":10.6944001,"name":"Esso","city":"Horgau","category":"other","tags":[],"opening_hours":"Mo-Fr 06:00-20:00, Sa-Su 07:30-20:00","operator":"Esso"},{"id":"fuel_305650076","lat":48.2825619,"lon":10.6547978,"name":"Tankstelle","city":"","category":"other","tags":[],"operator":"W&F Fahrzeugzentrum","opening_hours":"Su 00:00+","gplace_id":"ChIJjXb2HZmonkcRKAwdBLyamHM"},{"id":"fuel_309538092","lat":48.8710868,"lon":10.2413031,"name":"Esso","city":"Lauchheim","category":"other","tags":[],"opening_hours":"Mo-Fr 06:00-21:00, Sa 07:00-21:00, Su 08:00-21:00","operator":"Esso"},{"id":"fuel_310898512","lat":48.592885,"lon":10.4858314,"name":"Tankstelle","city":"","category":"other","tags":[],"gplace_id":"not_found"},{"id":"fuel_313713705","lat":48.9540649,"lon":10.1179802,"name":"BAG","city":"Ellwangen (Jagst)","category":"other","tags":[],"opening_hours":"24/7"},{"id":"fuel_316744160","lat":48.5885983,"lon":10.5158994,"name":"Tanken rund um die Uhr","city":"Dillingen a.d.Donau","category":"other","tags":[],"opening_hours":"24/7","operator":"OKTAN Tankstellen GmbH"},{"id":"fuel_317262233","lat":48.4524323,"lon":10.2853222,"name":"Tankstelle V-Markt","city":"Günzburg","category":"other","tags":[],"opening_hours":"24/7"},{"id":"fuel_326115871","lat":48.8640675,"lon":10.5187289,"name":"BayWa BioLNG-Tankstelle Nördlingen","city":"Nördlingen","category":"other","tags":[],"opening_hours":"24/7","operator":"BayW"},{"id":"fuel_329399715","lat":48.7000353,"lon":10.1378198,"name":"Avia","city":"","category":"other","tags":[],"operator":"Hartmann","opening_hours":"Su 00:00+","gplace_id":"ChIJV1i7xfUWmUcRUtoNBdEDOxk"},{"id":"fuel_329828300","lat":48.7549254,"lon":10.3283347,"name":"Sing","city":"Neresheim","category":"other","tags":[],"operator":"Sing","opening_hours":"Su 00:00+","gplace_id":"ChIJy_o-3LYlmUcR9D9Cgt4EaZ8"},{"id":"fuel_334223038","lat":48.2880855,"lon":10.2139735,"name":"Hörtrich","city":"","category":"other","tags":[],"opening_hours":"Mo 06:30-20:00; Tu 06:30-20:00; We 06:30-20:00; Th 06:30-20:00; Fr 06:30-20:00; Sa 07:30-20:00","gplace_id":"ChIJLwGrEENYmUcRLzTGd-i_4E0"},{"id":"fuel_345549620","lat":48.2518646,"lon":10.3567602,"name":"Pinoil","city":"Krumbach (Schwaben)","category":"other","tags":[],"opening_hours":"Su 08:00-22:00; Mo 06:00-22:00; Tu 06:00-22:00; We 06:00-22:00; Th 06:00-22:00; Fr 06:00-22:00; Sa 07:00-22:00","gplace_id":"ChIJ874xgB3-m0cRMBHdyd3nE6o"},{"id":"fuel_347455451","lat":48.6947961,"lon":10.0704301,"name":"Shell","city":"","category":"other","tags":[],"operator":"Shell","opening_hours":"Su 09:00-21:00; Mo 07:00-21:00; Tu 07:00-21:00; We 07:00-21:00; Th 07:00-21:00; Fr 07:00-21:00; Sa 07:00-21:00","gplace_id":"ChIJ55Les0URmUcRZ-HvVidmmRk"},{"id":"fuel_351133930","lat":48.7131111,"lon":10.1607462,"name":"Tankstelle am Handelshof","city":"Heidenheim an der Brenz","category":"other","tags":[],"opening_hours":"Mo-Su 07:00-22:00, Su 08:00-20:00","operator":"JET"},{"id":"fuel_351933460","lat":48.8351436,"lon":10.0885386,"name":"Freie Tankstelle Aalen","city":"Aalen","category":"other","tags":[],"operator":"Freie Tankstelle","opening_hours":"Su 08:00-14:00; Mo 06:30-20:00; Tu 06:30-20:00; We 06:30-20:00; Th 06:30-20:00; Fr 06:30-20:00; Sa 08:00-20:00","gplace_id":"ChIJ1wjIFCgbmUcR_YMa6neJpBA"},{"id":"fuel_358833991","lat":48.1981963,"lon":10.1753388,"name":"Tankstelle","city":"","category":"other","tags":[],"operator":"AVIA","opening_hours":"Su 00:00+","gplace_id":"ChIJa6aug3Djm0cRy5vSN3fKnxo"},{"id":"fuel_359775281","lat":48.7859782,"lon":10.1150258,"name":"Tankstelle Balle","city":"Oberkochen","category":"other","tags":[],"opening_hours":"Mo-Fr 07:00-19:00; Sa 08:00-12:00","operator":"K. Balle"},{"id":"fuel_364155383","lat":48.8085595,"lon":10.5919216,"name":"Tankstelle","city":"","category":"other","tags":[],"opening_hours":"Su 08:00-21:00; Mo 06:00-21:00; Tu 06:00-21:00; We 06:00-21:00; Th 06:00-21:00; Fr 06:00-21:00; Sa 06:00-21:00","gplace_id":"ChIJVxExa5srmUcRImAs7gtGIDQ"},{"id":"fuel_364720389","lat":48.6620496,"lon":10.8006684,"name":"K. Schnuse","city":"","category":"other","tags":[],"opening_hours":"Su 10:00-12:00; Mo 07:00-19:00; Tu 07:00-19:00; We 07:00-19:00; Th 07:00-19:00; Fr 07:00-19:00; Sa 07:00-18:00","gplace_id":"ChIJ636_1cXPnkcRhcuE94U8faA"},{"id":"fuel_365894777","lat":48.2104888,"lon":10.0773793,"name":"ARAL","city":"","category":"other","tags":[],"operator":"Aral","opening_hours":"Su 08:00-21:00; Mo 06:00-21:00; Tu 06:00-21:00; We 06:00-21:00; Th 06:00-21:00; Fr 06:00-21:00; Sa 06:00-21:00","gplace_id":"ChIJAZ3diiThm0cRLg_cWplHzLI"},{"id":"fuel_366284358","lat":48.2788759,"lon":10.463473,"name":"Avia","city":"Thannhausen","category":"other","tags":[],"opening_hours":"Mo-Fr 06:45-20:30; Sa 08:00-20:30; Su 09:00-20:30","operator":"Avia"},{"id":"fuel_366284487","lat":48.2861781,"lon":10.4676781,"name":"Pinoil","city":"Thannhausen","category":"other","tags":[],"opening_hours":"Mo-Sa 07:00-22:00; Su 08:00-22:00","operator":"Pinoil"},{"id":"fuel_366284534","lat":48.2885794,"lon":10.4562647,"name":"Raststätte Mindeltal","city":"Thannhausen","category":"other","tags":[],"opening_hours":"Mo-Sa 06:00-22:00, Su 08:00-22:00, PH 08:00-22:00"},{"id":"fuel_366284599","lat":48.2840648,"lon":10.4600492,"name":"V-Markt","city":"Thannhausen","category":"other","tags":[],"opening_hours":"24/7","operator":"V-Markt"},{"id":"fuel_366284647","lat":48.2851477,"lon":10.460181,"name":"LPG Auto Mayer","city":"Thannhausen","category":"other","tags":[],"gplace_id":"not_found"},{"id":"fuel_368515620","lat":48.2530128,"lon":10.095408,"name":"Freie Tankstelle","city":"","category":"other","tags":[],"operator":"Freie Tankstelle","opening_hours":"Mo 07:00-19:30; Tu 07:00-19:30; We 07:00-19:30; Th 07:00-19:30; Fr 07:00-19:30; Sa 08:00-18:00","gplace_id":"ChIJh-Kng7fhm0cRtT-qka9pngA"},{"id":"fuel_380453147","lat":48.6256642,"lon":10.2405013,"name":"AGIP","city":"Giengen an der Brenz","category":"other","tags":[],"opening_hours":"Mo-Fr 05:00-23:00; Sa 06:00-23:00; Su,PH 07:00-23:00","operator":"AGIP"},{"id":"fuel_380496216","lat":48.0687656,"lon":10.6451116,"name":"V-Markt","city":"","category":"other","tags":[],"operator":"Georg Jos. Kaes GmbH","opening_hours":"Mo 08:00-20:00; Tu 08:00-20:00; We 08:00-20:00; Th 08:00-20:00; Fr 08:00-20:00; Sa 07:30-20:00","gplace_id":"ChIJ5Z8iAO0bnEcRivqIKgIC5cY"},{"id":"fuel_382562965","lat":48.0808087,"lon":10.8599384,"name":"Shell","city":"","category":"other","tags":[],"opening_hours":"Mo-Su 05:00-23:00","operator":"Shell"},{"id":"fuel_386009472","lat":48.0101123,"lon":10.5986289,"name":"Esso","city":"Bad Wörishofen","category":"other","tags":[],"opening_hours":"Mo-Sa 06:00-22:00; Su 07:00-22:00","operator":"Esso"},{"id":"fuel_393514311","lat":48.9725104,"lon":10.1199907,"name":"Avia","city":"","category":"other","tags":[],"operator":"Avia","opening_hours":"Su 00:00+","gplace_id":"ChIJKz3mFhDjmEcRZJaP9OHaVSI"},{"id":"fuel_397915969","lat":48.3282894,"lon":10.0419964,"name":"PIN","city":"Senden","category":"other","tags":[],"opening_hours":"Mo-Fr 06:00-22:00; Sa 07:00-22:00; Su,PH 08:00-22:00","operator":"Adolf Präg GmbH & Co. KG"},{"id":"fuel_399027495","lat":48.193745,"lon":10.7546716,"name":"Aral","city":"Schwabmünchen","category":"other","tags":[],"opening_hours":"Mo-Fr 05:00-22:00; Sa,Su 07:00-22:00","operator":"Aral"},{"id":"fuel_409557714","lat":48.2274796,"lon":10.7807307,"name":"Toptank","city":"Großaitingen","category":"other","tags":[],"opening_hours":"07:00-22:00"},{"id":"fuel_410928519","lat":48.9565776,"lon":10.9159506,"name":"ESSO","city":"","category":"other","tags":[],"operator":"Esso","opening_hours":"Su 07:45-21:00; Mo 06:00-21:00; Tu 06:00-21:00; We 06:00-21:00; Th 06:00-21:00; Fr 06:00-21:00; Sa 06:45-21:00","gplace_id":"ChIJpW12d2Qvn0cRW1Ju36_GZBk"},{"id":"fuel_416663889","lat":48.927636,"lon":10.9646033,"name":"Avia","city":"","category":"other","tags":[],"operator":"OMV","opening_hours":"Su 00:00+","gplace_id":"ChIJ2ajvluwln0cRHuZ5PS74k5E"},{"id":"fuel_420794911","lat":48.6873648,"lon":10.9196637,"name":"Agip","city":"","category":"other","tags":[],"operator":"Agip","opening_hours":"Su 07:00-22:00; Mo 05:00-22:00; Tu 05:00-22:00; We 05:00-22:00; Th 05:00-22:00; Fr 05:00-22:00; Sa 06:00-22:00","gplace_id":"ChIJKeyQ-FTbnkcRJgMrGwnx2DE"},{"id":"fuel_428836023","lat":48.035958,"lon":10.4956233,"name":"DCS Autogas-Tankstelle","city":"","category":"other","tags":[],"operator":"Peter Michelbach","gplace_id":"not_found"},{"id":"fuel_428837626","lat":48.8492251,"lon":10.0979157,"name":"AVIA","city":"Aalen","category":"other","tags":[],"opening_hours":"Mo-Fr 06:00-22:00; Sa 07:00-22:00; Su 08:00-22:00","operator":"AVIA"},{"id":"fuel_437503888","lat":48.1203732,"lon":10.4619828,"name":"Aral-Tankstelle","city":"","category":"other","tags":[],"operator":"Lampert","opening_hours":"Su 07:30-21:00; Mo 06:30-21:00; Tu 06:30-21:00; We 06:30-21:00; Th 06:30-21:00; Fr 06:30-21:00; Sa 06:30-21:00","gplace_id":"ChIJoa0EQVgGnEcRLPlhwShZgto"},{"id":"fuel_441835451","lat":48.088387,"lon":10.0787222,"name":"Eni","city":"Erolzheim","category":"other","tags":[],"operator":"Agip","opening_hours":"Su 07:30-21:00; Mo 06:00-21:00; Tu 06:00-21:00; We 06:00-21:00; Th 06:00-21:00; Fr 06:00-21:00; Sa 06:00-21:00","gplace_id":"ChIJgdVQ_zLvm0cR83TlMyDwxTw"},{"id":"fuel_443309072","lat":48.2444983,"lon":10.494328,"name":"BFT Bader","city":"Balzhausen","category":"other","tags":[],"operator":"Reinhold Bader","opening_hours":"Su 00:00+","gplace_id":"ChIJW3aSCX6qnkcRwQsaDCY_SpQ"},{"id":"fuel_446022403","lat":48.171267,"lon":10.4839656,"name":"V-Markt-Tankstelle","city":"","category":"other","tags":[],"opening_hours":"24/7","operator":"V-Markt Kirchheim"},{"id":"fuel_447408941","lat":48.3736006,"lon":10.7672181,"name":"Rima Tankstelle","city":"Diedorf","category":"other","tags":[],"opening_hours":"Su 07:30-20:00; Mo 05:30-20:00; Tu 05:30-20:00; We 05:30-20:00; Th 05:30-20:00; Fr 05:30-20:00; Sa 06:30-20:00","gplace_id":"ChIJXb5Ox_ilnkcR5UgV3N5ay1s"},{"id":"fuel_449118271","lat":48.6939497,"lon":10.9092821,"name":"Tankstelle Karmann","city":"","category":"other","tags":[],"opening_hours":"24/7","operator":"Tankstelle Karmann GmbH"},{"id":"fuel_450926924","lat":48.6949115,"lon":10.9236235,"name":"BayWa","city":"Rain","category":"other","tags":[],"opening_hours":"Su 00:00+","gplace_id":"ChIJU4upNljbnkcRt_y8MxtoAhw"},{"id":"fuel_450927542","lat":48.6907768,"lon":10.9256757,"name":"Böttcher","city":"Rain","category":"other","tags":[],"opening_hours":"Mo-Fr 07:00-19:00, Sa 08:00-13:00"},{"id":"fuel_454363484","lat":48.8784979,"lon":10.0499988,"name":"Aral-Tankstelle Andy Haß","city":"Aalen","category":"other","tags":[],"opening_hours":"Mo-Fr 06:00-22:00; Sa 07:00-22:00; Su 08:00-22:00","operator":"Aral"},{"id":"fuel_491933107","lat":48.4253551,"lon":10.4246492,"name":"Baywa","city":"","category":"other","tags":[],"opening_hours":"24/7"},{"id":"fuel_492037095","lat":48.1537544,"lon":10.5907992,"name":"Lehner","city":"","category":"other","tags":[],"opening_hours":"Mo 07:30-12:00,13:00-17:30; Tu 07:30-12:00,13:00-17:30; We 07:30-12:00,13:00-17:30; Th 07:30-12:00,13:00-17:30; Fr 07:30-13:30","gplace_id":"ChIJqxLs5F0DnEcREeRO8wHhTTo"},{"id":"fuel_538252517","lat":48.0470305,"lon":10.5079029,"name":"BayWaTankstelle Allgäuer Straße","city":"","category":"other","tags":[],"opening_hours":"Su 00:00+","gplace_id":"ChIJL1H0DRAPnEcRrUQCGyRLrnw"},{"id":"fuel_541020201","lat":48.6099838,"lon":10.9497363,"name":"Tankstelle","city":"","category":"other","tags":[],"gplace_id":"not_found"},{"id":"fuel_568042532","lat":48.0259907,"lon":10.3278282,"name":"Shell","city":"","category":"other","tags":[],"opening_hours":"24/7","operator":"Shell"},{"id":"fuel_581296537","lat":48.8200729,"lon":10.0331542,"name":"SWE Südwestenergie GmbH","city":"Essingen","category":"other","tags":[],"operator":"SWE Südwestenergie GmbH","opening_hours":"Su 00:00+","gplace_id":"ChIJ2xB13RQbmUcR7YMPiLB4E_c"},{"id":"fuel_582129271","lat":48.127424,"lon":10.1096467,"name":"Avia Illertal-West","city":"Dettingen an der Iller","category":"other","tags":[],"opening_hours":"24/7","operator":"Avia"},{"id":"fuel_621681198","lat":48.6196394,"lon":10.5697723,"name":"Behringer","city":"","category":"other","tags":[],"operator":"Georg Behringer","opening_hours":"Su 07:30-23:00; Mo 05:30-23:00; Tu 05:30-23:00; We 05:30-23:00; Th 05:30-23:00; Fr 05:30-23:00; Sa 06:30-23:00","gplace_id":"ChIJgfXcarc0mUcRnNfDeP1xoPY"},{"id":"fuel_661090527","lat":48.3854317,"lon":10.0039776,"name":"Jet","city":"","category":"other","tags":[],"opening_hours":"Mo-Fr 06:00-22:00; Sa 07:00-23:00; Su,PH 08:00-22:00","operator":"Jet"},{"id":"fuel_676201034","lat":48.0329616,"lon":10.33309,"name":"V-Markt","city":"","category":"other","tags":[],"opening_hours":"Mo-Su,PH 00:00-24:00"},{"id":"fuel_711757487","lat":48.2885457,"lon":10.0777188,"name":"RAN-Station Vöhringen","city":"Vöhringen","category":"other","tags":[],"opening_hours":"Mo-Fr 06:00-23:00; Sa-Su, PH 07:00-23:00","operator":"Nico Henke"},{"id":"fuel_723144788","lat":48.0427585,"lon":10.084944,"name":"Agip","city":"Berkheim","category":"other","tags":[],"opening_hours":"Su 06:00-22:00; Mo 06:00-22:00; Tu 06:00-22:00; We 06:00-22:00; Th 06:00-22:00; Fr 06:00-22:00; Sa 06:00-22:00","gplace_id":"ChIJuSxsiJjum0cRnp8A7ItVq1o"},{"id":"fuel_732711936","lat":48.0424218,"lon":10.7052798,"name":"Opel Pascher","city":"","category":"other","tags":[],"gplace_id":"not_found"},{"id":"fuel_732712104","lat":48.8830376,"lon":10.174992,"name":"Total","city":"Westhausen","category":"other","tags":[],"opening_hours":"Mo-Fr 05:00-22:00; Sa-Su 06:00-22:00; Ph 06:00-22:00","operator":"TotalEnergies"},{"id":"fuel_732712267","lat":48.03056,"lon":10.73278,"name":"KFZ Eckhardt","city":"Buchloe","category":"other","tags":[],"opening_hours":"Mo-Fr 08:00-18:00; Sa 09:00-12:00"},{"id":"fuel_732712509","lat":48.55872,"lon":10.29028,"name":"Avia","city":"Sontheim an der Brenz","category":"other","tags":[],"opening_hours":"Mo-Fr 06:30-21:00; Sa 07:30-21:00; Su 08:00-20:00","operator":"Avia"},{"id":"fuel_732712893","lat":48.4025,"lon":10.43833,"name":"KFZ-Service Mustafa Kisa","city":"Jettingen-Scheppach","category":"other","tags":[],"opening_hours":"Mo-Fr 08:00-18:00; Sa 08:00-14:00"},{"id":"fuel_732713142","lat":48.57404,"lon":10.50557,"name":"Auto&Motorrad Sluka","city":"Dillingen an der Donau","category":"other","tags":[],"gplace_id":"not_found"},{"id":"fuel_732713564","lat":48.4255653,"lon":10.4138027,"name":"Total Energies","city":"","category":"other","tags":[],"opening_hours":"Mo-Sa 07:00-21:00; Su 10:00-21:00","operator":"TotalEnergies"},{"id":"fuel_732713598","lat":48.7118787,"lon":10.7582555,"name":"Autohaus Randi","city":"Donauwörth","category":"other","tags":[],"opening_hours":"Mo-Fr 07:30-18:00; Sa 09:00-13:00","operator":"Renault;Mitsubishi;Daihatsu;Dacia"},{"id":"fuel_732713653","lat":48.2053,"lon":10.3175,"name":"H&H Autogas","city":"Ebershausen","category":"other","tags":[],"gplace_id":"not_found"},{"id":"fuel_732713893","lat":48.8619896,"lon":10.3463984,"name":"Bft","city":"Bopfingen","category":"other","tags":[],"operator":"Karl Schwenninger","opening_hours":"Su 07:00-22:00; Mo 06:00-22:00; Tu 06:00-22:00; We 06:00-22:00; Th 06:00-22:00; Fr 06:00-22:00; Sa 07:00-22:00","gplace_id":"ChIJp1F_U9YgmUcRpauQSE44BA0"},{"id":"fuel_732713991","lat":48.02006,"lon":10.60294,"name":"Autohaus Schragl LPG","city":"","category":"other","tags":[],"gplace_id":"ChIJKzJBxK8RnEcRAJ9hVHXitx0"},{"id":"fuel_732714047","lat":48.2590127,"lon":10.9850493,"name":"Avia","city":"Mering","category":"other","tags":[],"opening_hours":"Mo-Fr 07:30-18:30; Sa 08:00-15:30","operator":"Autohaus Gelb"},{"id":"fuel_732714837","lat":48.3725873,"lon":10.9133505,"name":"Erdgastankstelle Stadtwerke Augsburg","city":"Augsburg","category":"other","tags":[],"opening_hours":"Mo-Su 06:00-21:00","operator":"Stadtwerke Augsburg"},{"id":"fuel_732715625","lat":48.5650025,"lon":10.1304373,"name":"Rutat Kfz Werkstatt KG","city":"Herbrechtingen","category":"other","tags":[],"gplace_id":"not_found"},{"id":"fuel_732716315","lat":48.8048825,"lon":10.1919129,"name":"Autogas Ebnat","city":"Aalen","category":"other","tags":[],"gplace_id":"not_found"},{"id":"fuel_732716634","lat":48.1640112,"lon":10.3946672,"name":"Siegbert Schmid GmbH","city":"Breitenbrunn","category":"other","tags":[],"opening_hours":"Mo-Fr 07:30-19:00; Sa 07:30-12:00"},{"id":"fuel_732716657","lat":48.8748307,"lon":10.1184444,"name":"Autohaus Henschel","city":"Aalen","category":"other","tags":[],"opening_hours":"Mo-Fr 08:00-17:30;Sa 09:30-12:30"},{"id":"fuel_732716811","lat":48.84924,"lon":10.37501,"name":"Stolch Energie GmbH","city":"Bopfingen","category":"other","tags":[],"opening_hours":"Mo-Fr 07:30-12:00,13:00-18:00; Sa 08:00-12:00"},{"id":"fuel_732716903","lat":48.6996255,"lon":10.3517205,"name":"Wirth-Elektrotechnik GmbH","city":"Dischingen","category":"other","tags":[],"gplace_id":"not_found"},{"id":"fuel_732717297","lat":48.6153787,"lon":10.2064654,"name":"Shell","city":"Giengen an der Brenz","category":"other","tags":[],"opening_hours":"24/7","operator":"Schock Tankstellen GmbH"},{"id":"fuel_732717350","lat":48.4209127,"lon":10.828068,"name":"H & H Autogas GmbH","city":"Gersthofen","category":"other","tags":[],"opening_hours":"Mo-Fr 08:00-12:00,13:00-17:00; Sa 09:00-12:00","operator":"H & H Autogas GmbH"},{"id":"fuel_732717418","lat":48.3789759,"lon":10.095452,"name":"Autohaus Reifen Weiss","city":"","category":"other","tags":[],"opening_hours":"Mo-Fr 07:00-18:30; Sa 07:00-14:00"},{"id":"fuel_782888282","lat":48.0014019,"lon":10.5064253,"name":"Esso","city":"","category":"other","tags":[],"opening_hours":"Mo-Fr 06:00-21:00; Sa 06:30-21:00; Su 07:00-21:00; PH 07:00-21:00","operator":"Tankstelle Frey"},{"id":"fuel_794850441","lat":48.9336921,"lon":10.065394,"name":"Freie Tankstelle","city":"Neuler","category":"other","tags":[],"operator":"Autohaus-Weis GmbH","gplace_id":"ChIJJUp63lL9mEcRsD89lmmIr5s"},{"id":"fuel_800587162","lat":48.4258071,"lon":10.8664379,"name":"H & H Autogas","city":"Gersthofen","category":"other","tags":[],"opening_hours":"24/7","operator":"H & H Autogas GmbH"},{"id":"fuel_833417553","lat":48.9814262,"lon":10.7331933,"name":"Tankstelle","city":"","category":"other","tags":[],"opening_hours":"Mo 07:30-12:00; Tu 13:00-18:00; We 13:00-18:00; Th 13:00-18:00; Fr 13:00-18:00; Sa 07:30-12:00,13:00-16:00","gplace_id":"ChIJJfmgENosn0cRip91xfanOKE"},{"id":"fuel_847967873","lat":48.3841277,"lon":10.4928443,"name":"Tankstelle","city":"","category":"other","tags":[],"gplace_id":"not_found"},{"id":"fuel_877138815","lat":48.8566048,"lon":10.5074517,"name":"EDEKA Tankstelle","city":"","category":"other","tags":[],"operator":"freie Tankstelle","gplace_id":"ChIJxdmX6k0omUcRTgU4DN03deQ"},{"id":"fuel_887064823","lat":48.2562335,"lon":10.8823685,"name":"Esso","city":"Königsbrunn","category":"other","tags":[],"opening_hours":"Mo-Sa 06:00-22:00; Su 07:00-22:00","operator":"Esso"},{"id":"fuel_935327927","lat":48.0590873,"lon":10.867967,"name":"Bavaria Petrol","city":"Landsberg am Lech","category":"other","tags":[],"operator":"Tankstelle Rehmann","opening_hours":"Su 07:00-22:00; Mo 05:15-22:00; Tu 05:15-22:00; We 05:15-22:00; Th 05:15-22:00; Fr 05:15-22:00; Sa 06:00-22:00","gplace_id":"ChIJmWa9JUEjnEcRYgotdsQNKhU"},{"id":"fuel_935327937","lat":48.0576697,"lon":10.8679933,"name":"Agip","city":"","category":"other","tags":[],"operator":"Agip","opening_hours":"Su 06:00-22:00; Mo 06:00-22:00; Tu 06:00-22:00; We 06:00-22:00; Th 06:00-22:00; Fr 06:00-22:00; Sa 06:00-22:00","gplace_id":"ChIJm4gRlUYjnEcRN5ejsD-6v2g"},{"id":"fuel_935327941","lat":48.0621765,"lon":10.8660197,"name":"ESSO-Station Hoffmann","city":"","category":"other","tags":[],"opening_hours":"Mo-Su,PH 00:00-00:00","operator":"ESSO-Station Hoffmann"},{"id":"fuel_1050204912","lat":48.3160535,"lon":10.6416894,"name":"24h Tankautomat","city":"","category":"other","tags":[],"operator":"Avia","opening_hours":"Su 00:00+","gplace_id":"ChIJo8kbojCvnkcR7L6WgSUBMtY"},{"id":"fuel_1051236944","lat":48.348932,"lon":10.5842852,"name":"Tankstelle","city":"","category":"other","tags":[],"opening_hours":"Su 12:00-18:00; Mo 06:00-20:00; Tu 06:00-20:00; We 06:00-20:00; Th 06:00-20:00; Fr 06:00-20:00; Sa 06:00-19:00","gplace_id":"ChIJY5vp14GunkcR9N6puURMYzA"},{"id":"fuel_1056938522","lat":48.3760732,"lon":10.9269254,"name":"RS Autogascenter","city":"Augsburg","category":"other","tags":[],"operator":"RS Autogascenter","gplace_id":"not_found"},{"id":"fuel_1068161915","lat":48.4134556,"lon":10.5892581,"name":"Gerbing Mineralölhandel","city":"Zusmarshausen","category":"other","tags":[],"opening_hours":"24/7"},{"id":"fuel_1069713687","lat":48.946951,"lon":10.5968743,"name":"Total","city":"Oettingen i.Bay.","category":"other","tags":[],"operator":"TotalEnergies","opening_hours":"Su 08:00-22:00; Mo 05:30-22:00; Tu 05:30-22:00; We 05:30-22:00; Th 05:30-22:00; Fr 05:30-22:00; Sa 07:00-22:00","gplace_id":"ChIJWUOrpqfWmEcRHY24Jii5H8Y"},{"id":"fuel_1108413676","lat":48.018372,"lon":10.2733256,"name":"Total","city":"Ungerhausen","category":"other","tags":[],"opening_hours":"24/7","operator":"Total"},{"id":"fuel_1112128303","lat":48.9158137,"lon":10.1696457,"name":"Schmid","city":"Rainau","category":"other","tags":[],"operator":"Schmid Kraftstoffe","opening_hours":"Su 00:00+","gplace_id":"ChIJ98Zl0QEemUcRMMNEYAfPiF8"},{"id":"fuel_1112410900","lat":48.4124161,"lon":10.8761633,"name":"EDEKA Tankstelle","city":"","category":"other","tags":[],"opening_hours":"24/7","operator":"Edeka"},{"id":"fuel_1150596632","lat":48.2622383,"lon":10.984619,"name":"BK","city":"","category":"other","tags":[],"opening_hours":"Mo-Sa 06:00-21:00; Su 08:00-21:00","operator":"Jürgen Rieger"},{"id":"fuel_1210943593","lat":48.0596345,"lon":10.846947,"name":"Shell Lechwiesen Nord","city":"","category":"other","tags":[],"opening_hours":"24/7","operator":"Shell"},{"id":"fuel_1229855934","lat":48.2628962,"lon":10.9832844,"name":"BayWa","city":"","category":"other","tags":[],"operator":"BayWa","opening_hours":"Su 00:00+","gplace_id":"ChIJXSwHFhCcnkcRxFfWUAad1ec"},{"id":"fuel_1237307300","lat":48.015528,"lon":10.715244,"name":"Avia Express Tankautomat","city":"","category":"other","tags":[],"operator":"Avia","opening_hours":"Su 05:00-22:00; Mo 05:00-22:00; Tu 05:00-22:00; We 05:00-22:00; Th 05:00-22:00; Fr 05:00-22:00; Sa 05:00-22:00","gplace_id":"ChIJVXDLszgXnEcRIVSarSuy3zY"},{"id":"fuel_1259124067","lat":48.6277995,"lon":10.1870907,"name":"Aral","city":"","category":"other","tags":[],"opening_hours":"24/7","operator":"Aral"},{"id":"fuel_1341083389","lat":48.0106671,"lon":10.9279101,"name":"Tankhof Lengenfeld","city":"","category":"other","tags":[],"opening_hours":"Su 07:00-21:00; Mo 06:00-21:00; Tu 06:00-21:00; We 06:00-21:00; Th 06:00-21:00; Fr 06:00-21:00; Sa 07:00-21:00","gplace_id":"ChIJdwvrmeM6nEcRm08ETUOVBtM"},{"id":"fuel_1369388482","lat":48.4862022,"lon":10.9292097,"name":"Independent","city":"Rehling","category":"other","tags":[],"opening_hours":"24/7","operator":"Haberl-Baumgartner"},{"id":"fuel_1432177355","lat":48.4734471,"lon":10.2733347,"name":"Aral","city":"","category":"other","tags":[],"operator":"Aral","opening_hours":"Su 00:00+","gplace_id":"ChIJjYv7gbFFmUcRzrOi1uEnlz0"},{"id":"fuel_1531654377","lat":48.3907488,"lon":10.0027254,"name":"Freie Tankstelle","city":"Neu-Ulm","category":"other","tags":[],"opening_hours":"Mo-Fr 07:00-21:00; Sa 08:00-21:00; Su 10:00-21:00","operator":"Karl-Heinz Ott GmbH"},{"id":"fuel_1552341998","lat":48.4932482,"lon":10.1077402,"name":"Shell","city":"","category":"other","tags":[],"opening_hours":"Mo-Fr 06:00-22:00; Sa 07:00-22:00; Su,PH 08:00-22:00","operator":"Royal Dutch Shell plc"},{"id":"fuel_1579302209","lat":48.7048852,"lon":10.7503396,"name":"AGIP","city":"","category":"other","tags":[],"opening_hours":"24/7","operator":"Agip"},{"id":"fuel_1610765445","lat":48.3953986,"lon":10.9149499,"name":"E-Center Tankstelle","city":"","category":"other","tags":[],"opening_hours":"Mo-Fr 07:00-20:30; Sa 07:00-20:00"},{"id":"fuel_1622805905","lat":48.883363,"lon":10.4762083,"name":"TOTAL Tankstelle","city":"Wallerstein","category":"other","tags":[],"operator":"Total","opening_hours":"Su 06:00-21:00; Mo 06:00-21:00; Tu 06:00-21:00; We 06:00-21:00; Th 06:00-21:00; Fr 06:00-21:00; Sa 06:00-21:00","gplace_id":"ChIJ7a2GVgEomUcR526dBjm8mB0"},{"id":"fuel_1627019802","lat":48.8946404,"lon":10.0004258,"name":"Avia","city":"","category":"other","tags":[],"operator":"Avia","opening_hours":"Su 00:00+","gplace_id":"ChIJgZBx9FUCmUcRtAWfYHk7skE"},{"id":"fuel_1647185589","lat":48.7544255,"lon":10.3365961,"name":"ARAL","city":"","category":"other","tags":[],"operator":"Aral","opening_hours":"Su 06:00-22:00; Mo 06:00-22:00; Tu 06:00-22:00; We 06:00-22:00; Th 06:00-22:00; Fr 06:00-22:00; Sa 06:00-22:00","gplace_id":"ChIJa-n0qL4kmUcREbjDlhiOWRY"},{"id":"fuel_1651851276","lat":48.5483805,"lon":10.0202431,"name":"Gerstenlauer","city":"Neenstetten","category":"other","tags":[],"opening_hours":"24/7","operator":"Autohaus Gerstenlauer GmbH"},{"id":"fuel_1651851302","lat":48.5776269,"lon":10.0233932,"name":"Avia","city":"","category":"other","tags":[],"operator":"Nagel","opening_hours":"Su 07:30-20:00; Mo 06:00-20:00; Tu 06:00-20:00; We 06:00-20:00; Th 06:00-20:00; Fr 06:00-20:00; Sa 06:00-20:00","gplace_id":"ChIJLXanGwBtmUcRklUzScxDhv0"},{"id":"fuel_1659996230","lat":48.4785256,"lon":10.3629444,"name":"Aral-Tankstelle","city":"Offingen","category":"other","tags":[],"operator":"Adolf Präg GmbH & Co. KG","opening_hours":"Su 08:00-22:00; Mo 06:00-22:00; Tu 06:00-22:00; We 06:00-22:00; Th 06:00-22:00; Fr 06:00-22:00; Sa 07:00-22:00","gplace_id":"ChIJj9xgeSRPmUcR4Cru42t6-Dw"},{"id":"fuel_1683136386","lat":48.0035082,"lon":10.7220248,"name":"Shell","city":"Jengen","category":"other","tags":[],"opening_hours":"Mo-Fr 05:00-22:00; Sa,Su 07:00-22:00","operator":"Shell"},{"id":"fuel_1686777683","lat":48.3760608,"lon":10.9290908,"name":"Shell","city":"","category":"other","tags":[],"opening_hours":"24/7","operator":"Shell"},{"id":"fuel_1706412576","lat":48.564707,"lon":10.4217507,"name":"Avia Tankstelle","city":"","category":"other","tags":[],"operator":"Avia","opening_hours":"Su 08:00-22:00; Mo 05:30-22:00; Tu 05:30-22:00; We 05:30-22:00; Th 05:30-22:00; Fr 05:30-22:00; Sa 07:00-22:00","gplace_id":"ChIJBTUcp2RJmUcRctOAz_JO2A0"},{"id":"fuel_1706413897","lat":48.57436,"lon":10.4411656,"name":"V-Markt-Tankstelle","city":"Lauingen (Donau)","category":"other","tags":[],"opening_hours":"24/7"},{"id":"fuel_1706771161","lat":48.4536136,"lon":10.2637961,"name":"Avia","city":"Günzburg","category":"other","tags":[],"opening_hours":"Mo-Fr 06:00-22:00; Sa,Su 07:00-22:00","operator":"Avia"},{"id":"fuel_1764270169","lat":48.1391584,"lon":10.2477377,"name":"Baywa","city":"Babenhausen","category":"other","tags":[],"operator":"Baywa","opening_hours":"Su 00:00+","gplace_id":"ChIJLbLbelX6m0cRksjbyHv0GKY"},{"id":"fuel_1882020609","lat":48.8775694,"lon":10.0520804,"name":"Stegmeier","city":"Aalen","category":"other","tags":[],"operator":"Independent","gplace_id":"not_found"},{"id":"fuel_1908643792","lat":48.4266242,"lon":10.4185415,"name":"Tankstelle V Markt","city":"","category":"other","tags":[],"opening_hours":"Mo 08:00-20:00; Tu 08:00-20:00; We 08:00-20:00; Th 08:00-20:00; Fr 08:00-20:00; Sa 07:30-20:00","gplace_id":"ChIJ_yMA921NmUcRIMP4Bn-RzLk"},{"id":"fuel_1962264467","lat":48.3430705,"lon":10.8857837,"name":"Edeka","city":"Augsburg","category":"other","tags":[],"opening_hours":"24/7"},{"id":"fuel_2088171386","lat":48.5728312,"lon":10.4189891,"name":"BayWa Tankautomat","city":"Lauingen (Donau)","category":"other","tags":[],"opening_hours":"24/7","operator":"BayWa"},{"id":"fuel_2153682284","lat":48.4184573,"lon":10.1332737,"name":"Esso","city":"","category":"other","tags":[],"opening_hours":"Mo-Fr 06:30-20:00, Sa 07:00-20:00, Su 09:00-19:00","operator":"EG Group Limited"},{"id":"fuel_2159430129","lat":48.6546389,"lon":10.955616,"name":"Koch Landtechnik GmbH","city":"","category":"other","tags":[],"opening_hours":"24/7"},{"id":"fuel_2331381717","lat":48.6183666,"lon":10.1822242,"name":"OIL!","city":"Herbrechtingen","category":"other","tags":[],"operator":"R. Fleig","opening_hours":"Su 08:00-22:00; Mo 06:00-22:00; Tu 06:00-22:00; We 06:00-22:00; Th 06:00-22:00; Fr 06:00-22:00; Sa 07:00-22:00","gplace_id":"ChIJQXMczsU_mUcRhGGPRN58_lI"},{"id":"fuel_2372217949","lat":48.7401542,"lon":10.1155319,"name":"Shell","city":"Königsbronn","category":"other","tags":[],"operator":"Hermann Mogler Minderalöl GmbH","opening_hours":"Su 09:00-20:55; Mo 06:00-20:55; Tu 06:00-20:55; We 06:00-20:55; Th 06:00-20:55; Fr 06:00-20:55; Sa 08:00-20:55","gplace_id":"ChIJfc0-2EcXmUcRctLX_PGA80I"},{"id":"fuel_2379349580","lat":48.1985627,"lon":10.8542608,"name":"Aral","city":"Graben","category":"other","tags":[],"opening_hours":"24/7","operator":"Erich Werner"},{"id":"fuel_2393023467","lat":48.4274885,"lon":10.2877836,"name":"Total","city":"Günzburg","category":"other","tags":[],"opening_hours":"24/7","operator":"Total"},{"id":"fuel_2397221759","lat":48.373989,"lon":10.3112593,"name":"Aral Tankstelle","city":"","category":"other","tags":[],"operator":"Aral","opening_hours":"Su 08:00-22:00; Mo 05:30-22:00; Tu 05:30-22:00; We 05:30-22:00; Th 05:30-22:00; Fr 05:30-22:00; Sa 07:00-22:00","gplace_id":"ChIJDRQjs_VQmUcRfx2RcMfBKa4"},{"id":"fuel_2433831107","lat":48.0163915,"lon":10.6127276,"name":"AVGAS, MOGAS, JET A1","city":"","category":"other","tags":[],"gplace_id":"not_found"},{"id":"fuel_2447433136","lat":48.8692354,"lon":10.5115278,"name":"Tankpool24","city":"","category":"other","tags":[],"operator":"Mineralöl Richter","opening_hours":"Su 00:00+","gplace_id":"ChIJV1qpmzQomUcRXIdHsMJr72c"},{"id":"fuel_2465643449","lat":48.384155,"lon":10.9284555,"name":"Aral","city":"","category":"other","tags":[],"operator":"Aral","gplace_id":"not_found"},{"id":"fuel_2534917310","lat":48.0626507,"lon":10.866214,"name":"Autogas Tankstelle","city":"Landsberg am Lech","category":"other","tags":[],"opening_hours":"24/7"},{"id":"fuel_2591871355","lat":48.8613107,"lon":10.1032306,"name":"Esso","city":"Aalen","category":"other","tags":[],"opening_hours":"Mo-Su 04:00-23:00","operator":"Esso"},{"id":"fuel_2630149416","lat":48.546482,"lon":10.6819998,"name":"Wagner","city":"","category":"other","tags":[],"operator":"Aral","opening_hours":"Mo 07:30-17:30; Tu 07:30-17:30; We 07:30-17:30; Th 07:30-17:30; Fr 07:30-17:30; Sa 08:00-11:30","gplace_id":"ChIJRVEUTeDJnkcRGtIgjEfdepM"},{"id":"fuel_2872581446","lat":48.1110983,"lon":10.522838,"name":"Flugzeugtankstelle","city":"","category":"other","tags":[],"opening_hours":"\"Privat company\""},{"id":"fuel_3080529353","lat":48.3114496,"lon":10.8885133,"name":"Propangas Augsburg Böhm","city":"Augsburg","category":"other","tags":[],"opening_hours":"Mo-Fr 08:00-19:00; Sa 09:30-19:00; PH off","operator":"Autogastankstelle Markus Böhm"},{"id":"fuel_3275336093","lat":48.5120316,"lon":10.9671801,"name":"I&S Tankstelle Aindling","city":"Aindling","category":"other","tags":[],"opening_hours":"24/7","operator":"Irrenhauser & Seitz GmbH & Co. KG"},{"id":"fuel_3595027599","lat":48.6645791,"lon":10.8246327,"name":"Tankpool24","city":"Mertingen","category":"other","tags":[],"opening_hours":"24/7","operator":"Tankpool24"},{"id":"fuel_3610704481","lat":48.4409372,"lon":10.2324658,"name":"Tankpool24","city":"Leipheim","category":"other","tags":[],"opening_hours":"0:00 - 24:00","operator":"Tankpool24"},{"id":"fuel_3651127238","lat":48.8727073,"lon":10.7157263,"name":"Esso","city":"Wemding","category":"other","tags":[],"operator":"Autohaus Leinfelder GmbH & Co. KG","opening_hours":"Su 07:00-20:00; Mo 06:00-20:00; Tu 06:00-20:00; We 06:00-20:00; Th 06:00-20:00; Fr 06:00-20:00; Sa 07:00-20:00","gplace_id":"ChIJRWYOapsqn0cRrl6Gmhe3LtQ"},{"id":"fuel_3651127240","lat":48.8727446,"lon":10.7177643,"name":"Mineralöl Richter","city":"","category":"other","tags":[],"opening_hours":"Su 06:00-22:00; Mo 06:00-22:00; Tu 06:00-22:00; We 06:00-22:00; Th 06:00-22:00; Fr 06:00-22:00; Sa 06:00-22:00","gplace_id":"ChIJWZ47x4Qqn0cRApXG-QrnFcw"},{"id":"fuel_3651127245","lat":48.8678587,"lon":10.726311,"name":"Tankstelle Rösch","city":"","category":"other","tags":[],"opening_hours":"Su 06:00-22:00; Mo 06:00-22:00; Tu 06:00-22:00; We 06:00-22:00; Th 06:00-22:00; Fr 06:00-22:00; Sa 06:00-22:00","gplace_id":"ChIJHUSgWYAqn0cRb6BvXrgsh1E"},{"id":"fuel_3720271148","lat":48.4880794,"lon":10.120964,"name":"Freie Tankstelle","city":"","category":"other","tags":[],"opening_hours":"Mo-Fr 07:00-20:00; Sa 07:00-18:00; Su,PH 09:00-14:00","operator":"Erdal Özcan"},{"id":"fuel_3736653896","lat":48.3718233,"lon":10.9118509,"name":"swa Tankstelle","city":"","category":"other","tags":[],"operator":"Stadtwerke Augsburg","gplace_id":"not_found"},{"id":"fuel_3739050112","lat":48.0296059,"lon":10.7108877,"name":"BayWa Tankautomat","city":"","category":"other","tags":[],"opening_hours":"24/7","operator":"BayWa"},{"id":"fuel_4048777368","lat":48.6574304,"lon":10.1606959,"name":"HEM Tankstelle","city":"Heidenheim an der Brenz","category":"other","tags":[],"opening_hours":"Mo-Su 06:00-22:00","operator":"Deutsche Tamoil GmbH"},{"id":"fuel_4144013889","lat":48.2903618,"lon":10.6563301,"name":"Geiger Mineralöle & Brennstoffe","city":"Fischach","category":"other","tags":[],"opening_hours":"Mo-Fr 07:00-18:00"},{"id":"fuel_4149510916","lat":48.35862,"lon":10.1600992,"name":"Aral","city":"Pfaffenhofen an der Roth","category":"other","tags":[],"opening_hours":"Mo-Fr 06:30-21:00, Sa 07:00-21:00;Su 08:00-21:00","operator":"Aral"},{"id":"fuel_4266384753","lat":48.0817099,"lon":10.1222021,"name":"BFT Tankstelle","city":"","category":"other","tags":[],"operator":"Weirather GmbH","opening_hours":"Su 06:00-21:00; Mo 06:00-21:00; Tu 06:00-21:00; We 06:00-21:00; Th 06:00-21:00; Fr 06:00-21:00; Sa 06:00-21:00","gplace_id":"ChIJocfClQfvm0cRvh5VpiGiYCc"},{"id":"fuel_4333479920","lat":48.9580889,"lon":10.1761622,"name":"Kling","city":"","category":"other","tags":[],"opening_hours":"24/7","operator":"Kling Energie GmbH"},{"id":"fuel_4493837076","lat":48.9589968,"lon":10.1747906,"name":"Baywa Tankstelle","city":"Ellwangen (Jagst)","category":"other","tags":[],"opening_hours":"24/7","operator":"Baywa"},{"id":"fuel_4510150593","lat":48.0138359,"lon":10.0331981,"name":"Baumann","city":"","category":"other","tags":[],"operator":"Independent","opening_hours":"Su 00:00+","gplace_id":"ChIJqdR_n5Hrm0cRK9D29FXIbGU"},{"id":"fuel_4687721897","lat":48.7043258,"lon":10.9271756,"name":"Tankpool24","city":"Rain","category":"other","tags":[],"opening_hours":"24/7"},{"id":"fuel_4711943986","lat":48.9291909,"lon":10.3304636,"name":"Freie Tankstelle Schneider","city":"Unterschneidheim","category":"other","tags":[],"operator":"Berta Schneider","opening_hours":"Su 00:00+","gplace_id":"ChIJqcxCxwnfmEcRFUQsb5Z-8yQ"},{"id":"fuel_4872787216","lat":48.4263558,"lon":10.8656257,"name":"tankpool24","city":"","category":"other","tags":[],"opening_hours":"Su 00:00+","gplace_id":"ChIJU2LN10m8nkcRJIxuGm_0NFo"},{"id":"fuel_4988507211","lat":48.1771642,"lon":10.5942696,"name":"Tankstelle","city":"","category":"other","tags":[],"opening_hours":"24/7"},{"id":"fuel_5210672268","lat":48.555693,"lon":10.8496564,"name":"Beducker Tankstelle/Tankautomat","city":"Meitingen","category":"other","tags":[],"opening_hours":"24/7","operator":"Independent"},{"id":"fuel_5301447979","lat":48.6220838,"lon":10.5738875,"name":"LPG Autogas","city":"","category":"other","tags":[],"operator":"Autohaus Schlecht","gplace_id":"not_found"},{"id":"fuel_5343454612","lat":48.4162542,"lon":10.100901,"name":"Total","city":"Nersingen","category":"other","tags":[],"opening_hours":"24/7","operator":"Total"},{"id":"fuel_5548929657","lat":48.347919,"lon":10.8801084,"name":"Jet","city":"Augsburg","category":"other","tags":[],"opening_hours":"Mo-Fr 05:00-24:00; Sa 06:30-24:00; Su 08:00-23:00","operator":"Nicole Schoening"},{"id":"fuel_5567699934","lat":48.8972762,"lon":10.928876,"name":"Linner","city":"","category":"other","tags":[],"opening_hours":"Mo-Fr 07:00-18:00; Sa 08:00-16:00 open \"Shop\" || 24/7 open \"fuel self service\""},{"id":"fuel_5859494337","lat":48.6831812,"lon":10.8185298,"name":"Kuntze","city":"","category":"other","tags":[],"opening_hours":"24/7","operator":"Independent"},{"id":"fuel_6042191750","lat":48.0359876,"lon":10.7325241,"name":"Aral","city":"","category":"other","tags":[],"operator":"Aral","opening_hours":"Su 08:00-21:00; Mo 06:00-21:00; Tu 06:00-21:00; We 06:00-21:00; Th 06:00-21:00; Fr 06:00-21:00; Sa 07:00-21:00","gplace_id":"ChIJi2lIBaIXnEcRrglF4CmNYC4"},{"id":"fuel_6166718307","lat":48.4170746,"lon":10.8663086,"name":"Tankstelle","city":"","category":"other","tags":[],"gplace_id":"not_found"},{"id":"fuel_6222655692","lat":48.257003,"lon":10.8706847,"name":"Globus Baumarkt Tankstelle","city":"","category":"other","tags":[],"opening_hours":"24/7"},{"id":"fuel_6226798918","lat":48.4134027,"lon":10.4288417,"name":"ARAL","city":"","category":"other","tags":[],"opening_hours":"24/7","operator":"ARAL"},{"id":"fuel_6252545510","lat":48.6280838,"lon":10.2795642,"name":"Tankstelle Hohenmemmingen","city":"Giengen an der Brenz","category":"other","tags":[],"opening_hours":"Mo-Fr 05:00-20:00; Sa,Su,Ph 07:00-20:00"},{"id":"fuel_6349344418","lat":48.8523694,"lon":10.097031,"name":"Erdgastankstelle der Stadtwerke","city":"","category":"other","tags":[],"opening_hours":"24/7","operator":"Stadtwerke Aalen"},{"id":"fuel_6357058026","lat":48.5833778,"lon":10.1772893,"name":"Aral","city":"Giengen an der Brenz","category":"other","tags":[],"opening_hours":"24/7","operator":"Aral"},{"id":"fuel_6411515167","lat":48.0211197,"lon":10.6003353,"name":"V-Markt Tankstelle","city":"","category":"other","tags":[],"opening_hours":"24/7","operator":"V-Markt"},{"id":"fuel_6747182494","lat":48.5972709,"lon":10.2566163,"name":"Aral","city":"Hermaringen","category":"other","tags":[],"opening_hours":"Mo-Fr 06:00-21:00; Sa 07:00-21:00; Su 08:00-20:00","operator":"Kurt Dalacker e.K."},{"id":"fuel_6776732644","lat":48.6800997,"lon":10.1277687,"name":"Tankstelle am Kaufland","city":"Heidenheim an der Brenz","category":"other","tags":[],"opening_hours":"Mo-Su,PH 07:00-22:00","operator":"Südramol GmbH & Co. KG"},{"id":"fuel_7110935322","lat":48.4480031,"lon":10.2394907,"name":"Jet","city":"Leipheim","category":"other","tags":[],"opening_hours":"Mo-Su 06:00-22:00","operator":"JET"},{"id":"fuel_7159057563","lat":48.3708036,"lon":10.9004797,"name":"Total","city":"Augsburg","category":"other","tags":[],"opening_hours":"24/7","operator":"Total"},{"id":"fuel_7291380565","lat":48.3898988,"lon":10.0168799,"name":"Betriebstankstelle","city":"","category":"other","tags":[],"gplace_id":"not_found"},{"id":"fuel_7489565403","lat":48.3949075,"lon":10.036361,"name":"Tankpool24","city":"","category":"other","tags":[],"opening_hours":"24/7","operator":"Tankpool24 GmbH"},{"id":"fuel_7600630572","lat":48.1493541,"lon":10.2388074,"name":"Energiehandel Süd GmbH & Co. KG","city":"Babenhausen","category":"other","tags":[],"gplace_id":"not_found"},{"id":"fuel_7802037332","lat":48.6794662,"lon":10.6983506,"name":"Agip","city":"Tapfheim","category":"other","tags":[],"operator":"Michael Girstenbrei","opening_hours":"Su 08:00-20:00; Mo 06:00-20:00; Tu 06:00-20:00; We 06:00-20:00; Th 06:00-20:00; Fr 06:00-20:00; Sa 07:00-20:00","gplace_id":"ChIJH_MdcdvNnkcRk9kBDuViqxk"},{"id":"fuel_7887515474","lat":48.1986751,"lon":10.9279619,"name":"Tankstelle Prestle","city":"Prittriching","category":"other","tags":[],"operator":"freie Tankstelle","opening_hours":"Su 00:00+","gplace_id":"ChIJKRxRh6cgnEcRhbMh_sE10EU"},{"id":"fuel_8407703318","lat":48.458614,"lon":10.2769091,"name":"Access","city":"Günzburg","category":"other","tags":[],"operator":"Frank Hlawatschke","opening_hours":"Su 07:00-22:00; Mo 05:00-22:00; Tu 05:00-22:00; We 05:00-22:00; Th 05:00-22:00; Fr 05:00-22:00; Sa 06:00-22:00","gplace_id":"ChIJ07xtUwhFmUcRMoj-a6NVG9o"},{"id":"fuel_8407885881","lat":48.3559281,"lon":10.9555496,"name":"BK-Tankstelle","city":"Friedberg","category":"other","tags":[],"opening_hours":"Mo-Fr 05:00-22:00; Sa 06:00-22:00; Su 07:00-22:00","operator":"Susanne Feistl"},{"id":"fuel_8408073181","lat":48.3281703,"lon":10.036257,"name":"Tankstelle Inhofer","city":"Senden","category":"other","tags":[],"opening_hours":"24/7","operator":"Möbel Inhofer GmbH & Co KG"},{"id":"fuel_8954240091","lat":48.41165,"lon":10.9138272,"name":"TotalEnergies","city":"Augsburg","category":"other","tags":[],"opening_hours":"24/7","operator":"TotalEnergies"},{"id":"fuel_9251247742","lat":48.4253143,"lon":10.2883087,"name":"tankpool24.de","city":"","category":"other","tags":[],"operator":"tankpool24.de","opening_hours":"Su 00:00+","gplace_id":"ChIJDQxT71FFmUcRsQVTd3eteFY"},{"id":"fuel_9273173679","lat":48.5359754,"lon":10.2370288,"name":"Total","city":"Niederstotzingen","category":"other","tags":[],"opening_hours":"Mo-Sa 06:00-22:00; Su,PH 07:00-22:00","operator":"Total S.A."},{"id":"fuel_9411389045","lat":48.4441502,"lon":10.8757406,"name":"Aral","city":"","category":"other","tags":[],"opening_hours":"Mo-Su 05:00-23:00","operator":"Aral"},{"id":"fuel_9431251626","lat":48.2791392,"lon":10.8407305,"name":"Aral","city":"Bobingen","category":"other","tags":[],"opening_hours":"Mo-Sa 06:00-22:00; Su 07:00-22:00","operator":"Adolf Präg GmbH & Co. KG"},{"id":"fuel_9459114021","lat":48.616831,"lon":10.4267288,"name":"Wolfgang Schmied","city":"Wittislingen","category":"other","tags":[],"opening_hours":"Mo-Fr 06:30-18:00; Sa 07:30-12:00"},{"id":"fuel_9522041112","lat":48.6081449,"lon":10.5581896,"name":"Behringer","city":"Höchstädt an der Donau","category":"other","tags":[],"opening_hours":"Mo-Su,PH 00:00-00:00","operator":"Behringer"},{"id":"fuel_9825637941","lat":48.311284,"lon":10.9067768,"name":"ESSO","city":"Augsburg","category":"other","tags":[],"opening_hours":"Mo-Sa 06:00-22:00; PH,Su 07:00-22:00","operator":"Esso"},{"id":"fuel_9921100885","lat":48.0638088,"lon":10.8562577,"name":"V-MARKT","city":"","category":"other","tags":[],"opening_hours":"24/7","operator":"V-MARKT"},{"id":"fuel_9952716974","lat":48.6734961,"lon":10.8251285,"name":"Shell","city":"","category":"other","tags":[],"operator":"Kreutzmann GmbH & Co. KG","opening_hours":"Su 00:00+","gplace_id":"ChIJFQTaPFrFnkcR3MR3G-d-Tes"},{"id":"fuel_9964301546","lat":48.4237184,"lon":10.9295733,"name":"Tankstelle","city":"","category":"other","tags":[],"gplace_id":"not_found"},{"id":"fuel_9992952774","lat":48.3125101,"lon":10.961828,"name":"RAN","city":"Kissing","category":"other","tags":[],"opening_hours":"Mo-Fr 05:00-24:00; PH,Sa-Su 06:00-24:00","operator":"Volkan Kadir Esen"},{"id":"fuel_10024004214","lat":48.0008335,"lon":10.1683518,"name":"Tankstelle am Supermarkt","city":"Memmingen","category":"other","tags":[],"opening_hours":"24/7","operator":"Independent"},{"id":"fuel_10108579884","lat":48.3816641,"lon":10.9323646,"name":"Pinoil","city":"","category":"other","tags":[],"opening_hours":"Mo-Fr 05:00-21:00, Sa 06:00-21:00, Su,PH 08:00-21:00","operator":"Pinoil"},{"id":"fuel_10265548923","lat":48.4591772,"lon":10.0344132,"name":"LIQVIS","city":"","category":"other","tags":[],"operator":"LIQVIS","opening_hours":"Su 00:00+","gplace_id":"ChIJjYiRfJRomUcR--AdRs99d3A"},{"id":"fuel_10265551924","lat":48.4110678,"lon":10.4392949,"name":"LNG","city":"","category":"other","tags":[],"opening_hours":"Su 05:30-23:00; Mo 05:30-23:00; Tu 05:30-23:00; We 05:30-23:00; Th 05:30-23:00; Fr 05:30-23:00; Sa 05:30-23:00","gplace_id":"ChIJe5Jb2yFNmUcR1xIxIyH51_s"},{"id":"fuel_10782428126","lat":48.3541249,"lon":10.9151711,"name":"Avia","city":"Augsburg","category":"other","tags":[],"opening_hours":"Mo-Fr 07:00-18:30; Sa 08:00-12:30; Su,PH off","operator":"Avia"},{"id":"fuel_10836827761","lat":48.4524573,"lon":10.2594948,"name":"Gaveg","city":"Günzburg","category":"other","tags":[],"opening_hours":"24/7"},{"id":"fuel_11035167678","lat":48.2923791,"lon":10.6598718,"name":"Esso","city":"Fischach","category":"other","tags":[],"opening_hours":"Mo-Fr 06:30-20:00; Sa 07:00-20:00; Su 09:00-19:00","operator":"Klaus Weiske"},{"id":"fuel_11117126387","lat":48.8403477,"lon":10.8419999,"name":"Tankstelle","city":"","category":"other","tags":[],"opening_hours":"Su 00:00+","gplace_id":"ChIJ23-GwjvXnkcRDSaUhj98AMk"},{"id":"fuel_11233374382","lat":48.8545657,"lon":10.1011102,"name":"ELO","city":"","category":"other","tags":[],"opening_hours":"24/7","operator":"ELO"},{"id":"fuel_11352186885","lat":48.0449212,"lon":10.5102296,"name":"Kaufmarkt-Tankstelle","city":"","category":"other","tags":[],"opening_hours":"Mo 06:00-20:00; Tu 06:00-20:00; We 06:00-20:00; Th 06:00-20:00; Fr 06:00-20:00; Sa 08:00-20:00","gplace_id":"ChIJh51UJgUPnEcRM3f9b2Rk8-E"},{"id":"fuel_11383649262","lat":48.3046421,"lon":10.9627952,"name":"Tankstelle","city":"Kissing","category":"other","tags":[],"opening_hours":"Mo-Sa 6:00-22:00","operator":"V-Markt"},{"id":"fuel_11750600226","lat":48.1758621,"lon":10.7576606,"name":"Aral","city":"Schwabmünchen","category":"other","tags":[],"opening_hours":"Mo-Fr 06:00-22:00; Sa,Su 07:00-22:00","operator":"Gerhard Meiringer"},{"id":"fuel_11755381036","lat":48.453285,"lon":10.286244,"name":"JET","city":"","category":"other","tags":[],"opening_hours":"Mo-Fr 05:00-24:00; Sa,Su 06:00-24:00","operator":"Linda Nikolajewski"},{"id":"fuel_11844582908","lat":48.579983,"lon":10.4880386,"name":"Agip","city":"","category":"other","tags":[],"operator":"Agip","opening_hours":"Su 07:00-23:00; Mo 04:00-23:00; Tu 03:30-23:00; We 04:00-23:00; Th 04:00-23:00; Fr 04:00-23:00; Sa 07:00-23:00","gplace_id":"ChIJn0BKzZQ1mUcR897OwiWRyto"},{"id":"fuel_12073480767","lat":48.407501,"lon":10.4356212,"name":"AS24","city":"","category":"other","tags":[],"operator":"AS 24","opening_hours":"Su 00:00+","gplace_id":"ChIJK0KXa4hNmUcRG3xacVmBX_Y"},{"id":"fuel_12092459636","lat":48.0324061,"lon":10.5022066,"name":"Tankpool 24","city":"","category":"other","tags":[],"opening_hours":"24/7","operator":"Richter Pooltankstellen"},{"id":"fuel_12109087088","lat":48.5579178,"lon":10.8525138,"name":"Esso","city":"Westendorf","category":"other","tags":[],"opening_hours":"24/7","operator":"Esso"},{"id":"fuel_12115675493","lat":48.0878258,"lon":10.8561107,"name":"ENI","city":"Kaufering","category":"other","tags":[],"operator":"Eni","opening_hours":"Su 08:00-22:00; Mo 05:00-22:00; Tu 05:00-22:00; We 05:00-22:00; Th 05:00-22:00; Fr 05:00-22:00; Sa 07:00-22:00","gplace_id":"ChIJ2ziwcKkjnEcRCu8-vLmH2zg"},{"id":"fuel_12133055747","lat":48.3890128,"lon":10.9356265,"name":"Esso","city":"","category":"other","tags":[],"operator":"Esso","opening_hours":"Su 00:00+","gplace_id":"ChIJc0FiKpGXnkcRGItBvvzgi3g"},{"id":"fuel_12181818392","lat":48.3922386,"lon":10.8350137,"name":"Freie Tankstelle Neusäß","city":"Neusäß","category":"other","tags":[],"opening_hours":"Mo-Fr 06:00-22:00; Sa 07:30-22:00; Su 08:30-21:00","operator":"Nerz GmbH"},{"id":"fuel_12192514989","lat":48.8212225,"lon":10.0286278,"name":"Esso","city":"Essingen","category":"other","tags":[],"opening_hours":"Mo-Sa 07:00-20:00, Su 8:30-20:00","operator":"Esso"},{"id":"fuel_12297027368","lat":48.1974918,"lon":10.7678362,"name":"V-Markt Automatentankstelle Schwabmünchen","city":"Schwabmünchen","category":"other","tags":[],"opening_hours":"24/7","operator":"Georg Jos. Kaes GmbH"},{"id":"fuel_12327136674","lat":48.0429999,"lon":10.6199256,"name":"Allguth TotalEnergies","city":"","category":"other","tags":[],"opening_hours":"24/7"},{"id":"fuel_12327136686","lat":48.0431749,"lon":10.6206184,"name":"Allguth TotalEnergies","city":"","category":"other","tags":[],"opening_hours":"24/7","operator":"TotalEnergies"},{"id":"fuel_12363366545","lat":48.0349866,"lon":10.1536993,"name":"Eni","city":"Heimertingen","category":"other","tags":[],"opening_hours":"Mo-Fr 06:00-22:00; Sa-Su 07:00-22:00","operator":"Eni"},{"id":"fuel_12367486114","lat":48.448014,"lon":10.0993629,"name":"JET","city":"","category":"other","tags":[],"opening_hours":"Mo-Fr 05:00-24:00, Sa 06:00-24:00, Su,PH 07:00-24:00","operator":"JET"},{"id":"fuel_12405090750","lat":48.4399641,"lon":10.9330022,"name":"I&S Tankstelle Mühlhausen","city":"Affing","category":"other","tags":[],"opening_hours":"24/7","operator":"Irrenhauser & Seitz GmbH & Co. KG"},{"id":"fuel_12430400287","lat":48.4081973,"lon":10.9479714,"name":"Amenda Logistik","city":"Friedberg","category":"other","tags":[],"gplace_id":"not_found"},{"id":"fuel_12657618103","lat":48.3518247,"lon":10.9869249,"name":"BayWa","city":"Friedberg","category":"other","tags":[],"opening_hours":"24/7","operator":"BayWa"},{"id":"fuel_12720448386","lat":48.3662262,"lon":10.0098687,"name":"PIN","city":"Neu-Ulm","category":"other","tags":[],"opening_hours":"Mo-Fr 06:00-22:00; Sa 07:00-22:00; Su,PH 08:00-22:00","operator":"Adolf Präg GmbH & Co. KG"},{"id":"fuel_12738552808","lat":48.4116795,"lon":10.8620453,"name":"BayWa BioLNG-Tankstelle Gersthofen","city":"Gersthofen","category":"other","tags":[],"opening_hours":"24/7","operator":"BayWa"},{"id":"fuel_12750473795","lat":48.3517369,"lon":10.1616119,"name":"B3","city":"","category":"other","tags":[],"opening_hours":"Su 08:00-19:00; Mo 06:00-20:00; Tu 06:00-20:00; We 06:00-20:00; Th 06:00-20:00; Fr 06:00-20:00; Sa 07:00-20:00","gplace_id":"ChIJW1llRgJcmUcR-n7Hm7FwPno"},{"id":"fuel_12765724416","lat":48.6175716,"lon":10.0246914,"name":"Eni Tankstelle","city":"Gerstetten","category":"other","tags":[],"opening_hours":"Mo-Fr 06:30-20:00; Sa 07:00-19:00; Su 09:00-19:00","operator":"Seibold GmbH"},{"id":"fuel_12848818597","lat":48.4956105,"lon":10.1174381,"name":"PIN","city":"","category":"other","tags":[],"opening_hours":"Mo-Fr 06:00-22:00; Sa 07:00-22:00; Su,PH 08:00-22:00","operator":"Adolf Präg GmbH & Co. KG"},{"id":"fuel_12899295454","lat":48.4055823,"lon":10.0380142,"name":"Total","city":"Neu-Ulm","category":"other","tags":[],"opening_hours":"Mo-Sa 06:00-23:00; Su,PH 07:00-23:00","operator":"TotalEnergies"},{"id":"fuel_12901576493","lat":48.6892606,"lon":10.2133027,"name":"Total Nattheim","city":"Nattheim","category":"other","tags":[],"opening_hours":"24/7","operator":"TotalEnergies"},{"id":"fuel_12978784740","lat":48.2939797,"lon":10.5480952,"name":"Avia","city":"Ziemetshausen","category":"other","tags":[],"opening_hours":"24/7","operator":"Avia"},{"id":"fuel_13069638170","lat":48.610695,"lon":10.2109799,"name":"H2 Tankstelle","city":"Giengen an der Brenz","category":"other","tags":[],"opening_hours":"24/7","operator":"MorGen Mobility GmbH"},{"id":"fuel_13098442062","lat":48.40436,"lon":10.0339976,"name":"Aral","city":"Neu-Ulm","category":"other","tags":[],"opening_hours":"Mo-Fr 06:00-23:00; Sa-Su,PH 07:00-23:00","operator":"Aral"},{"id":"fuel_13607216642","lat":48.407142,"lon":10.9513612,"name":"Esso","city":"Friedberg","category":"other","tags":[],"opening_hours":"24/7","operator":"Esso"},{"id":"fuel_13614875610","lat":48.0056452,"lon":10.1504298,"name":"tankpool24","city":"","category":"other","tags":[],"operator":"tankpool24","gplace_id":"ChIJHYFnWmbzm0cRcsE8-UXAAfs"},{"id":"fuel_13698782190","lat":48.3632147,"lon":10.7896118,"name":"Esso","city":"Diedorf","category":"other","tags":[],"opening_hours":"Mo-Sa 06:00-22:00, Su 07:00-22:00","operator":"Esso"}]