[{"id":"fuel_21180075","lat":49.7546677,"lon":9.9614085,"name":"Aral","city":"","category":"other","tags":[],"opening_hours":"24/7","operator":"Aral"},{"id":"fuel_25855406","lat":49.9555294,"lon":9.7727613,"name":"Aral","city":"Karlstadt","category":"other","tags":[],"opening_hours":"24/7","operator":"Stefanie Rakowski"},{"id":"fuel_29016843","lat":49.0050834,"lon":9.5019026,"name":"Aral","city":"","category":"other","tags":[],"operator":"Aral"},{"id":"fuel_29386018","lat":49.8465325,"lon":9.1515582,"name":"Aral","city":"Obernburg am Main","category":"other","tags":[],"opening_hours":"Mo-Sa 06:00-22:00; Su 08:00-22:00","operator":"Aral"},{"id":"fuel_30038556","lat":49.0037016,"lon":9.492941,"name":"Shell","city":"","category":"other","tags":[],"opening_hours":"Mo-Fr 05:00-23:00; Sa 06:00-23:00; Su 07:00-23:00","operator":"Shell"},{"id":"fuel_31884211","lat":49.770399,"lon":9.5626527,"name":"Tankstelle Diehm","city":"Wertheim","category":"other","tags":[],"opening_hours":"24/7"},{"id":"fuel_33177981","lat":49.7788304,"lon":9.9378474,"name":"HERM","city":"Würzburg","category":"other","tags":[],"opening_hours":"Mo-Th 06:00-22:00, Fr 06:00-23:00, Sa 07:00-23:00, Su08:00-22:00, PH off","operator":"Tankstelle Mathes GmbH"},{"id":"fuel_36630240","lat":49.796661,"lon":9.7354358,"name":"OMV Tankstelle","city":"Uettingen","category":"other","tags":[],"opening_hours":"Mo-Sa 05:00-22:00; Su 06:00-22:00","operator":"OMV"},{"id":"fuel_112378350","lat":49.7459577,"lon":9.8449651,"name":"Shell","city":"Kist","category":"other","tags":[],"opening_hours":"Mo-Su,PH 00:00-24:00","operator":"Nicole Schönborn"},{"id":"fuel_150436664","lat":49.3435534,"lon":9.1053296,"name":"ELAN","city":"Mosbach","category":"other","tags":[],"opening_hours":"Mo-Fr 06:00-22:00; Sa 06:00-24:00; Su 08:00-22:00","operator":"Elan"},{"id":"fuel_189182552","lat":49.3377824,"lon":9.1166983,"name":"Aral","city":"","category":"other","tags":[],"operator":"Aral"},{"id":"fuel_196258186","lat":49.3433219,"lon":9.1222833,"name":"Zahradnik Tankstelle","city":"","category":"other","tags":[]},{"id":"fuel_198935015","lat":49.5308371,"lon":9.2018334,"name":"Esso","city":"","category":"other","tags":[],"opening_hours":"Mo-Fr 06:00-21:00,Sa-Su 07:00-21:00","operator":"Esso"},{"id":"fuel_198970602","lat":49.6197583,"lon":9.1836487,"name":"Tankstelle Walter","city":"Kirchzell","category":"other","tags":[],"operator":"Autohaus Walter GmbH"},{"id":"fuel_199016552","lat":49.7055556,"lon":9.3255803,"name":"Calpam","city":"Eichenbühl","category":"other","tags":[],"opening_hours":"24/7","operator":"Calpam"},{"id":"fuel_211363244","lat":49.1500733,"lon":9.2959066,"name":"Esso","city":"Weinsberg","category":"other","tags":[],"operator":"Esso"},{"id":"fuel_232850988","lat":49.1516964,"lon":9.7344367,"name":"Avia","city":"","category":"other","tags":[],"opening_hours":"24/7","operator":"Avia"},{"id":"fuel_246841119","lat":49.6420919,"lon":9.2329292,"name":"Shell","city":"Amorbach","category":"other","tags":[],"operator":"Christian Mändl"},{"id":"fuel_247169960","lat":49.7928111,"lon":9.9166567,"name":"Jet","city":"Würzburg","category":"other","tags":[],"opening_hours":"Mo-Fr 05:30-22:00; Sa 06:00-22:00; Su 07:00-22:00","operator":"JET"},{"id":"fuel_248059725","lat":49.141595,"lon":9.1964085,"name":"Aral","city":"Heilbronn","category":"other","tags":[],"operator":"Veronika Holaschke"},{"id":"fuel_248064012","lat":49.8247049,"lon":9.8791733,"name":"Shell","city":"Veitshöchheim","category":"other","tags":[],"opening_hours":"Mo-Fr 06:00-22:00; Sa 07:00-22:00; Su 08:00-22:00","operator":"Schell"},{"id":"fuel_248212921","lat":49.7836821,"lon":9.9387992,"name":"Esso","city":"Würzburg","category":"other","tags":[],"opening_hours":"Mo-Fr 06:30-00:00; Sa 07:00-00:00; Su 08:00-00","operator":"Esso"},{"id":"fuel_249659241","lat":49.9614241,"lon":9.1778784,"name":"Aral","city":"Aschaffenburg","category":"other","tags":[],"operator":"Aral"},{"id":"fuel_249805623","lat":49.9243235,"lon":9.0061739,"name":"Classic","city":"","category":"other","tags":[],"operator":"Classic"},{"id":"fuel_250387062","lat":49.1228158,"lon":9.1960921,"name":"Total","city":"","category":"other","tags":[],"operator":"TotalEnergies"},{"id":"fuel_251475573","lat":49.206563,"lon":9.6409032,"name":"Esso Hohenlohe Nord","city":"","category":"other","tags":[],"opening_hours":"24/7","operator":"Esso"},{"id":"fuel_252025534","lat":49.0769863,"lon":9.5632448,"name":"Aral","city":"","category":"other","tags":[],"operator":"Aral"},{"id":"fuel_252256336","lat":49.8403775,"lon":9.1580036,"name":"OIL!","city":"Elsenfeld","category":"other","tags":[],"opening_hours":"Mo-Sa 06:00-22:00; Su 08:00-22:00","operator":"Willy Klug oHG"},{"id":"fuel_252256375","lat":49.8373842,"lon":9.1437158,"name":"bft","city":"Obernburg a.Main","category":"other","tags":[],"opening_hours":"Mo-Fr 05:30-22:00; Sa 06:30-22:00; Su,PH 08:00-22:00","operator":"Salvatore Galvano"},{"id":"fuel_252260901","lat":49.8601542,"lon":9.2910789,"name":"Aral","city":"","category":"other","tags":[],"opening_hours":"Mo-Fr 06:00-20:00; Sa 07:00-20:00; Su 07:30-20:00"},{"id":"fuel_253386963","lat":49.977042,"lon":9.1529981,"name":"Agip","city":"","category":"other","tags":[],"operator":"Agip"},{"id":"fuel_255152002","lat":49.806466,"lon":9.1586191,"name":"Avia","city":"Erlenbach a.Main","category":"other","tags":[],"opening_hours":"Mo-Sa 06:00-22:00; Su 07:00-22:00","operator":"Sven Pflumm"},{"id":"fuel_255213925","lat":49.6700022,"lon":9.0028767,"name":"CLASSIC Michelstadt","city":"Michelstadt","category":"other","tags":[],"operator":"Markus Blum"},{"id":"fuel_255667736","lat":49.9698631,"lon":9.1632283,"name":"Aral","city":"Aschaffenburg","category":"other","tags":[],"operator":"Aral"},{"id":"fuel_257036862","lat":49.9870639,"lon":9.1598626,"name":"Hessol","city":"Aschaffenburg","category":"other","tags":[],"opening_hours":"24/7","operator":"hessol"},{"id":"fuel_257083087","lat":49.9650289,"lon":9.1980745,"name":"Classic","city":"Haibach","category":"other","tags":[],"opening_hours":"Mo-Fr 06:00-22:00; Sa 07:00-22:00; Su 08:00-22:00","operator":"Classic"},{"id":"fuel_260439544","lat":49.3466975,"lon":9.9760566,"name":"Avia","city":"Schrozberg","category":"other","tags":[],"operator":"Avia"},{"id":"fuel_260441218","lat":49.4974053,"lon":9.7656148,"name":"Esso","city":"","category":"other","tags":[],"operator":"Esso"},{"id":"fuel_261157800","lat":49.0904543,"lon":9.491018,"name":"Aral","city":"","category":"other","tags":[],"opening_hours":"Mo-Fr 06:30-22:00; Sa 07:00-22:00","operator":"Aral"},{"id":"fuel_262174064","lat":49.1977513,"lon":9.490669,"name":"Dalacker","city":"","category":"other","tags":[]},{"id":"fuel_263777209","lat":49.7846973,"lon":9.8862813,"name":"Eni","city":"Höchberg","category":"other","tags":[],"opening_hours":"Mo-Sa 06:00-22:00; Su 07:00-22:00","operator":"Eni"},{"id":"fuel_263826511","lat":49.7798461,"lon":9.4439978,"name":"Jessberger","city":"","category":"other","tags":[]},{"id":"fuel_268040360","lat":49.9533459,"lon":9.7746562,"name":"Shell","city":"Karlstadt","category":"other","tags":[],"opening_hours":"Mo-Fr 06:00-22:00; Sa,Su 07:00-22:00","operator":"Shell"},{"id":"fuel_268642047","lat":49.4306621,"lon":9.7016087,"name":"Tankstelle","city":"","category":"other","tags":[],"operator":"Spiegel"},{"id":"fuel_268802119","lat":49.9808773,"lon":9.1242244,"name":"Esso","city":"","category":"other","tags":[],"operator":"ESSO"},{"id":"fuel_268820902","lat":49.498327,"lon":9.7613606,"name":"Tankpoint","city":"","category":"other","tags":[],"operator":"Tankpoint"},{"id":"fuel_269153349","lat":49.8493854,"lon":9.0897097,"name":"Shell","city":"Mömlingen","category":"other","tags":[],"opening_hours":"Mo-Fr 06:30-20:00; Sa 08:00-20:00; Su 09:00-18:00","operator":"Harald Wolf"},{"id":"fuel_269787780","lat":49.974105,"lon":9.1551468,"name":"Liqui Moly","city":"","category":"other","tags":[]},{"id":"fuel_271921339","lat":49.7817332,"lon":9.5015378,"name":"Walther","city":"Wertheim","category":"other","tags":[],"opening_hours":"Mo-Fr 05:00-21:00; Su 08:00-21:00; Sa 07:00-21:00","operator":"Walther"},{"id":"fuel_271921343","lat":49.781785,"lon":9.5034194,"name":"Aral","city":"Wertheim","category":"other","tags":[],"opening_hours":"Mo-Fr 05:00-22:00; Su 07:00-22:00; Sa 06:00-22:00","operator":"Aral"},{"id":"fuel_272824227","lat":49.1310144,"lon":9.2258306,"name":"RAN-Station Heilbronn","city":"","category":"other","tags":[],"operator":"Freie Tankstelle"},{"id":"fuel_274372663","lat":49.704209,"lon":9.2368609,"name":"Aral","city":"","category":"other","tags":[],"operator":"Aral"},{"id":"fuel_274740013","lat":49.0546803,"lon":9.7343294,"name":"LD","city":"","category":"other","tags":[],"opening_hours":"24/7","operator":"Independent"},{"id":"fuel_275001978","lat":49.3529714,"lon":9.2182576,"name":"MET","city":"","category":"other","tags":[]},{"id":"fuel_276449250","lat":49.8872129,"lon":9.8303073,"name":"Walther","city":"Zellingen","category":"other","tags":[],"opening_hours":"Mo-Fr 06:00-22:00; Sa 07:00-22:00; Su 08:00-22:00","operator":"BFT"},{"id":"fuel_277779844","lat":49.7211417,"lon":9.2307657,"name":"Calpam","city":"","category":"other","tags":[],"operator":"Auto Schenk"},{"id":"fuel_280243091","lat":49.106544,"lon":9.718743,"name":"Total","city":"","category":"other","tags":[],"operator":"Total"},{"id":"fuel_280593789","lat":49.1468729,"lon":9.0598207,"name":"Shell","city":"","category":"other","tags":[],"operator":"Shell"},{"id":"fuel_280683266","lat":49.8820089,"lon":9.1498928,"name":"Tankstelle Vogel","city":"Großwallstadt","category":"other","tags":[]},{"id":"fuel_281561092","lat":49.2298261,"lon":9.1700006,"name":"Shell","city":"Bad Wimpfen","category":"other","tags":[],"opening_hours":"Mo-Fr 05:00-22:00; Sa 07:00-22:00; Su 08:00-22:00","operator":"Shell"},{"id":"fuel_281799828","lat":49.1064978,"lon":9.1224746,"name":"Shell","city":"","category":"other","tags":[],"operator":"Shell"},{"id":"fuel_283099775","lat":49.6113132,"lon":9.8339077,"name":"Köhler","city":"","category":"other","tags":[]},{"id":"fuel_287411237","lat":49.5986901,"lon":9.8797119,"name":"Herm","city":"Bütthard","category":"other","tags":[]},{"id":"fuel_290486250","lat":49.7959366,"lon":9.8952767,"name":"SB-Tanken","city":"","category":"other","tags":[],"opening_hours":"Mo-Su,PH 00:00-00:00","operator":"DKV"},{"id":"fuel_293071551","lat":49.882299,"lon":9.8396724,"name":"bft Bauer","city":"Thüngersheim","category":"other","tags":[],"opening_hours":"Mo-Fr 06:00-20:00; Sa 07:00-20:00; Su 09:00-19:00","operator":"Armin Bauer"},{"id":"fuel_293997971","lat":49.7184518,"lon":9.230776,"name":"LKW Automat","city":"","category":"other","tags":[],"opening_hours":"24/7","operator":"Aral"},{"id":"fuel_294795137","lat":49.4753515,"lon":9.8335316,"name":"Tankstelle Gerlinger","city":"","category":"other","tags":[],"operator":"elf"},{"id":"fuel_296957064","lat":49.0933777,"lon":9.8386028,"name":"Aral","city":"","category":"other","tags":[],"operator":"Aral"},{"id":"fuel_299753045","lat":49.939865,"lon":9.8572876,"name":"Tankstelle Thüngen","city":"Thüngen","category":"other","tags":[],"opening_hours":"24/7","operator":"DBV"},{"id":"fuel_299924570","lat":49.7475283,"lon":9.0033429,"name":"Esso","city":"Bad König","category":"other","tags":[],"opening_hours":"Mo-Su 06:00-21:00","operator":"Esso"},{"id":"fuel_302122519","lat":49.2058626,"lon":9.6381595,"name":"Esso Hohenlohe Süd","city":"Neuenstein","category":"other","tags":[],"opening_hours":"24/7","operator":"Esso"},{"id":"fuel_303941085","lat":49.792796,"lon":9.1292797,"name":"Tankstelle","city":"","category":"other","tags":[],"opening_hours":"Mo-Fr 07:00-18:30; Sa 07:00-17:00; Su 10:00-12:00"},{"id":"fuel_310248910","lat":49.2395953,"lon":9.0961528,"name":"Esso","city":"Bad Rappenau","category":"other","tags":[],"opening_hours":"Mo-Su 6:00-22:00","operator":"Esso"},{"id":"fuel_310432310","lat":49.7977597,"lon":9.1568461,"name":"bft","city":"Wörth am Main","category":"other","tags":[],"opening_hours":"Mo-Fr 06:00-22:00; Sa,Su 08:00-22:00","operator":"C. Köhler"},{"id":"fuel_312604334","lat":49.4959074,"lon":9.9022619,"name":"BAGeno","city":"","category":"other","tags":[],"operator":"BAGeno"},{"id":"fuel_314991024","lat":49.4181476,"lon":9.2896034,"name":"Autoservice Kirchknopf","city":"","category":"other","tags":[],"opening_hours":"24/7","operator":"Günter Kirchknopf"},{"id":"fuel_315664373","lat":49.1174162,"lon":9.7322979,"name":"Avia","city":"","category":"other","tags":[],"opening_hours":"24/7","operator":"Avia"},{"id":"fuel_317320787","lat":49.1919128,"lon":9.2024576,"name":"Shell","city":"","category":"other","tags":[]},{"id":"fuel_317348054","lat":49.8087966,"lon":9.9619013,"name":"Kemmer","city":"Würzburg","category":"other","tags":[],"opening_hours":"Mo-Fr 07:00-18:30; Sa 07:00-15:30","operator":"Freie Tankstelle"},{"id":"fuel_317430299","lat":49.6931663,"lon":9.8479185,"name":"Henneberger","city":"Kleinrinderfeld","category":"other","tags":[],"opening_hours":"Mo-Fr 06:15-21:00, Su 09:00-13:00; Sa 07:30-18:30","operator":"Esso"},{"id":"fuel_317809751","lat":49.1926192,"lon":9.1470684,"name":"Shell","city":"","category":"other","tags":[]},{"id":"fuel_318777222","lat":49.1549065,"lon":9.2241758,"name":"Esso","city":"","category":"other","tags":[],"operator":"Esso"},{"id":"fuel_318777235","lat":49.1562897,"lon":9.2242236,"name":"Aral","city":"Heilbronn","category":"other","tags":[],"operator":"Aral"},{"id":"fuel_320082014","lat":49.8963966,"lon":9.3955611,"name":"Aral","city":"Weibersbrunn","category":"other","tags":[],"opening_hours":"24/7","operator":"Q1 Energie AG"},{"id":"fuel_322064580","lat":49.1775491,"lon":9.7086457,"name":"As24 Tankservice","city":"","category":"other","tags":[],"operator":"Autohof Spiegel"},{"id":"fuel_330070740","lat":49.1899378,"lon":9.4414114,"name":"Tankstelle","city":"","category":"other","tags":[],"operator":"Shell"},{"id":"fuel_330549986","lat":49.0369099,"lon":9.0938419,"name":"Shell","city":"","category":"other","tags":[]},{"id":"fuel_339407734","lat":49.8161585,"lon":9.9634738,"name":"Esso","city":"Würzburg","category":"other","tags":[],"opening_hours":"Mo-Fr 06:00-22:00; Sa 07:00-22:00; Su 08:00-22:00","operator":"Merkert Sabrina"},{"id":"fuel_343366742","lat":49.9872382,"lon":9.1616675,"name":"Shell","city":"","category":"other","tags":[],"operator":"Shell"},{"id":"fuel_344486894","lat":49.5489012,"lon":9.730384,"name":"HERM","city":"","category":"other","tags":[],"opening_hours":"Mo-Su 06:00-22:00","operator":"HERM Kraftstoffe GmbH"},{"id":"fuel_345606981","lat":49.8273935,"lon":9.8911323,"name":"Erdgas Tankstelle","city":"","category":"other","tags":[],"opening_hours":"24/7","operator":"Die Energie Lohr Karlstadt"},{"id":"fuel_351944403","lat":49.0334898,"lon":9.1474816,"name":"Jet","city":"Kirchheim am Neckar","category":"other","tags":[],"opening_hours":"Mo-Fr 05:00-23:00; Sa 06:00-23:00; Su 07:00-22:00"},{"id":"fuel_354486577","lat":49.5109975,"lon":9.9723532,"name":"AVIA","city":"","category":"other","tags":[]},{"id":"fuel_354491053","lat":49.5131405,"lon":9.9771392,"name":"DBV","city":"","category":"other","tags":[]},{"id":"fuel_354677502","lat":49.1807047,"lon":9.131414,"name":"Autozentrum Tatz","city":"Heilbronn","category":"other","tags":[]},{"id":"fuel_354682339","lat":49.1451749,"lon":9.18539,"name":"Shell","city":"","category":"other","tags":[],"operator":"Shell"},{"id":"fuel_355554234","lat":49.0649698,"lon":9.8925237,"name":"Tankstelle","city":"","category":"other","tags":[]},{"id":"fuel_360332119","lat":49.2379736,"lon":9.3427428,"name":"Shell","city":"Neuenstadt am Kocher","category":"other","tags":[],"operator":"Shell"},{"id":"fuel_365858665","lat":49.1189751,"lon":9.7345796,"name":"Elan","city":"","category":"other","tags":[],"operator":"Elan"},{"id":"fuel_365989646","lat":49.1905396,"lon":9.4465381,"name":"EDI","city":"","category":"other","tags":[],"opening_hours":"24/7","operator":"*"},{"id":"fuel_366374812","lat":49.2908605,"lon":9.5640039,"name":"Tankstelle","city":"","category":"other","tags":[]},{"id":"fuel_367977631","lat":49.181497,"lon":9.1150795,"name":"Avia","city":"","category":"other","tags":[],"operator":"Avia"},{"id":"fuel_372752265","lat":49.5263856,"lon":9.3350804,"name":"Tankcenter Herm","city":"","category":"other","tags":[]},{"id":"fuel_375733554","lat":49.2543959,"lon":9.8590489,"name":"SB-Tankstation Rath","city":"","category":"other","tags":[]},{"id":"fuel_388602469","lat":49.1726275,"lon":9.2564872,"name":"Baier","city":"Erlenbach","category":"other","tags":[],"operator":"Freie Tankstelle"},{"id":"fuel_394820174","lat":49.0764992,"lon":9.2911555,"name":"Autohaus Schock","city":"Abstatt","category":"other","tags":[],"opening_hours":"Mo-Fr 07:00-19:00; Sa 09:00-16:00; Su off","operator":"AVIA"},{"id":"fuel_417782431","lat":49.0783568,"lon":9.9793823,"name":"Avia","city":"","category":"other","tags":[],"operator":"Avia"},{"id":"fuel_420355356","lat":49.4042982,"lon":9.9178012,"name":"Shell","city":"","category":"other","tags":[],"operator":"Shell"},{"id":"fuel_426922115","lat":49.2020173,"lon":9.4950748,"name":"Aral","city":"","category":"other","tags":[],"operator":"Aral"},{"id":"fuel_427881099","lat":49.6247866,"lon":9.6588323,"name":"Tankstelle","city":"","category":"other","tags":[],"operator":"Raiffeisen"},{"id":"fuel_428838329","lat":49.2374448,"lon":9.3367072,"name":"Avia Neuenstadt","city":"","category":"other","tags":[],"operator":"Avia"},{"id":"fuel_428839247","lat":49.4906188,"lon":9.7790407,"name":"Esso","city":"Bad Mergentheim","category":"other","tags":[],"operator":"Esso"},{"id":"fuel_428839272","lat":49.5152066,"lon":9.3216202,"name":"Tankstelle Bingler","city":"Buchen (Odenwald)","category":"other","tags":[],"operator":"Autohaus Bingler GmbH & Co KG"},{"id":"fuel_428839325","lat":49.6118346,"lon":9.4872932,"name":"Aral","city":"Hardheim","category":"other","tags":[],"operator":"Aral"},{"id":"fuel_439220453","lat":49.2338173,"lon":9.2147568,"name":"Shell","city":"","category":"other","tags":[],"operator":"Shell"},{"id":"fuel_442674803","lat":49.2104113,"lon":9.0606178,"name":"Esso","city":"","category":"other","tags":[],"operator":"Esso"},{"id":"fuel_451011555","lat":49.236508,"lon":9.3247312,"name":"Tankstelle","city":"","category":"other","tags":[],"operator":"ARAL"},{"id":"fuel_451701093","lat":49.1553537,"lon":9.1762934,"name":"Total","city":"Heilbronn","category":"other","tags":[],"operator":"Total"},{"id":"fuel_452631643","lat":49.2919837,"lon":9.2781139,"name":"Shell","city":"","category":"other","tags":[],"operator":"Shell"},{"id":"fuel_485241687","lat":49.733884,"lon":9.6773605,"name":"Avia","city":"","category":"other","tags":[],"opening_hours":"24/7","operator":"Avis"},{"id":"fuel_491075714","lat":49.7513151,"lon":9.5068364,"name":"Herm","city":"","category":"other","tags":[],"operator":"Herm"},{"id":"fuel_546531412","lat":49.7071322,"lon":9.778575,"name":"BFT","city":"Großrinderfeld","category":"other","tags":[],"operator":"Mathilde Müller"},{"id":"fuel_566328144","lat":49.7990912,"lon":9.9905374,"name":"LPG-Tankstelle","city":"","category":"other","tags":[],"operator":"Autohaus Schürer"},{"id":"fuel_598302621","lat":49.2193042,"lon":9.2152919,"name":"Agip","city":"Bad Friedrichshall","category":"other","tags":[],"operator":"Agip"},{"id":"fuel_602728649","lat":49.5386085,"lon":9.5566664,"name":"Herm","city":"Ahorn","category":"other","tags":[],"opening_hours":"24/7","operator":"Herm"},{"id":"fuel_604121778","lat":49.2969428,"lon":9.6610348,"name":"BAGeno Ingelfingen","city":"Ingelfingen","category":"other","tags":[],"operator":"BAGgeno Raiffeisen eG"},{"id":"fuel_605460189","lat":49.196244,"lon":9.5002446,"name":"EDi","city":"Öhringen","category":"other","tags":[],"opening_hours":"24/7","operator":"EDi Energie-Direkt Hohenlohe GmbH"},{"id":"fuel_613641582","lat":49.1699087,"lon":9.2111339,"name":"Shell","city":"Heilbronn","category":"other","tags":[],"opening_hours":"24/7","operator":"Shell"},{"id":"fuel_639258558","lat":49.4274973,"lon":9.1536245,"name":"Avia","city":"","category":"other","tags":[],"opening_hours":"Mo-Fr 06:00-21:00; Sa 07:00-21:00; Su 08:00-21:00","operator":"Hafner"},{"id":"fuel_646550958","lat":49.1974762,"lon":9.2239217,"name":"Audi Tankstelle","city":"","category":"other","tags":[],"operator":"Audi Tankstelle"},{"id":"fuel_660966175","lat":49.6937473,"lon":9.4654454,"name":"Autohaus Hasenfuß","city":"","category":"other","tags":[],"operator":"Peter Hasenfuß"},{"id":"fuel_705811068","lat":49.1793838,"lon":9.178921,"name":"Shell","city":"Heilbronn","category":"other","tags":[],"operator":"Shell"},{"id":"fuel_705938357","lat":49.5929406,"lon":9.9666399,"name":"Manfred Schauer Automobile e.K.","city":"Sonderhofen","category":"other","tags":[]},{"id":"fuel_705938534","lat":49.5682547,"lon":9.363368,"name":"ZG Raiffeisen","city":"Walldürn","category":"other","tags":[],"opening_hours":"24/7","operator":"ZG Raiffeisen"},{"id":"fuel_705938539","lat":49.1439472,"lon":9.308724,"name":"EDI -Tankstelle","city":"Ellhofen","category":"other","tags":[],"opening_hours":"24/7","operator":"EDI"},{"id":"fuel_732711777","lat":49.6792,"lon":9.80028,"name":"KFZ - Öchsner","city":"Großrinderfeld","category":"other","tags":[],"opening_hours":"Mo-Fr 08:00-17:00; Sa 08:00-15:00"},{"id":"fuel_732711973","lat":49.7119618,"lon":9.2400537,"name":"Autohaus Brass","city":"Großheubach","category":"other","tags":[],"operator":"Brass GmbH & Co. KG"},{"id":"fuel_732712207","lat":49.7571,"lon":9.97342,"name":"KFZ-Werkstatt AS GmbH","city":"Würzburg","category":"other","tags":[],"opening_hours":"Mo-Fr 07:00-24:00; Sa 08:00-16:00"},{"id":"fuel_732712563","lat":49.0652636,"lon":9.8664249,"name":"Auto Rüger","city":"Obersontheim","category":"other","tags":[],"opening_hours":"Mo-Fr 07:30-12:00,13:00-17:00; Sa 09:00-12:00"},{"id":"fuel_732712700","lat":49.7383824,"lon":9.1804088,"name":"Autohaus Link","city":"Laudenbach","category":"other","tags":[]},{"id":"fuel_732713014","lat":49.7901723,"lon":9.26067,"name":"Autohaus Körbel","city":"Mönchberg","category":"other","tags":[],"opening_hours":"Mo-Fr 08:00-18:00"},{"id":"fuel_732713637","lat":49.0647754,"lon":9.2633993,"name":"Armbruster & Seeger GmbH","city":"","category":"other","tags":[]},{"id":"fuel_732714495","lat":49.9851448,"lon":9.0906434,"name":"Wolf Ökotec GbR","city":"Mainaschaff","category":"other","tags":[]},{"id":"fuel_732714507","lat":49.3458715,"lon":9.7948438,"name":"Avia","city":"","category":"other","tags":[],"opening_hours":"Mo-Fr 07:30-12:00,13:00-18:00; Sa 08:00-12:00","operator":"Avia"},{"id":"fuel_732715262","lat":49.9842839,"lon":9.5742656,"name":"Autohaus Möhler & Huth G...","city":"Lohr am Main","category":"other","tags":[],"opening_hours":"Mo-Fr 07:30-18:00; Sa 08:00-12:00"},{"id":"fuel_732715753","lat":49.9748,"lon":9.31874,"name":"Carstens CarPort","city":"Waldaschaff","category":"other","tags":[]},{"id":"fuel_732715771","lat":49.9746651,"lon":9.9782409,"name":"NEO - Tankstelle","city":"Arnstein","category":"other","tags":[],"opening_hours":"Mo-Fr 07:30-20:00; Sa 08:00-20:00","operator":"NEO"},{"id":"fuel_732715864","lat":49.5740865,"lon":9.3645038,"name":"Esso","city":"Walldürn","category":"other","tags":[],"opening_hours":"Mo-Sa 06:00-22:00; Su 08:00-21:00","operator":"Esso"},{"id":"fuel_732716283","lat":49.76611,"lon":9.53861,"name":"Auto Kirchner GmbH Peuge...","city":"","category":"other","tags":[],"opening_hours":"Mo,We,Fr 07:30-18:00; Tu,Th 07:30-20:00; Sa 09:00-14:00"},{"id":"fuel_732716701","lat":49.6409606,"lon":9.2556569,"name":"HERM","city":"Schneeberg","category":"other","tags":[],"opening_hours":"Mo-Sa 07:00-20:00;Su 09:00-20:00"},{"id":"fuel_732716893","lat":49.4554184,"lon":9.2468814,"name":"Auto Hemberger GmbH & Co...","city":"Limbach","category":"other","tags":[],"operator":"bft"},{"id":"fuel_732716983","lat":49.804037,"lon":9.8919747,"name":"GAVEG","city":"Würzburg","category":"other","tags":[],"opening_hours":"24/7","operator":"AUTOGAS"},{"id":"fuel_732717323","lat":49.9547543,"lon":9.778917,"name":"Opel Villwock","city":"Karlstadt","category":"other","tags":[],"opening_hours":"Mo-Fr 07:30-12:00,13:00-18:00; Sa 09:00-12:00"},{"id":"fuel_732717455","lat":49.1595,"lon":9.21889,"name":"Emil Betz GmbH & Co","city":"Heilbronn","category":"other","tags":[],"opening_hours":"Mo-Fr 07:00-12:00,13:00-17:00; Sa 08:00-12:00"},{"id":"fuel_732717670","lat":49.7043829,"lon":9.2672445,"name":"Total Access","city":"Miltenberg","category":"other","tags":[],"opening_hours":"Mo-Fr 06:00-22:00; Sa 07:00-22:00; Su, PH 08:00-20:00","operator":"Franz Chaluppa"},{"id":"fuel_732717758","lat":49.7876258,"lon":9.178668,"name":"Cinar","city":"Klingenberg a.Main","category":"other","tags":[],"opening_hours":"Mo-Fr 07:00-18:00; Sa 09:00-13:30","operator":"Cinar Tankstelle und Reifenservice GmbH"},{"id":"fuel_734072942","lat":49.1031921,"lon":9.6985626,"name":"tankpool24","city":"","category":"other","tags":[],"opening_hours":"24/7","operator":"Spiegel"},{"id":"fuel_747044896","lat":49.1722317,"lon":9.2218081,"name":"Kaufland Tankstelle","city":"","category":"other","tags":[],"operator":"Kaufland"},{"id":"fuel_751968617","lat":49.1403283,"lon":9.2299626,"name":"Aral","city":"","category":"other","tags":[],"operator":"Aral"},{"id":"fuel_751970422","lat":49.1409959,"lon":9.2293705,"name":"Esso","city":"","category":"other","tags":[],"operator":"Esso"},{"id":"fuel_768326348","lat":49.5296086,"lon":9.2041871,"name":"Aral","city":"","category":"other","tags":[],"operator":"Aral"},{"id":"fuel_778439052","lat":49.7581946,"lon":9.9437334,"name":"RAN","city":"Würzburg","category":"other","tags":[],"opening_hours":"24/7"},{"id":"fuel_795896159","lat":49.8288593,"lon":9.5457278,"name":"Avia Xpress","city":"Marktheidenfeld","category":"other","tags":[],"opening_hours":"24/7","operator":"Jürgen Dorst GmbH"},{"id":"fuel_840602234","lat":49.7454961,"lon":9.845363,"name":"Shell","city":"","category":"other","tags":[],"opening_hours":"Mo-Su,PH 00:00-24:00","operator":"Shell"},{"id":"fuel_897334044","lat":49.1712292,"lon":9.926713,"name":"Esso","city":"Ilshofen","category":"other","tags":[],"opening_hours":"Mo-Fr 06:30-21:30; PH,Su 08:00-21:30; Sa 07:00-21:30","operator":"Suat Altuntas"},{"id":"fuel_897356364","lat":49.1351712,"lon":9.2161485,"name":"Freie Tankstelle Hagelauer","city":"","category":"other","tags":[],"opening_hours":"24/7","operator":"Freie Tankstelle"},{"id":"fuel_906318919","lat":49.0035053,"lon":9.1045067,"name":"Total","city":"Löchgau","category":"other","tags":[],"operator":"Total"},{"id":"fuel_939023516","lat":49.9265553,"lon":9.0797088,"name":"Aral","city":"Großostheim","category":"other","tags":[],"opening_hours":"Mo-Fr 06:00-20:00; Sa 08:00-20:00; Su 09:00-20:00","operator":"Aral"},{"id":"fuel_971009763","lat":49.4028221,"lon":9.27745,"name":"Avia","city":"","category":"other","tags":[],"operator":"Avia"},{"id":"fuel_1069958660","lat":49.1806084,"lon":9.2193732,"name":"AS 24 Tankpunkt Götz","city":"","category":"other","tags":[],"operator":"AS 24"},{"id":"fuel_1112102063","lat":49.1473896,"lon":9.118758,"name":"Lenz","city":"Leingarten","category":"other","tags":[],"operator":"Lenz Energie AG"},{"id":"fuel_1198985581","lat":49.9137888,"lon":9.122878,"name":"Aral","city":"Niedernberg","category":"other","tags":[],"opening_hours":"24/7","operator":"Aral"},{"id":"fuel_1203250243","lat":49.8669821,"lon":9.5978777,"name":"Grasmann","city":"","category":"other","tags":[],"operator":"Independent"},{"id":"fuel_1207561136","lat":49.3083459,"lon":9.4631211,"name":"EDi Tankstelle","city":"Jagsthausen","category":"other","tags":[],"opening_hours":"24/7","operator":"Autohaus Manfred Schmelzer"},{"id":"fuel_1351741157","lat":49.1736638,"lon":9.0496037,"name":"JEPuS Mineralöl GmbH","city":"Massenbachhausen","category":"other","tags":[],"opening_hours":"Mo-Su 06:00-22:00"},{"id":"fuel_1352712310","lat":49.582264,"lon":9.3750936,"name":"Agip","city":"","category":"other","tags":[],"operator":"Agip"},{"id":"fuel_1363594062","lat":49.0076188,"lon":9.0574039,"name":"SB Tank","city":"Freudental","category":"other","tags":[],"operator":"Mehmet Celik"},{"id":"fuel_1500304745","lat":49.0743114,"lon":9.0627125,"name":"Tankstelle","city":"","category":"other","tags":[],"opening_hours":"24/7","operator":"BayWa"},{"id":"fuel_1554351872","lat":49.1402505,"lon":9.1767383,"name":"Jet","city":"Heilbronn","category":"other","tags":[],"operator":"Hüseyin Akmese"},{"id":"fuel_1556915830","lat":49.1679345,"lon":9.2671625,"name":"Edi","city":"","category":"other","tags":[],"opening_hours":"24/7","operator":"Edi"},{"id":"fuel_1558436960","lat":49.1548767,"lon":9.2131005,"name":"Walter Domesle Mineralöl","city":"","category":"other","tags":[]},{"id":"fuel_1559157296","lat":49.1990559,"lon":9.232502,"name":"Aral","city":"","category":"other","tags":[],"operator":"Aral"},{"id":"fuel_1559157297","lat":49.1992442,"lon":9.233224,"name":"Aral","city":"","category":"other","tags":[],"operator":"Aral"},{"id":"fuel_1589721268","lat":49.4829757,"lon":9.9014428,"name":"Tankstelle Gerlinger","city":"","category":"other","tags":[],"opening_hours":"Mo-Sa 07:30-19:30; PH,Su 10:00-18:00","operator":"elf"},{"id":"fuel_1598146928","lat":49.2121844,"lon":9.6584087,"name":"Tankstelle Hohebuch","city":"","category":"other","tags":[],"operator":"Shell"},{"id":"fuel_1607651687","lat":49.1715375,"lon":9.9622177,"name":"Shell","city":"Kirchberg an der Jagst","category":"other","tags":[],"opening_hours":"24/7","operator":"Shell"},{"id":"fuel_1651586237","lat":49.6673528,"lon":9.5149211,"name":"Tankstelle","city":"","category":"other","tags":[],"operator":"Autohaus Seitz"},{"id":"fuel_1692229482","lat":49.1482354,"lon":9.1301235,"name":"Tankpool 24","city":"Leingarten","category":"other","tags":[],"operator":"Tankpool 24"},{"id":"fuel_1724531403","lat":49.9775381,"lon":9.9506534,"name":"Agip","city":"","category":"other","tags":[],"opening_hours":"24/7","operator":"Agip"},{"id":"fuel_1732856261","lat":49.1736473,"lon":9.2216196,"name":"Lotter Flüssiggas","city":"Neckarsulm","category":"other","tags":[],"opening_hours":"24/7","operator":"Lotter Flüssiggas"},{"id":"fuel_1742948315","lat":49.2382905,"lon":9.2481897,"name":"EDI","city":"","category":"other","tags":[],"operator":"EDI"},{"id":"fuel_1766705198","lat":49.0213977,"lon":9.0975434,"name":"Independent","city":"","category":"other","tags":[],"operator":"Wezel GmbH"},{"id":"fuel_1784969638","lat":49.0664,"lon":9.0113,"name":"Aral","city":"Güglingen","category":"other","tags":[],"operator":"Peter Blackholm"},{"id":"fuel_1786236010","lat":49.6629789,"lon":9.7308749,"name":"Avia","city":"","category":"other","tags":[],"operator":"Avia"},{"id":"fuel_1867836716","lat":49.0750371,"lon":9.2865026,"name":"ecoengines","city":"","category":"other","tags":[]},{"id":"fuel_1904388704","lat":49.9295766,"lon":9.2910569,"name":"Tankstelle Zang","city":"","category":"other","tags":[]},{"id":"fuel_1912969495","lat":49.788247,"lon":9.0650838,"name":"bft","city":"","category":"other","tags":[],"operator":"Autohaus Orth"},{"id":"fuel_2015438284","lat":49.7818408,"lon":9.976815,"name":"Walther 24h Automatentankstelle","city":"Gerbrunn","category":"other","tags":[],"opening_hours":"Mo-Su,PH 00:00-00:00","operator":"Walther"},{"id":"fuel_2035412434","lat":49.771295,"lon":9.3355001,"name":"Esso","city":"","category":"other","tags":[],"operator":"ESSO"},{"id":"fuel_2091279475","lat":49.0757108,"lon":9.2908238,"name":"Tankstelle","city":"","category":"other","tags":[]},{"id":"fuel_2127484132","lat":49.9667142,"lon":9.0802152,"name":"Tankstelle","city":"","category":"other","tags":[],"operator":"Gaveg"},{"id":"fuel_2265980768","lat":49.2282288,"lon":9.191335,"name":"AH Stiehl","city":"","category":"other","tags":[],"opening_hours":"Mo-Fr 07:00-18:00; Sa 07:30-13:00","operator":"AH Stiehl"},{"id":"fuel_2338302983","lat":49.2013037,"lon":9.9822284,"name":"Botsch","city":"","category":"other","tags":[]},{"id":"fuel_2338574096","lat":49.2059487,"lon":9.9891847,"name":"Busch","city":"","category":"other","tags":[]},{"id":"fuel_2516072465","lat":49.1705567,"lon":9.8594529,"name":"TotalEnergies","city":"","category":"other","tags":[],"opening_hours":"24/7","operator":"TotalEnergies"},{"id":"fuel_2577556354","lat":49.7812208,"lon":9.4069321,"name":"Freie Tankstelle","city":"","category":"other","tags":[],"operator":"Firmbach"},{"id":"fuel_2598817974","lat":49.0732607,"lon":9.7240816,"name":"JET","city":"","category":"other","tags":[],"operator":"JET"},{"id":"fuel_2657981160","lat":49.1686546,"lon":9.9373876,"name":"Tankstelle","city":"","category":"other","tags":[],"operator":"BAG Hohenlohe"},{"id":"fuel_2858568438","lat":49.3006106,"lon":9.3339987,"name":"Avia","city":"","category":"other","tags":[],"operator":"Avia"},{"id":"fuel_2899047408","lat":49.7248104,"lon":9.2007424,"name":"HEM","city":"Kleinheubach","category":"other","tags":[],"opening_hours":"Mo-Su 06:00-22:00","operator":"HEM"},{"id":"fuel_3051957557","lat":49.5414239,"lon":9.7367383,"name":"TotalEnergies","city":"Lauda-Königshofen","category":"other","tags":[],"operator":"TotalEnergies"},{"id":"fuel_3114742440","lat":49.3498009,"lon":9.0984387,"name":"Tankstelle","city":"","category":"other","tags":[]},{"id":"fuel_3162408759","lat":49.1093762,"lon":9.7684981,"name":"Esso","city":"Schwäbisch Hall","category":"other","tags":[],"opening_hours":"Mo-Fr 06:00-21:30; Sa,Su 07:00-21:30","operator":"Esso"},{"id":"fuel_3375643463","lat":49.2247077,"lon":9.6884287,"name":"AVIA Tankstelle","city":"Kupferzell","category":"other","tags":[],"opening_hours":"24/7","operator":"Heymach"},{"id":"fuel_3565784500","lat":49.771326,"lon":9.5752343,"name":"Esso","city":"","category":"other","tags":[],"opening_hours":"PH,Mo-Su 00:00-24:00+","operator":"Esso"},{"id":"fuel_3595689034","lat":49.2106901,"lon":9.0695234,"name":"Autohof Bad Rappenau Süd","city":"Bad Rappenau","category":"other","tags":[],"opening_hours":"24/7","operator":"24-Autobahn-Raststätten GmbH"},{"id":"fuel_3608459094","lat":49.9857684,"lon":9.1351864,"name":"TotalEnergies","city":"","category":"other","tags":[],"opening_hours":"Mo-Fr 06:00-22:00; Sa 07:00-22:00; Su,PH 08:00-22:00","operator":"TotalEnergies"},{"id":"fuel_3655163258","lat":49.9941027,"lon":9.065261,"name":"Calpam","city":"","category":"other","tags":[],"opening_hours":"24/7","operator":"Calpam"},{"id":"fuel_3756583681","lat":49.1123856,"lon":9.7856587,"name":"Erdgastankstelle","city":"Schwäbisch Hall","category":"other","tags":[],"operator":"Stadtwerke Schwäbisch Hall"},{"id":"fuel_3784282059","lat":49.0122308,"lon":9.675226,"name":"Avia","city":"Oberrot","category":"other","tags":[],"opening_hours":"Mo-Fr 06:30-21:00; Sa 07:00-21:00; Su 08:00-20:00","operator":"Selahaddin Samdanli"},{"id":"fuel_3856002961","lat":49.7451506,"lon":9.844916,"name":"Autogas Tankstelle","city":"Kist","category":"other","tags":[],"opening_hours":"24/7","operator":"LPG"},{"id":"fuel_4085087655","lat":49.103647,"lon":9.2031951,"name":"MTB","city":"Flein","category":"other","tags":[],"operator":"Wahr"},{"id":"fuel_4124483427","lat":49.9800276,"lon":9.5765858,"name":"W. Dorst","city":"Lohr am Main","category":"other","tags":[],"opening_hours":"24/7"},{"id":"fuel_4274184071","lat":49.2123278,"lon":9.0773015,"name":"24-Total","city":"Bad Rappenau","category":"other","tags":[],"opening_hours":"24/7","operator":"24-Autobahn-Raststätten GmbH"},{"id":"fuel_4274184072","lat":49.2124825,"lon":9.0766229,"name":"24-Total","city":"Bad Rappenau","category":"other","tags":[],"opening_hours":"24/7","operator":"24-Autobahn-Raststätten GmbH"},{"id":"fuel_4305012559","lat":49.8559665,"lon":9.1679412,"name":"Aral","city":"Elsenfeld","category":"other","tags":[],"opening_hours":"24/7","operator":"ARAL"},{"id":"fuel_4405875866","lat":49.8525852,"lon":9.53605,"name":"Esso","city":"Esselbach","category":"other","tags":[],"operator":"Lutz"},{"id":"fuel_4485057468","lat":49.1957761,"lon":9.2298074,"name":"TOPTANK","city":"","category":"other","tags":[],"opening_hours":"Mo-Fr 05:30-24:00; Sa 06:00-24:00; Su 07:00-24:00; PH 07:00-24:00"},{"id":"fuel_4535514855","lat":49.6181627,"lon":9.8445849,"name":"Tankstelle","city":"","category":"other","tags":[],"operator":"BAGeno"},{"id":"fuel_4545648000","lat":49.3818945,"lon":9.6312608,"name":"ZG Raiffeisen","city":"","category":"other","tags":[],"operator":"ZG Raiffeisen"},{"id":"fuel_4608391202","lat":49.8413618,"lon":9.606051,"name":"Esso Tankstelle Marktheidenfeld","city":"Marktheidenfeld","category":"other","tags":[],"opening_hours":"Mo-Sa 06:00-24:00, Su 07:00-24:00","operator":"SEVKET BERBER"},{"id":"fuel_4724994984","lat":49.3624196,"lon":9.5965782,"name":"BAGeno Raiffeisen eG","city":"","category":"other","tags":[],"operator":"BAGeno Raiffeisen eG"},{"id":"fuel_4847977964","lat":49.3504368,"lon":9.1050644,"name":"Shell","city":"","category":"other","tags":[],"operator":"Mogler"},{"id":"fuel_5318403421","lat":49.0458168,"lon":9.2640053,"name":"Total","city":"","category":"other","tags":[],"operator":"SSP Deutschland"},{"id":"fuel_5318403467","lat":49.0437071,"lon":9.2636365,"name":"Wunnenstein Ost (Total)","city":"Ilsfeld","category":"other","tags":[],"opening_hours":"24/7","operator":"Total"},{"id":"fuel_5415106354","lat":49.9805065,"lon":9.1159939,"name":"Supermarkt Tankstelle","city":"Aschaffenburg","category":"other","tags":[],"opening_hours":"Mo-Sa 07:00-20:00"},{"id":"fuel_5596905907","lat":49.1039897,"lon":9.7017002,"name":"Independent","city":"","category":"other","tags":[],"operator":"Independent"},{"id":"fuel_5596907345","lat":49.1056816,"lon":9.7012898,"name":"Shell","city":"","category":"other","tags":[],"operator":"Shell"},{"id":"fuel_5601575812","lat":49.1757604,"lon":9.3196531,"name":"Klemm","city":"","category":"other","tags":[],"opening_hours":"Mo-Su 05:00-22:00","operator":"Independent"},{"id":"fuel_6074093025","lat":49.400677,"lon":9.5051005,"name":"BAGeno Tankstelle","city":"Ravenstein","category":"other","tags":[],"opening_hours":"24/7","operator":"BAGeno Raiffeisen eG"},{"id":"fuel_6137544580","lat":49.3286792,"lon":9.1096745,"name":"Erdgas- und Stromtankstelle","city":"","category":"other","tags":[],"opening_hours":"24/7","operator":"Stadtwerke Mosbach"},{"id":"fuel_6161645388","lat":49.9539027,"lon":9.7746362,"name":"Tankstelle","city":"Karlstadt","category":"other","tags":[]},{"id":"fuel_6305859065","lat":49.1488044,"lon":9.3218974,"name":"Aral","city":"","category":"other","tags":[],"opening_hours":"Mo-Fr 6:30-20:00; Sa 7:00-19:00; Su 9:00-19:00","operator":"Aral"},{"id":"fuel_6432523518","lat":49.1985875,"lon":9.4759174,"name":"EDi","city":"Öhringen","category":"other","tags":[],"opening_hours":"Mo-Sa 06:00-21:00; Su,PH 08:00-20:00","operator":"EDi Energie-Direkt Hohenlohe GmbH"},{"id":"fuel_6462797385","lat":49.8744979,"lon":9.8430863,"name":"Jet","city":"","category":"other","tags":[],"opening_hours":"Mo-Fr 05:00-23:00; Sa 06:00-23:00; Su 07:00-23:00","operator":"JET"},{"id":"fuel_6695924245","lat":49.9254794,"lon":9.079026,"name":"Shell","city":"Großostheim","category":"other","tags":[],"opening_hours":"PH,Mo-Su 06:00-22:00","operator":"Shell"},{"id":"fuel_6711590645","lat":49.2820728,"lon":9.6911772,"name":"Aral Tankstelle Kocherbrücke","city":"Künzelsau","category":"other","tags":[],"operator":"Aral"},{"id":"fuel_6827496799","lat":49.7633447,"lon":9.5107942,"name":"HERM","city":"Wertheim","category":"other","tags":[],"operator":"HERM"},{"id":"fuel_7024694234","lat":49.9805187,"lon":9.1322002,"name":"Aral","city":"Aschaffenburg","category":"other","tags":[],"opening_hours":"24/7","operator":"Dieter Koehler"},{"id":"fuel_7025490622","lat":49.8974395,"lon":9.392507,"name":"Aral","city":"Weibersbrunn","category":"other","tags":[],"opening_hours":"24/7","operator":"Bellersheim Tankstellen GmbH &Co. KG"},{"id":"fuel_7272699158","lat":49.1698806,"lon":9.2190356,"name":"Autogas LPG Tankstelle Autohaus Spiess","city":"","category":"other","tags":[],"opening_hours":"24/7"},{"id":"fuel_7375349288","lat":49.1436452,"lon":9.2302326,"name":"Jet","city":"","category":"other","tags":[],"operator":"JET"},{"id":"fuel_7375349289","lat":49.1420229,"lon":9.2256548,"name":"Agip","city":"","category":"other","tags":[],"operator":"Agip"},{"id":"fuel_7389425052","lat":49.3219856,"lon":9.3639442,"name":"Aral","city":"Möckmühl","category":"other","tags":[],"opening_hours":"Mo-Sa 04:00-22:00; Su 06:00-22:00","operator":"Josef Nietsch"},{"id":"fuel_7390060970","lat":49.9983484,"lon":9.5810466,"name":"bft","city":"Lohr am Main","category":"other","tags":[],"operator":"bft"},{"id":"fuel_7397435289","lat":49.9607991,"lon":9.0806964,"name":"access","city":"","category":"other","tags":[],"opening_hours":"Mo-Sa 08:00-19:00","operator":"Total"},{"id":"fuel_7673589917","lat":49.3454768,"lon":9.5544989,"name":"Zürn","city":"","category":"other","tags":[]},{"id":"fuel_7705579390","lat":49.2071828,"lon":9.4755634,"name":"tankpool24","city":"","category":"other","tags":[],"operator":"tankpool24"},{"id":"fuel_8319727311","lat":49.7983797,"lon":9.8883182,"name":"Total","city":"","category":"other","tags":[],"opening_hours":"24/7"},{"id":"fuel_8764888814","lat":49.783294,"lon":9.1693286,"name":"TotalEnergies","city":"Wörth am Main","category":"other","tags":[],"opening_hours":"Mo-Su,PH 06:00-22:00","operator":"TotalEnergies"},{"id":"fuel_8891936452","lat":49.1515318,"lon":9.1173989,"name":"Agip","city":"Leingarten","category":"other","tags":[],"operator":"AGIP"},{"id":"fuel_9542680482","lat":49.7780777,"lon":9.9428633,"name":"TotalEnergies","city":"Würzburg","category":"other","tags":[],"opening_hours":"Mo-Fr 06:00-23:00; Sa,Su 08:00-23:00","operator":"TotalEnergies"},{"id":"fuel_9616195699","lat":49.6689871,"lon":9.2124304,"name":"Kirchgäßner","city":"","category":"other","tags":[],"opening_hours":"24/7"},{"id":"fuel_9719129698","lat":49.4981859,"lon":9.7599697,"name":"HEM Tankstelle","city":"","category":"other","tags":[],"operator":"HEM"},{"id":"fuel_10792724507","lat":49.081194,"lon":9.0672539,"name":"Calpam Express","city":"Brackenheim","category":"other","tags":[],"operator":"Shell"},{"id":"fuel_10992516938","lat":49.1151519,"lon":9.7460693,"name":"Avia","city":"Schwäbisch Hall","category":"other","tags":[],"opening_hours":"Mo-Su 06:00-23:00","operator":"Avia"},{"id":"fuel_11703604415","lat":49.1492722,"lon":9.2158606,"name":"Tankstelle","city":"","category":"other","tags":[],"operator":"HNVG"},{"id":"fuel_11817227883","lat":49.4011131,"lon":9.2752663,"name":"Tankstelle","city":"","category":"other","tags":[]},{"id":"fuel_12064691808","lat":49.9642313,"lon":9.0979308,"name":"Roth Energie","city":"Aschaffenburg","category":"other","tags":[],"opening_hours":"24/7","operator":"Roth Energie"},{"id":"fuel_12467036668","lat":49.5710893,"lon":9.7057654,"name":"HERM","city":"Lauda-Königshofen","category":"other","tags":[],"opening_hours":"Mo-Fr 07:30-17:00; Sa 08:00-12:00","operator":"HERM"},{"id":"fuel_12946692808","lat":49.5317828,"lon":9.3346118,"name":"tankpool24","city":"","category":"other","tags":[],"operator":"tankpool24"},{"id":"fuel_12984276384","lat":49.3452682,"lon":9.1302899,"name":"Tankstelle","city":"","category":"other","tags":[]},{"id":"fuel_13167481117","lat":49.4923082,"lon":9.6710165,"name":"Shell","city":"","category":"other","tags":[],"operator":"Shell"},{"id":"fuel_13593098456","lat":49.993163,"lon":9.5646216,"name":"Esso","city":"Lohr am Main","category":"other","tags":[],"opening_hours":"Mo-Fr 06:00-22:00; Sa 07:00-22:00; Su,PH 08:00-22:00","operator":"Esso"}]