[{"id":"fuel_175768727","lat":51.843102,"lon":10.7821458,"name":"Supertank","city":"Wernigerode","category":"other","tags":[],"operator":"Total","opening_hours":"Mo 07:00-20:00; Tu 07:00-20:00; We 07:00-20:00; Th 07:00-20:00; Fr 07:00-20:00; Sa 07:00-20:00","gplace_id":"ChIJrbNKTeYMpUcRSKF3Ld_9fiE","hours":{"type":"weekly","weekly":{"0":{"isOpen":false,"periods":[]},"1":{"isOpen":true,"periods":[{"open":420,"close":1200}]},"2":{"isOpen":true,"periods":[{"open":420,"close":1200}]},"3":{"isOpen":true,"periods":[{"open":420,"close":1200}]},"4":{"isOpen":true,"periods":[{"open":420,"close":1200}]},"5":{"isOpen":true,"periods":[{"open":420,"close":1200}]},"6":{"isOpen":true,"periods":[{"open":420,"close":1200}]}},"original":"Mo 07:00-20:00; Tu 07:00-20:00; We 07:00-20:00; Th 07:00-20:00; Fr 07:00-20:00; Sa 07:00-20:00"}},{"id":"fuel_203771692","lat":51.9587592,"lon":10.753628,"name":"Tankstelle","city":"","category":"other","tags":[],"opening_hours":"Mo 06:00-20:00; Tu 06:00-20:00; We 06:00-20:00; Th 06:00-20:00; Fr 06:00-20:00; Sa 07:00-15:00","gplace_id":"ChIJsfeypgFupUcRJ9DKHXUoS8A","hours":{"type":"weekly","weekly":{"0":{"isOpen":false,"periods":[]},"1":{"isOpen":true,"periods":[{"open":360,"close":1200}]},"2":{"isOpen":true,"periods":[{"open":360,"close":1200}]},"3":{"isOpen":true,"periods":[{"open":360,"close":1200}]},"4":{"isOpen":true,"periods":[{"open":360,"close":1200}]},"5":{"isOpen":true,"periods":[{"open":360,"close":1200}]},"6":{"isOpen":true,"periods":[{"open":420,"close":900}]}},"original":"Mo 06:00-20:00; Tu 06:00-20:00; We 06:00-20:00; Th 06:00-20:00; Fr 06:00-20:00; Sa 07:00-15:00"}},{"id":"fuel_203986035","lat":51.8918106,"lon":10.1610755,"name":"Shell","city":"","category":"other","tags":[],"opening_hours":"Mo-Su,PH 00:00-24:00","operator":"Shell","hours":{"type":"24_7"}},{"id":"fuel_237632788","lat":51.1039442,"lon":10.6640564,"name":"Classic","city":"Bad Langensalza","category":"other","tags":[],"opening_hours":"24/7","operator":"Classic","hours":{"type":"24_7"}},{"id":"fuel_237632801","lat":51.1133796,"lon":10.6592523,"name":"Aral","city":"Bad Langensalza","category":"other","tags":[],"opening_hours":"Mo-Su 05:00-23:00","operator":"Aral","hours":{"type":"weekly","weekly":{"0":{"isOpen":true,"periods":[{"open":300,"close":1380}]},"1":{"isOpen":true,"periods":[{"open":300,"close":1380}]},"2":{"isOpen":true,"periods":[{"open":300,"close":1380}]},"3":{"isOpen":true,"periods":[{"open":300,"close":1380}]},"4":{"isOpen":true,"periods":[{"open":300,"close":1380}]},"5":{"isOpen":true,"periods":[{"open":300,"close":1380}]},"6":{"isOpen":true,"periods":[{"open":300,"close":1380}]}},"original":"Mo-Su 05:00-23:00"}},{"id":"fuel_243883066","lat":51.9686704,"lon":10.6997797,"name":"Aral","city":"Osterwieck","category":"other","tags":[],"opening_hours":"Mo-Fr 06:00-22:00; Sa 07:00-20:00; Su 08:00-20:00","operator":"Autohaus Osterwieck GmbH","hours":{"type":"weekly","weekly":{"0":{"isOpen":true,"periods":[{"open":480,"close":1200}]},"1":{"isOpen":true,"periods":[{"open":360,"close":1320}]},"2":{"isOpen":true,"periods":[{"open":360,"close":1320}]},"3":{"isOpen":true,"periods":[{"open":360,"close":1320}]},"4":{"isOpen":true,"periods":[{"open":360,"close":1320}]},"5":{"isOpen":true,"periods":[{"open":360,"close":1320}]},"6":{"isOpen":true,"periods":[{"open":420,"close":1200}]}},"original":"Mo-Fr 06:00-22:00; Sa 07:00-20:00; Su 08:00-20:00"}},{"id":"fuel_244533953","lat":51.8582953,"lon":10.704417,"name":"HEM","city":"Ilsenburg","category":"other","tags":[],"operator":"HEM","opening_hours":"Su 07:00-21:00; Mo 05:00-22:00; Tu 05:00-22:00; We 05:00-22:00; Th 05:00-22:00; Fr 05:00-22:00; Sa 07:00-21:00","gplace_id":"ChIJGWtIfaQSpUcRx6s1pQ8olcc","hours":{"type":"weekly","weekly":{"0":{"isOpen":true,"periods":[{"open":420,"close":1260}]},"1":{"isOpen":true,"periods":[{"open":300,"close":1320}]},"2":{"isOpen":true,"periods":[{"open":300,"close":1320}]},"3":{"isOpen":true,"periods":[{"open":300,"close":1320}]},"4":{"isOpen":true,"periods":[{"open":300,"close":1320}]},"5":{"isOpen":true,"periods":[{"open":300,"close":1320}]},"6":{"isOpen":true,"periods":[{"open":420,"close":1260}]}},"original":"Su 07:00-21:00; Mo 05:00-22:00; Tu 05:00-22:00; We 05:00-22:00; Th 05:00-22:00; Fr 05:00-22:00; Sa 07:00-21:00"}},{"id":"fuel_249550592","lat":51.0072901,"lon":10.252727,"name":"Shell Eisenach Nord","city":"","category":"other","tags":[],"operator":"Shell","opening_hours":"Su 00:00+","gplace_id":"ChIJuWX_PmyZpEcRtdsIJcfUwlA","hours":{"type":"unknown","original":"Su 00:00+"}},{"id":"fuel_257889897","lat":51.104469,"lon":10.6643496,"name":"Total","city":"Bad Langensalza","category":"other","tags":[],"opening_hours":"Mo-Fr 05:00-23:00; Sa 06:00-23:00; Su 07:00-23:00","operator":"TOTAL","hours":{"type":"weekly","weekly":{"0":{"isOpen":true,"periods":[{"open":420,"close":1380}]},"1":{"isOpen":true,"periods":[{"open":300,"close":1380}]},"2":{"isOpen":true,"periods":[{"open":300,"close":1380}]},"3":{"isOpen":true,"periods":[{"open":300,"close":1380}]},"4":{"isOpen":true,"periods":[{"open":300,"close":1380}]},"5":{"isOpen":true,"periods":[{"open":300,"close":1380}]},"6":{"isOpen":true,"periods":[{"open":360,"close":1380}]}},"original":"Mo-Fr 05:00-23:00; Sa 06:00-23:00; Su 07:00-23:00"}},{"id":"fuel_262324279","lat":51.20486,"lon":10.462676,"name":"bft","city":"Mühlhausen","category":"other","tags":[],"opening_hours":"Mo-Fr 06:00-22:00; Sa 08:00-21:00; Su 08:00-20:00","operator":"KP-Petrol GmbH","hours":{"type":"weekly","weekly":{"0":{"isOpen":true,"periods":[{"open":480,"close":1200}]},"1":{"isOpen":true,"periods":[{"open":360,"close":1320}]},"2":{"isOpen":true,"periods":[{"open":360,"close":1320}]},"3":{"isOpen":true,"periods":[{"open":360,"close":1320}]},"4":{"isOpen":true,"periods":[{"open":360,"close":1320}]},"5":{"isOpen":true,"periods":[{"open":360,"close":1320}]},"6":{"isOpen":true,"periods":[{"open":480,"close":1260}]}},"original":"Mo-Fr 06:00-22:00; Sa 08:00-21:00; Su 08:00-20:00"}},{"id":"fuel_263692098","lat":51.2479065,"lon":10.6554985,"name":"Tankstelle","city":"","category":"other","tags":[],"operator":"Eni","gplace_id":"ChIJQ9gH4Kz1pEcR2UV3oLIz3tk","hours":{"type":"unknown"}},{"id":"fuel_264389659","lat":51.1950181,"lon":10.0358082,"name":"Kaufland","city":"","category":"other","tags":[],"operator":"Kaufland","opening_hours":"Mo 06:30-22:00; Tu 06:30-22:00; We 06:30-22:00; Th 06:30-22:00; Fr 06:30-22:00; Sa 06:30-22:00","gplace_id":"ChIJzduUy8a5pEcRjE2RlIbMFFA","hours":{"type":"weekly","weekly":{"0":{"isOpen":false,"periods":[]},"1":{"isOpen":true,"periods":[{"open":390,"close":1320}]},"2":{"isOpen":true,"periods":[{"open":390,"close":1320}]},"3":{"isOpen":true,"periods":[{"open":390,"close":1320}]},"4":{"isOpen":true,"periods":[{"open":390,"close":1320}]},"5":{"isOpen":true,"periods":[{"open":390,"close":1320}]},"6":{"isOpen":true,"periods":[{"open":390,"close":1320}]}},"original":"Mo 06:30-22:00; Tu 06:30-22:00; We 06:30-22:00; Th 06:30-22:00; Fr 06:30-22:00; Sa 06:30-22:00"}},{"id":"fuel_267101741","lat":51.7326553,"lon":10.2389395,"name":"Aral","city":"Osterode am Harz","category":"other","tags":[],"opening_hours":"24/7","operator":"Aral","hours":{"type":"24_7"}},{"id":"fuel_267650836","lat":51.7301811,"lon":10.2393655,"name":"Das Auto e.K.","city":"Osterode am Harz","category":"other","tags":[],"opening_hours":"24/7","operator":"Das Auto e.K.","hours":{"type":"24_7"}},{"id":"fuel_267828621","lat":51.6494725,"lon":10.2376637,"name":"LEO","city":"","category":"other","tags":[],"opening_hours":"Su 08:00-18:00; Mo 08:00-19:00; Tu 08:00-19:00; We 08:00-19:00; Th 08:00-19:00; Fr 08:00-19:00; Sa 08:00-18:00","gplace_id":"ChIJjZ6C3YcmpUcRy0R-PevNVL0","hours":{"type":"weekly","weekly":{"0":{"isOpen":true,"periods":[{"open":480,"close":1080}]},"1":{"isOpen":true,"periods":[{"open":480,"close":1140}]},"2":{"isOpen":true,"periods":[{"open":480,"close":1140}]},"3":{"isOpen":true,"periods":[{"open":480,"close":1140}]},"4":{"isOpen":true,"periods":[{"open":480,"close":1140}]},"5":{"isOpen":true,"periods":[{"open":480,"close":1140}]},"6":{"isOpen":true,"periods":[{"open":480,"close":1080}]}},"original":"Su 08:00-18:00; Mo 08:00-19:00; Tu 08:00-19:00; We 08:00-19:00; Th 08:00-19:00; Fr 08:00-19:00; Sa 08:00-18:00"}},{"id":"fuel_270342978","lat":51.8705798,"lon":10.0124237,"name":"Shell","city":"","category":"other","tags":[],"operator":"Shell","opening_hours":"Su 08:00-21:00; Mo 07:00-21:00; Tu 07:00-21:00; We 07:00-21:00; Th 07:00-21:00; Fr 07:00-21:00; Sa 07:00-21:00","gplace_id":"ChIJmSOwcEfLukcRqje2OOrv5QU","hours":{"type":"weekly","weekly":{"0":{"isOpen":true,"periods":[{"open":480,"close":1260}]},"1":{"isOpen":true,"periods":[{"open":420,"close":1260}]},"2":{"isOpen":true,"periods":[{"open":420,"close":1260}]},"3":{"isOpen":true,"periods":[{"open":420,"close":1260}]},"4":{"isOpen":true,"periods":[{"open":420,"close":1260}]},"5":{"isOpen":true,"periods":[{"open":420,"close":1260}]},"6":{"isOpen":true,"periods":[{"open":420,"close":1260}]}},"original":"Su 08:00-21:00; Mo 07:00-21:00; Tu 07:00-21:00; We 07:00-21:00; Th 07:00-21:00; Fr 07:00-21:00; Sa 07:00-21:00"}},{"id":"fuel_272297479","lat":51.6890067,"lon":10.8448049,"name":"Total","city":"Oberharz am Brocken","category":"other","tags":[],"opening_hours":"Mo-Sa 05:00-22:00; Su,PH 06:00-22:00","operator":"Uwe Kindervater","hours":{"type":"weekly","weekly":{"0":{"isOpen":true,"periods":[{"open":360,"close":1320}]},"1":{"isOpen":true,"periods":[{"open":300,"close":1320}]},"2":{"isOpen":true,"periods":[{"open":300,"close":1320}]},"3":{"isOpen":true,"periods":[{"open":300,"close":1320}]},"4":{"isOpen":true,"periods":[{"open":300,"close":1320}]},"5":{"isOpen":true,"periods":[{"open":300,"close":1320}]},"6":{"isOpen":true,"periods":[{"open":300,"close":1320}]}},"original":"Mo-Sa 05:00-22:00; Su,PH 06:00-22:00"}},{"id":"fuel_279227906","lat":51.1179038,"lon":10.032596,"name":"Honsel","city":"Ringgau","category":"other","tags":[],"operator":"Honsel","opening_hours":"Su 08:00-19:00; Mo 06:00-20:00; Tu 06:00-20:00; We 06:00-20:00; Th 06:00-20:00; Fr 06:00-20:00; Sa 08:00-19:00","gplace_id":"ChIJCzYHDfu6pEcRrbTD7ejW5S4","hours":{"type":"weekly","weekly":{"0":{"isOpen":true,"periods":[{"open":480,"close":1140}]},"1":{"isOpen":true,"periods":[{"open":360,"close":1200}]},"2":{"isOpen":true,"periods":[{"open":360,"close":1200}]},"3":{"isOpen":true,"periods":[{"open":360,"close":1200}]},"4":{"isOpen":true,"periods":[{"open":360,"close":1200}]},"5":{"isOpen":true,"periods":[{"open":360,"close":1200}]},"6":{"isOpen":true,"periods":[{"open":480,"close":1140}]}},"original":"Su 08:00-19:00; Mo 06:00-20:00; Tu 06:00-20:00; We 06:00-20:00; Th 06:00-20:00; Fr 06:00-20:00; Sa 08:00-19:00"}},{"id":"fuel_279767011","lat":51.385157,"lon":10.1655843,"name":"HEM","city":"Heilbad Heiligenstadt","category":"other","tags":[],"opening_hours":"Mo-Su 00:00-23:59","operator":"HEM","hours":{"type":"weekly","weekly":{"0":{"isOpen":true,"periods":[{"open":0,"close":1439}]},"1":{"isOpen":true,"periods":[{"open":0,"close":1439}]},"2":{"isOpen":true,"periods":[{"open":0,"close":1439}]},"3":{"isOpen":true,"periods":[{"open":0,"close":1439}]},"4":{"isOpen":true,"periods":[{"open":0,"close":1439}]},"5":{"isOpen":true,"periods":[{"open":0,"close":1439}]},"6":{"isOpen":true,"periods":[{"open":0,"close":1439}]}},"original":"Mo-Su 00:00-23:59"}},{"id":"fuel_282255609","lat":51.7144364,"lon":10.275381,"name":"Kaufland Tankstelle","city":"","category":"other","tags":[],"operator":"Kaufland","opening_hours":"Mo 07:00-20:00; Tu 07:00-20:00; We 07:00-20:00; Th 07:00-20:00; Fr 07:00-20:00; Sa 07:00-20:00","gplace_id":"ChIJs2wccCslpUcRQ0Suz-5wpk4","hours":{"type":"weekly","weekly":{"0":{"isOpen":false,"periods":[]},"1":{"isOpen":true,"periods":[{"open":420,"close":1200}]},"2":{"isOpen":true,"periods":[{"open":420,"close":1200}]},"3":{"isOpen":true,"periods":[{"open":420,"close":1200}]},"4":{"isOpen":true,"periods":[{"open":420,"close":1200}]},"5":{"isOpen":true,"periods":[{"open":420,"close":1200}]},"6":{"isOpen":true,"periods":[{"open":420,"close":1200}]}},"original":"Mo 07:00-20:00; Tu 07:00-20:00; We 07:00-20:00; Th 07:00-20:00; Fr 07:00-20:00; Sa 07:00-20:00"}},{"id":"fuel_282890408","lat":51.7818221,"lon":10.1997694,"name":"CLASSIC Tankstellen GmbH & Co. KG","city":"","category":"other","tags":[],"operator":"Star","opening_hours":"Su 08:00-21:00; Mo 05:30-21:00; Tu 05:30-21:00; We 05:30-21:00; Th 05:30-21:00; Fr 05:30-21:00; Sa 07:00-21:00","gplace_id":"ChIJ58RyQQAxpUcRN36cLwoUJe0","hours":{"type":"weekly","weekly":{"0":{"isOpen":true,"periods":[{"open":480,"close":1260}]},"1":{"isOpen":true,"periods":[{"open":330,"close":1260}]},"2":{"isOpen":true,"periods":[{"open":330,"close":1260}]},"3":{"isOpen":true,"periods":[{"open":330,"close":1260}]},"4":{"isOpen":true,"periods":[{"open":330,"close":1260}]},"5":{"isOpen":true,"periods":[{"open":330,"close":1260}]},"6":{"isOpen":true,"periods":[{"open":420,"close":1260}]}},"original":"Su 08:00-21:00; Mo 05:30-21:00; Tu 05:30-21:00; We 05:30-21:00; Th 05:30-21:00; Fr 05:30-21:00; Sa 07:00-21:00"}},{"id":"fuel_288593523","lat":51.3190788,"lon":10.3082666,"name":"AVEX","city":"Dingelstädt","category":"other","tags":[],"opening_hours":"24/7","operator":"AVEX","hours":{"type":"24_7"}},{"id":"fuel_292701202","lat":51.4955216,"lon":10.1808607,"name":"Tankstelle","city":"","category":"other","tags":[],"opening_hours":"Su 00:00+","gplace_id":"ChIJh3Dbwn_ZpEcRLUa2IB_Jfec","hours":{"type":"unknown","original":"Su 00:00+"}},{"id":"fuel_297208676","lat":51.9100497,"lon":10.4705345,"name":"HEM","city":"Goslar","category":"other","tags":[],"opening_hours":"Mo-Fr 06:00-22:00; Sa 07:00-22:00; Su 07:00-22:00","operator":"Tamoil","hours":{"type":"weekly","weekly":{"0":{"isOpen":true,"periods":[{"open":420,"close":1320}]},"1":{"isOpen":true,"periods":[{"open":360,"close":1320}]},"2":{"isOpen":true,"periods":[{"open":360,"close":1320}]},"3":{"isOpen":true,"periods":[{"open":360,"close":1320}]},"4":{"isOpen":true,"periods":[{"open":360,"close":1320}]},"5":{"isOpen":true,"periods":[{"open":360,"close":1320}]},"6":{"isOpen":true,"periods":[{"open":420,"close":1320}]}},"original":"Mo-Fr 06:00-22:00; Sa 07:00-22:00; Su 07:00-22:00"}},{"id":"fuel_297714068","lat":51.4227823,"lon":10.6064585,"name":"Shell","city":"Niedergebra","category":"other","tags":[],"opening_hours":"Mo-Fr 05:00-21:00; Sa 06:00-21:00; Su,PH 07:00-21:00","operator":"Shell","hours":{"type":"weekly","weekly":{"0":{"isOpen":true,"periods":[{"open":420,"close":1260}]},"1":{"isOpen":true,"periods":[{"open":300,"close":1260}]},"2":{"isOpen":true,"periods":[{"open":300,"close":1260}]},"3":{"isOpen":true,"periods":[{"open":300,"close":1260}]},"4":{"isOpen":true,"periods":[{"open":300,"close":1260}]},"5":{"isOpen":true,"periods":[{"open":300,"close":1260}]},"6":{"isOpen":true,"periods":[{"open":360,"close":1260}]}},"original":"Mo-Fr 05:00-21:00; Sa 06:00-21:00; Su,PH 07:00-21:00"}},{"id":"fuel_302867125","lat":51.7877655,"lon":10.0642356,"name":"Aral","city":"","category":"other","tags":[],"opening_hours":"Su 07:00-21:00; Mo 06:00-21:00; Tu 06:00-21:00; We 06:00-21:00; Th 06:00-21:00; Fr 06:00-21:00; Sa 07:00-21:00","gplace_id":"ChIJrVg8RVkypUcR9ZtTahHBxaE","hours":{"type":"weekly","weekly":{"0":{"isOpen":true,"periods":[{"open":420,"close":1260}]},"1":{"isOpen":true,"periods":[{"open":360,"close":1260}]},"2":{"isOpen":true,"periods":[{"open":360,"close":1260}]},"3":{"isOpen":true,"periods":[{"open":360,"close":1260}]},"4":{"isOpen":true,"periods":[{"open":360,"close":1260}]},"5":{"isOpen":true,"periods":[{"open":360,"close":1260}]},"6":{"isOpen":true,"periods":[{"open":420,"close":1260}]}},"original":"Su 07:00-21:00; Mo 06:00-21:00; Tu 06:00-21:00; We 06:00-21:00; Th 06:00-21:00; Fr 06:00-21:00; Sa 07:00-21:00"}},{"id":"fuel_318133786","lat":51.6976538,"lon":10.1524088,"name":"Raiffeisen","city":"","category":"other","tags":[],"opening_hours":"24/7","hours":{"type":"24_7"}},{"id":"fuel_319217122","lat":51.5163257,"lon":10.2429076,"name":"Aral","city":"Duderstadt","category":"other","tags":[],"opening_hours":"Mo-Fr 05:30-22:00; Sa-Su 06:30-22:00","operator":"Jens Nolte","hours":{"type":"weekly","weekly":{"0":{"isOpen":true,"periods":[{"open":390,"close":1320}]},"1":{"isOpen":true,"periods":[{"open":330,"close":1320}]},"2":{"isOpen":true,"periods":[{"open":330,"close":1320}]},"3":{"isOpen":true,"periods":[{"open":330,"close":1320}]},"4":{"isOpen":true,"periods":[{"open":330,"close":1320}]},"5":{"isOpen":true,"periods":[{"open":330,"close":1320}]},"6":{"isOpen":true,"periods":[{"open":390,"close":1320}]}},"original":"Mo-Fr 05:30-22:00; Sa-Su 06:30-22:00"}},{"id":"fuel_319869495","lat":51.9287664,"lon":10.1420895,"name":"Aral","city":"Seesen","category":"other","tags":[],"opening_hours":"24/7","operator":"BAT Harz West Areas Autobahn West GmbH","hours":{"type":"24_7"}},{"id":"fuel_321475071","lat":51.4124144,"lon":10.4382945,"name":"Shell","city":"Breitenworbis","category":"other","tags":[],"opening_hours":"24/7","operator":"Grund Tankstellen GmbH","hours":{"type":"24_7"}},{"id":"fuel_322831007","lat":51.5086765,"lon":10.2496055,"name":"Raiffeisen-Tankstelle","city":"Duderstadt","category":"other","tags":[],"opening_hours":"PH,Mo-Su 00:00-24:00","operator":"Raiffeisen","hours":{"type":"unknown","original":"PH,Mo-Su 00:00-24:00"}},{"id":"fuel_347628351","lat":51.3359904,"lon":10.5280963,"name":"Tankstelle Keula","city":"Helbedündorf","category":"other","tags":[],"operator":"Nord Energie","gplace_id":"not_found","hours":{"type":"unknown"}},{"id":"fuel_354950397","lat":51.6080703,"lon":10.1345464,"name":"Tankstelle","city":"","category":"other","tags":[],"opening_hours":"Tu 00:00-00:00","gplace_id":"ChIJY_FY1kEopUcR1whqO66Nzpo","hours":{"type":"weekly","weekly":{"0":{"isOpen":false,"periods":[]},"1":{"isOpen":false,"periods":[]},"2":{"isOpen":true,"periods":[{"open":0,"close":1440}]},"3":{"isOpen":false,"periods":[]},"4":{"isOpen":false,"periods":[]},"5":{"isOpen":false,"periods":[]},"6":{"isOpen":false,"periods":[]}},"original":"Tu 00:00-00:00"}},{"id":"fuel_385128639","lat":51.3756559,"lon":10.1307599,"name":"Honsel","city":"","category":"other","tags":[],"opening_hours":"Mo-Fr 06:30-19:30; Sa 08:00-19:30; Su 09:00-19:30","operator":"Honsel","hours":{"type":"weekly","weekly":{"0":{"isOpen":true,"periods":[{"open":540,"close":1170}]},"1":{"isOpen":true,"periods":[{"open":390,"close":1170}]},"2":{"isOpen":true,"periods":[{"open":390,"close":1170}]},"3":{"isOpen":true,"periods":[{"open":390,"close":1170}]},"4":{"isOpen":true,"periods":[{"open":390,"close":1170}]},"5":{"isOpen":true,"periods":[{"open":390,"close":1170}]},"6":{"isOpen":true,"periods":[{"open":480,"close":1170}]}},"original":"Mo-Fr 06:30-19:30; Sa 08:00-19:30; Su 09:00-19:30"}},{"id":"fuel_392813907","lat":51.7157465,"lon":10.279029,"name":"Schlüsseltankstelle","city":"Osterode am Harz","category":"other","tags":[],"operator":"Mävers","opening_hours":"Su 00:00+","gplace_id":"ChIJOVV2JOkkpUcRuG7V3sermqc","hours":{"type":"unknown","original":"Su 00:00+"}},{"id":"fuel_402517430","lat":51.8791841,"lon":10.1531946,"name":"Tankpool","city":"","category":"other","tags":[],"opening_hours":"Su 00:00+","gplace_id":"ChIJ33aDjIA2pUcRY2IuFQnu0m8","hours":{"type":"unknown","original":"Su 00:00+"}},{"id":"fuel_424206136","lat":51.0838881,"lon":10.9965695,"name":"Tankstelle","city":"Riethnordhausen","category":"other","tags":[],"opening_hours":"24/7","operator":"Universal-Agrar Mittelhausen e.G.","hours":{"type":"24_7"}},{"id":"fuel_443874854","lat":51.5262059,"lon":10.1846528,"name":"Tankstelle","city":"","category":"other","tags":[],"gplace_id":"not_found","hours":{"type":"unknown"}},{"id":"fuel_448513485","lat":51.7694627,"lon":10.203166,"name":"Raiffeisen SB-Tankstelle","city":"Bad Grund","category":"other","tags":[],"opening_hours":"24/7","hours":{"type":"24_7"}},{"id":"fuel_455048290","lat":51.2367164,"lon":10.9449087,"name":"Shell","city":"Greußen","category":"other","tags":[],"opening_hours":"24/7","operator":"Shell","hours":{"type":"24_7"}},{"id":"fuel_461227297","lat":51.0504614,"lon":10.2263716,"name":"Aral","city":"Amt Creuzburg","category":"other","tags":[],"opening_hours":"24/7","operator":"Jörg Eisfeld","hours":{"type":"24_7"}},{"id":"fuel_467092627","lat":51.1870029,"lon":10.061195,"name":"Avia","city":"","category":"other","tags":[],"operator":"Avia","opening_hours":"Mo 08:00-20:00; Tu 08:00-20:00; We 08:00-20:00; Th 08:00-20:00; Fr 08:00-20:00; Sa 08:00-20:00","gplace_id":"ChIJy661fo-5pEcRiV7Syhbyda0","hours":{"type":"weekly","weekly":{"0":{"isOpen":false,"periods":[]},"1":{"isOpen":true,"periods":[{"open":480,"close":1200}]},"2":{"isOpen":true,"periods":[{"open":480,"close":1200}]},"3":{"isOpen":true,"periods":[{"open":480,"close":1200}]},"4":{"isOpen":true,"periods":[{"open":480,"close":1200}]},"5":{"isOpen":true,"periods":[{"open":480,"close":1200}]},"6":{"isOpen":true,"periods":[{"open":480,"close":1200}]}},"original":"Mo 08:00-20:00; Tu 08:00-20:00; We 08:00-20:00; Th 08:00-20:00; Fr 08:00-20:00; Sa 08:00-20:00"}},{"id":"fuel_472372180","lat":51.8512195,"lon":10.1765488,"name":"Freise","city":"","category":"other","tags":[],"opening_hours":"Su 00:00+","gplace_id":"ChIJvR5wc8Q2pUcRiFYCaxLGfOI","hours":{"type":"unknown","original":"Su 00:00+"}},{"id":"fuel_473733017","lat":51.5119911,"lon":10.242101,"name":"Autogas-Tankstelle","city":"","category":"other","tags":[],"operator":"Autohaus Abicht","gplace_id":"not_found","hours":{"type":"unknown"}},{"id":"fuel_504709527","lat":51.6442189,"lon":10.3179985,"name":"Pfeffer SB-Tanke","city":"Herzberg am Harz","category":"other","tags":[],"opening_hours":"24/7","operator":"Aral","hours":{"type":"24_7"}},{"id":"fuel_506274496","lat":51.8108209,"lon":10.9386404,"name":"Erdgas CNG","city":"","category":"other","tags":[],"operator":"Stadtwerke Blankenburg","opening_hours":"Su 00:00+","gplace_id":"ChIJ1-oLdX6gpUcRaeq5xhGcD5U","hours":{"type":"unknown","original":"Su 00:00+"}},{"id":"fuel_528501498","lat":51.0081606,"lon":10.2541586,"name":"Shell Eisenach Süd","city":"","category":"other","tags":[],"operator":"Shell","opening_hours":"Su 00:00+","gplace_id":"ChIJVyhgv2yZpEcR9KBXOq0YA00","hours":{"type":"unknown","original":"Su 00:00+"}},{"id":"fuel_561214195","lat":51.8054866,"lon":10.9370922,"name":"ASM Autoservice","city":"Blankenburg","category":"other","tags":[],"opening_hours":"Mo-Fr 08:30-18:30; Sa 09:00-13:00","hours":{"type":"weekly","weekly":{"0":{"isOpen":false,"periods":[]},"1":{"isOpen":true,"periods":[{"open":510,"close":1110}]},"2":{"isOpen":true,"periods":[{"open":510,"close":1110}]},"3":{"isOpen":true,"periods":[{"open":510,"close":1110}]},"4":{"isOpen":true,"periods":[{"open":510,"close":1110}]},"5":{"isOpen":true,"periods":[{"open":510,"close":1110}]},"6":{"isOpen":true,"periods":[{"open":540,"close":780}]}},"original":"Mo-Fr 08:30-18:30; Sa 09:00-13:00"}},{"id":"fuel_568340414","lat":51.7914108,"lon":10.0374989,"name":"Raiffeisen Tankstelle","city":"Kalefeld","category":"other","tags":[],"opening_hours":"24/7","operator":"Raiffeisen","hours":{"type":"24_7"}},{"id":"fuel_667855709","lat":51.3018297,"lon":10.7734935,"name":"star","city":"Ebeleben","category":"other","tags":[],"operator":"star","gplace_id":"ChIJJW0Oje9YpEcRA5aDfkYCYqM","hours":{"type":"unknown"}},{"id":"fuel_671340308","lat":51.1353733,"lon":10.2320096,"name":"AVEX","city":"","category":"other","tags":[],"operator":"Gastankanlagen und Mineralölprodukte Handel GmbH","opening_hours":"Su 06:00-21:55; Mo 05:00-21:55; Tu 05:00-21:55; We 05:00-21:55; Th 05:00-21:55; Fr 05:00-21:55; Sa 06:00-21:55","gplace_id":"ChIJ4UDpLBGWpEcRDlDwFXYNvGg","hours":{"type":"weekly","weekly":{"0":{"isOpen":true,"periods":[{"open":360,"close":1315}]},"1":{"isOpen":true,"periods":[{"open":300,"close":1315}]},"2":{"isOpen":true,"periods":[{"open":300,"close":1315}]},"3":{"isOpen":true,"periods":[{"open":300,"close":1315}]},"4":{"isOpen":true,"periods":[{"open":300,"close":1315}]},"5":{"isOpen":true,"periods":[{"open":300,"close":1315}]},"6":{"isOpen":true,"periods":[{"open":360,"close":1315}]}},"original":"Su 06:00-21:55; Mo 05:00-21:55; Tu 05:00-21:55; We 05:00-21:55; Th 05:00-21:55; Fr 05:00-21:55; Sa 06:00-21:55"}},{"id":"fuel_675135670","lat":51.4911644,"lon":10.4197651,"name":"Autohaus Eisenbarth","city":"","category":"other","tags":[],"opening_hours":"Mo-Fr 06:00-19:00; Sa 08:00-18:00; Su 09:00-18:00","operator":"Chevrolet","hours":{"type":"weekly","weekly":{"0":{"isOpen":true,"periods":[{"open":540,"close":1080}]},"1":{"isOpen":true,"periods":[{"open":360,"close":1140}]},"2":{"isOpen":true,"periods":[{"open":360,"close":1140}]},"3":{"isOpen":true,"periods":[{"open":360,"close":1140}]},"4":{"isOpen":true,"periods":[{"open":360,"close":1140}]},"5":{"isOpen":true,"periods":[{"open":360,"close":1140}]},"6":{"isOpen":true,"periods":[{"open":480,"close":1080}]}},"original":"Mo-Fr 06:00-19:00; Sa 08:00-18:00; Su 09:00-18:00"}},{"id":"fuel_732712133","lat":51.9318427,"lon":10.4183646,"name":"Autohaus Bolluck GmbH","city":"Goslar","category":"other","tags":[],"opening_hours":"Mo-Fr 07:00-18:00; Sa 09:00-14:00","hours":{"type":"weekly","weekly":{"0":{"isOpen":false,"periods":[]},"1":{"isOpen":true,"periods":[{"open":420,"close":1080}]},"2":{"isOpen":true,"periods":[{"open":420,"close":1080}]},"3":{"isOpen":true,"periods":[{"open":420,"close":1080}]},"4":{"isOpen":true,"periods":[{"open":420,"close":1080}]},"5":{"isOpen":true,"periods":[{"open":420,"close":1080}]},"6":{"isOpen":true,"periods":[{"open":540,"close":840}]}},"original":"Mo-Fr 07:00-18:00; Sa 09:00-14:00"}},{"id":"fuel_732712219","lat":51.7617,"lon":10.0433,"name":"Bernd Schmidt KFZ- Meist...","city":"Northeim","category":"other","tags":[],"opening_hours":"Mo-Fr 08:00-18:00","hours":{"type":"weekly","weekly":{"0":{"isOpen":false,"periods":[]},"1":{"isOpen":true,"periods":[{"open":480,"close":1080}]},"2":{"isOpen":true,"periods":[{"open":480,"close":1080}]},"3":{"isOpen":true,"periods":[{"open":480,"close":1080}]},"4":{"isOpen":true,"periods":[{"open":480,"close":1080}]},"5":{"isOpen":true,"periods":[{"open":480,"close":1080}]},"6":{"isOpen":false,"periods":[]}},"original":"Mo-Fr 08:00-18:00"}},{"id":"fuel_732712467","lat":51.6713266,"lon":10.7266866,"name":"Tankstelle","city":"Oberharz am Brocken","category":"other","tags":[],"gplace_id":"not_found","hours":{"type":"unknown"}},{"id":"fuel_732712605","lat":51.6620962,"lon":10.2785283,"name":"RWG Südharz eG","city":"Elbingerode","category":"other","tags":[],"opening_hours":"Su 00:00+","gplace_id":"ChIJxZJCkBskpUcR7H2iJ5Vbwo0","hours":{"type":"unknown","original":"Su 00:00+"}},{"id":"fuel_732712827","lat":51.4720031,"lon":10.8112603,"name":"Autogas Tankstelle","city":"Nordhausen","category":"other","tags":[],"opening_hours":"Mo-Fr 06:30-18:30; Sa 08:00-12:00","hours":{"type":"weekly","weekly":{"0":{"isOpen":false,"periods":[]},"1":{"isOpen":true,"periods":[{"open":390,"close":1110}]},"2":{"isOpen":true,"periods":[{"open":390,"close":1110}]},"3":{"isOpen":true,"periods":[{"open":390,"close":1110}]},"4":{"isOpen":true,"periods":[{"open":390,"close":1110}]},"5":{"isOpen":true,"periods":[{"open":390,"close":1110}]},"6":{"isOpen":true,"periods":[{"open":480,"close":720}]}},"original":"Mo-Fr 06:30-18:30; Sa 08:00-12:00"}},{"id":"fuel_732712839","lat":51.7376074,"lon":10.2286108,"name":"Michael Ludwig Gase + Technik","city":"Osterode am Harz","category":"other","tags":[],"opening_hours":"Mo-Fr 08:00-18:00","hours":{"type":"weekly","weekly":{"0":{"isOpen":false,"periods":[]},"1":{"isOpen":true,"periods":[{"open":480,"close":1080}]},"2":{"isOpen":true,"periods":[{"open":480,"close":1080}]},"3":{"isOpen":true,"periods":[{"open":480,"close":1080}]},"4":{"isOpen":true,"periods":[{"open":480,"close":1080}]},"5":{"isOpen":true,"periods":[{"open":480,"close":1080}]},"6":{"isOpen":false,"periods":[]}},"original":"Mo-Fr 08:00-18:00"}},{"id":"fuel_732713155","lat":51.9309883,"lon":10.4147006,"name":"Georg Piening Mineralölhandel","city":"Goslar","category":"other","tags":[],"opening_hours":"24/7","hours":{"type":"24_7"}},{"id":"fuel_732713512","lat":51.21583,"lon":10.445,"name":"Subaru Autohaus Hoppe","city":"","category":"other","tags":[],"opening_hours":"Mo-Fr 07:00-21:00; Sa 09:00-18:00","hours":{"type":"weekly","weekly":{"0":{"isOpen":false,"periods":[]},"1":{"isOpen":true,"periods":[{"open":420,"close":1260}]},"2":{"isOpen":true,"periods":[{"open":420,"close":1260}]},"3":{"isOpen":true,"periods":[{"open":420,"close":1260}]},"4":{"isOpen":true,"periods":[{"open":420,"close":1260}]},"5":{"isOpen":true,"periods":[{"open":420,"close":1260}]},"6":{"isOpen":true,"periods":[{"open":540,"close":1080}]}},"original":"Mo-Fr 07:00-21:00; Sa 09:00-18:00"}},{"id":"fuel_732713747","lat":51.3842825,"lon":10.4134434,"name":"Raiffeisen Tankstelle","city":"Gernrode","category":"other","tags":[],"opening_hours":"24/7","operator":"VR-Bank in Südniedersachsen eG","hours":{"type":"24_7"}},{"id":"fuel_732713962","lat":51.2000114,"lon":10.4771736,"name":"Regionalbus GmbH","city":"Mühlhausen","category":"other","tags":[],"opening_hours":"Mo-Fr 04:00-22:00; Sa 06:00-20:00; Su 08:00-20:00","hours":{"type":"weekly","weekly":{"0":{"isOpen":true,"periods":[{"open":480,"close":1200}]},"1":{"isOpen":true,"periods":[{"open":240,"close":1320}]},"2":{"isOpen":true,"periods":[{"open":240,"close":1320}]},"3":{"isOpen":true,"periods":[{"open":240,"close":1320}]},"4":{"isOpen":true,"periods":[{"open":240,"close":1320}]},"5":{"isOpen":true,"periods":[{"open":240,"close":1320}]},"6":{"isOpen":true,"periods":[{"open":360,"close":1200}]}},"original":"Mo-Fr 04:00-22:00; Sa 06:00-20:00; Su 08:00-20:00"}},{"id":"fuel_732714192","lat":51.54009,"lon":10.77068,"name":"Harztor Automobile GmbH...","city":"Niedersachswerfen","category":"other","tags":[],"opening_hours":"Mo-Fr 08:00-18:00; Sa 09:00-12:00","hours":{"type":"weekly","weekly":{"0":{"isOpen":false,"periods":[]},"1":{"isOpen":true,"periods":[{"open":480,"close":1080}]},"2":{"isOpen":true,"periods":[{"open":480,"close":1080}]},"3":{"isOpen":true,"periods":[{"open":480,"close":1080}]},"4":{"isOpen":true,"periods":[{"open":480,"close":1080}]},"5":{"isOpen":true,"periods":[{"open":480,"close":1080}]},"6":{"isOpen":true,"periods":[{"open":540,"close":720}]}},"original":"Mo-Fr 08:00-18:00; Sa 09:00-12:00"}},{"id":"fuel_732714993","lat":51.1619304,"lon":10.9880675,"name":"Kfz-Instandsetzungsbetrieb","city":"Straußfurt","category":"other","tags":[],"opening_hours":"Mo-Fr 07:00-18:00; Sa 09:00-12:00","hours":{"type":"weekly","weekly":{"0":{"isOpen":false,"periods":[]},"1":{"isOpen":true,"periods":[{"open":420,"close":1080}]},"2":{"isOpen":true,"periods":[{"open":420,"close":1080}]},"3":{"isOpen":true,"periods":[{"open":420,"close":1080}]},"4":{"isOpen":true,"periods":[{"open":420,"close":1080}]},"5":{"isOpen":true,"periods":[{"open":420,"close":1080}]},"6":{"isOpen":true,"periods":[{"open":540,"close":720}]}},"original":"Mo-Fr 07:00-18:00; Sa 09:00-12:00"}},{"id":"fuel_732715117","lat":51.9276356,"lon":10.414765,"name":"Autohaus Volker Höfert","city":"Goslar","category":"other","tags":[],"opening_hours":"Mo-Fr 08:00-18:00; Sa 09:00-13:00","hours":{"type":"weekly","weekly":{"0":{"isOpen":false,"periods":[]},"1":{"isOpen":true,"periods":[{"open":480,"close":1080}]},"2":{"isOpen":true,"periods":[{"open":480,"close":1080}]},"3":{"isOpen":true,"periods":[{"open":480,"close":1080}]},"4":{"isOpen":true,"periods":[{"open":480,"close":1080}]},"5":{"isOpen":true,"periods":[{"open":480,"close":1080}]},"6":{"isOpen":true,"periods":[{"open":540,"close":780}]}},"original":"Mo-Fr 08:00-18:00; Sa 09:00-13:00"}},{"id":"fuel_732715155","lat":51.5007459,"lon":10.7770134,"name":"Drachen Propangas GmbH/Gas-Schäfer","city":"Nordhausen","category":"other","tags":[],"opening_hours":"Mo-Th 08:00-17:00; Fr 08:00-15:00; Sa 09:00-11:00","hours":{"type":"weekly","weekly":{"0":{"isOpen":false,"periods":[]},"1":{"isOpen":true,"periods":[{"open":480,"close":1020}]},"2":{"isOpen":true,"periods":[{"open":480,"close":1020}]},"3":{"isOpen":true,"periods":[{"open":480,"close":1020}]},"4":{"isOpen":true,"periods":[{"open":480,"close":1020}]},"5":{"isOpen":true,"periods":[{"open":480,"close":900}]},"6":{"isOpen":true,"periods":[{"open":540,"close":660}]}},"original":"Mo-Th 08:00-17:00; Fr 08:00-15:00; Sa 09:00-11:00"}},{"id":"fuel_732715478","lat":51.2856517,"lon":10.7294383,"name":"OIL!","city":"Ebeleben","category":"other","tags":[],"opening_hours":"Mo 07:30-20:30; Tu 07:30-20:30; We 07:30-20:30; Th 07:30-20:30; Fr 07:30-20:30; Sa 07:00-20:00; Su 07:00-20:00","operator":"OIL!","hours":{"type":"weekly","weekly":{"0":{"isOpen":true,"periods":[{"open":420,"close":1200}]},"1":{"isOpen":true,"periods":[{"open":450,"close":1230}]},"2":{"isOpen":true,"periods":[{"open":450,"close":1230}]},"3":{"isOpen":true,"periods":[{"open":450,"close":1230}]},"4":{"isOpen":true,"periods":[{"open":450,"close":1230}]},"5":{"isOpen":true,"periods":[{"open":450,"close":1230}]},"6":{"isOpen":true,"periods":[{"open":420,"close":1200}]}},"original":"Mo 07:30-20:30; Tu 07:30-20:30; We 07:30-20:30; Th 07:30-20:30; Fr 07:30-20:30; Sa 07:00-20:00; Su 07:00-20:00"}},{"id":"fuel_732715652","lat":51.9895463,"lon":10.8941476,"name":"Tankstelle","city":"Huy","category":"other","tags":[],"opening_hours":"Mo-Fr 07:00-18:00; Sa 09:00-13:00","operator":"Waldemar Quaas GmbH","hours":{"type":"weekly","weekly":{"0":{"isOpen":false,"periods":[]},"1":{"isOpen":true,"periods":[{"open":420,"close":1080}]},"2":{"isOpen":true,"periods":[{"open":420,"close":1080}]},"3":{"isOpen":true,"periods":[{"open":420,"close":1080}]},"4":{"isOpen":true,"periods":[{"open":420,"close":1080}]},"5":{"isOpen":true,"periods":[{"open":420,"close":1080}]},"6":{"isOpen":true,"periods":[{"open":540,"close":780}]}},"original":"Mo-Fr 07:00-18:00; Sa 09:00-13:00"}},{"id":"fuel_732716024","lat":51.2039476,"lon":10.4423144,"name":"Honsel","city":"Mühlhausen","category":"other","tags":[],"opening_hours":"Mo-Fr 06:00-20:00; Sa 07:00-20:00; Su 08:00-20:00","hours":{"type":"weekly","weekly":{"0":{"isOpen":true,"periods":[{"open":480,"close":1200}]},"1":{"isOpen":true,"periods":[{"open":360,"close":1200}]},"2":{"isOpen":true,"periods":[{"open":360,"close":1200}]},"3":{"isOpen":true,"periods":[{"open":360,"close":1200}]},"4":{"isOpen":true,"periods":[{"open":360,"close":1200}]},"5":{"isOpen":true,"periods":[{"open":360,"close":1200}]},"6":{"isOpen":true,"periods":[{"open":420,"close":1200}]}},"original":"Mo-Fr 06:00-20:00; Sa 07:00-20:00; Su 08:00-20:00"}},{"id":"fuel_732716205","lat":51.00781,"lon":10.26299,"name":"Auto-Meier","city":"Krauthausen","category":"other","tags":[],"opening_hours":"Mo-Fr 07:00-23:00; Sa-Su 08:00-23:00","hours":{"type":"weekly","weekly":{"0":{"isOpen":true,"periods":[{"open":480,"close":1380}]},"1":{"isOpen":true,"periods":[{"open":420,"close":1380}]},"2":{"isOpen":true,"periods":[{"open":420,"close":1380}]},"3":{"isOpen":true,"periods":[{"open":420,"close":1380}]},"4":{"isOpen":true,"periods":[{"open":420,"close":1380}]},"5":{"isOpen":true,"periods":[{"open":420,"close":1380}]},"6":{"isOpen":true,"periods":[{"open":480,"close":1380}]}},"original":"Mo-Fr 07:00-23:00; Sa-Su 08:00-23:00"}},{"id":"fuel_732716937","lat":51.198715,"lon":10.0648287,"name":"Honsel Tankstelle","city":"Meinhard","category":"other","tags":[],"opening_hours":"24/7","operator":"Honsel","hours":{"type":"24_7"}},{"id":"fuel_732717083","lat":51.2362014,"lon":10.1589643,"name":"bft - Walther","city":"","category":"other","tags":[],"opening_hours":"Mo-Fr 06:30-20:00; Sa-Su 08:00-18:00","operator":"Independent","hours":{"type":"weekly","weekly":{"0":{"isOpen":true,"periods":[{"open":480,"close":1080}]},"1":{"isOpen":true,"periods":[{"open":390,"close":1200}]},"2":{"isOpen":true,"periods":[{"open":390,"close":1200}]},"3":{"isOpen":true,"periods":[{"open":390,"close":1200}]},"4":{"isOpen":true,"periods":[{"open":390,"close":1200}]},"5":{"isOpen":true,"periods":[{"open":390,"close":1200}]},"6":{"isOpen":true,"periods":[{"open":480,"close":1080}]}},"original":"Mo-Fr 06:30-20:00; Sa-Su 08:00-18:00"}},{"id":"fuel_732717285","lat":51.60917,"lon":10.43056,"name":"Georg Piening Mineralölhandel","city":"Bad Lauterberg im Harz","category":"other","tags":[],"operator":"Georg Piening","gplace_id":"ChIJq_5pRg4fpUcRJabJtHkec3k","hours":{"type":"unknown"}},{"id":"fuel_732717514","lat":51.7918287,"lon":10.9745481,"name":"Baberski GmbH","city":"Blankenburg (Harz)","category":"other","tags":[],"opening_hours":"Mo-Fr 06:00-18:00; Sa 09:00-13:00","hours":{"type":"weekly","weekly":{"0":{"isOpen":false,"periods":[]},"1":{"isOpen":true,"periods":[{"open":360,"close":1080}]},"2":{"isOpen":true,"periods":[{"open":360,"close":1080}]},"3":{"isOpen":true,"periods":[{"open":360,"close":1080}]},"4":{"isOpen":true,"periods":[{"open":360,"close":1080}]},"5":{"isOpen":true,"periods":[{"open":360,"close":1080}]},"6":{"isOpen":true,"periods":[{"open":540,"close":780}]}},"original":"Mo-Fr 06:00-18:00; Sa 09:00-13:00"}},{"id":"fuel_732717682","lat":51.6127261,"lon":10.3225778,"name":"LEO Station Falke","city":"Herzberg am Harz","category":"other","tags":[],"opening_hours":"Mo-Fr 05:30-19:00; Sa 06:00-19:00; Su 07:00-19:00","operator":"Ute Falke","hours":{"type":"weekly","weekly":{"0":{"isOpen":true,"periods":[{"open":420,"close":1140}]},"1":{"isOpen":true,"periods":[{"open":330,"close":1140}]},"2":{"isOpen":true,"periods":[{"open":330,"close":1140}]},"3":{"isOpen":true,"periods":[{"open":330,"close":1140}]},"4":{"isOpen":true,"periods":[{"open":330,"close":1140}]},"5":{"isOpen":true,"periods":[{"open":330,"close":1140}]},"6":{"isOpen":true,"periods":[{"open":360,"close":1140}]}},"original":"Mo-Fr 05:30-19:00; Sa 06:00-19:00; Su 07:00-19:00"}},{"id":"fuel_826430062","lat":51.5882402,"lon":10.6163888,"name":"HEM","city":"Walkenried","category":"other","tags":[],"operator":"HEM","opening_hours":"Su 07:00-21:00; Mo 06:00-21:00; Tu 06:00-21:00; We 06:00-21:00; Th 06:00-21:00; Fr 06:00-21:00; Sa 07:00-21:00","gplace_id":"ChIJnZ_5eysDpUcR73WbqXHHcHM","hours":{"type":"weekly","weekly":{"0":{"isOpen":true,"periods":[{"open":420,"close":1260}]},"1":{"isOpen":true,"periods":[{"open":360,"close":1260}]},"2":{"isOpen":true,"periods":[{"open":360,"close":1260}]},"3":{"isOpen":true,"periods":[{"open":360,"close":1260}]},"4":{"isOpen":true,"periods":[{"open":360,"close":1260}]},"5":{"isOpen":true,"periods":[{"open":360,"close":1260}]},"6":{"isOpen":true,"periods":[{"open":420,"close":1260}]}},"original":"Su 07:00-21:00; Mo 06:00-21:00; Tu 06:00-21:00; We 06:00-21:00; Th 06:00-21:00; Fr 06:00-21:00; Sa 07:00-21:00"}},{"id":"fuel_911173649","lat":51.8985954,"lon":10.0359666,"name":"Raiffeisen","city":"","category":"other","tags":[],"opening_hours":"Mo 07:30-16:30; Tu 07:30-16:30; We 07:30-16:30; Th 07:30-16:30; Fr 07:30-16:30","gplace_id":"ChIJ5e19RtLKukcR6Ea_S6DOzQo","hours":{"type":"weekly","weekly":{"0":{"isOpen":false,"periods":[]},"1":{"isOpen":true,"periods":[{"open":450,"close":990}]},"2":{"isOpen":true,"periods":[{"open":450,"close":990}]},"3":{"isOpen":true,"periods":[{"open":450,"close":990}]},"4":{"isOpen":true,"periods":[{"open":450,"close":990}]},"5":{"isOpen":true,"periods":[{"open":450,"close":990}]},"6":{"isOpen":false,"periods":[]}},"original":"Mo 07:30-16:30; Tu 07:30-16:30; We 07:30-16:30; Th 07:30-16:30; Fr 07:30-16:30"}},{"id":"fuel_1175006969","lat":51.0901984,"lon":10.735373,"name":"Independent","city":"","category":"other","tags":[],"operator":"A.Fricke","opening_hours":"Su 05:00-22:00; Mo 05:00-22:00; Tu 05:00-22:00; We 05:00-22:00; Th 05:00-22:00; Fr 05:00-22:00; Sa 05:00-22:00","gplace_id":"ChIJL1HP8OljpEcRQUHAEZILnnE","hours":{"type":"weekly","weekly":{"0":{"isOpen":true,"periods":[{"open":300,"close":1320}]},"1":{"isOpen":true,"periods":[{"open":300,"close":1320}]},"2":{"isOpen":true,"periods":[{"open":300,"close":1320}]},"3":{"isOpen":true,"periods":[{"open":300,"close":1320}]},"4":{"isOpen":true,"periods":[{"open":300,"close":1320}]},"5":{"isOpen":true,"periods":[{"open":300,"close":1320}]},"6":{"isOpen":true,"periods":[{"open":300,"close":1320}]}},"original":"Su 05:00-22:00; Mo 05:00-22:00; Tu 05:00-22:00; We 05:00-22:00; Th 05:00-22:00; Fr 05:00-22:00; Sa 05:00-22:00"}},{"id":"fuel_1341017009","lat":51.9553249,"lon":10.0082307,"name":"Esso","city":"","category":"other","tags":[],"operator":"Esso","opening_hours":"Su 09:00-17:00; Mo 06:30-19:00; Tu 06:30-19:00; We 06:30-19:00; Th 06:30-19:00; Fr 06:30-19:00; Sa 07:00-18:00","gplace_id":"ChIJNYfS43S1ukcRtFinAErD1kk","hours":{"type":"weekly","weekly":{"0":{"isOpen":true,"periods":[{"open":540,"close":1020}]},"1":{"isOpen":true,"periods":[{"open":390,"close":1140}]},"2":{"isOpen":true,"periods":[{"open":390,"close":1140}]},"3":{"isOpen":true,"periods":[{"open":390,"close":1140}]},"4":{"isOpen":true,"periods":[{"open":390,"close":1140}]},"5":{"isOpen":true,"periods":[{"open":390,"close":1140}]},"6":{"isOpen":true,"periods":[{"open":420,"close":1080}]}},"original":"Su 09:00-17:00; Mo 06:30-19:00; Tu 06:30-19:00; We 06:30-19:00; Th 06:30-19:00; Fr 06:30-19:00; Sa 07:00-18:00"}},{"id":"fuel_1369901013","lat":51.5785101,"lon":10.295094,"name":"Tankstelle Domeier","city":"Rhumspringe","category":"other","tags":[],"opening_hours":"Mo-Fr 06:00-20:00; Sa 07:00-20:00; Su 08:00-20:00","operator":"HD","hours":{"type":"weekly","weekly":{"0":{"isOpen":true,"periods":[{"open":480,"close":1200}]},"1":{"isOpen":true,"periods":[{"open":360,"close":1200}]},"2":{"isOpen":true,"periods":[{"open":360,"close":1200}]},"3":{"isOpen":true,"periods":[{"open":360,"close":1200}]},"4":{"isOpen":true,"periods":[{"open":360,"close":1200}]},"5":{"isOpen":true,"periods":[{"open":360,"close":1200}]},"6":{"isOpen":true,"periods":[{"open":420,"close":1200}]}},"original":"Mo-Fr 06:00-20:00; Sa 07:00-20:00; Su 08:00-20:00"}},{"id":"fuel_1482501584","lat":51.2247648,"lon":10.4542794,"name":"Raiffeisen SB Tankstelle","city":"Mühlhausen","category":"other","tags":[],"opening_hours":"24/7","operator":"Raiffeisen Waren GmbH","hours":{"type":"24_7"}},{"id":"fuel_1484541422","lat":51.4869397,"lon":10.7846003,"name":"Star","city":"Nordhausen","category":"other","tags":[],"operator":"star","opening_hours":"Su 08:00-20:00; Mo 05:00-21:00; Tu 05:00-21:00; We 05:00-21:00; Th 05:00-21:00; Fr 05:00-21:00; Sa 07:00-20:00","gplace_id":"ChIJ-w4AZ9z_pEcR1Qb7fwOeGPA","hours":{"type":"weekly","weekly":{"0":{"isOpen":true,"periods":[{"open":480,"close":1200}]},"1":{"isOpen":true,"periods":[{"open":300,"close":1260}]},"2":{"isOpen":true,"periods":[{"open":300,"close":1260}]},"3":{"isOpen":true,"periods":[{"open":300,"close":1260}]},"4":{"isOpen":true,"periods":[{"open":300,"close":1260}]},"5":{"isOpen":true,"periods":[{"open":300,"close":1260}]},"6":{"isOpen":true,"periods":[{"open":420,"close":1200}]}},"original":"Su 08:00-20:00; Mo 05:00-21:00; Tu 05:00-21:00; We 05:00-21:00; Th 05:00-21:00; Fr 05:00-21:00; Sa 07:00-20:00"}},{"id":"fuel_1606528786","lat":51.0479985,"lon":10.9421828,"name":"Total","city":"Elxleben","category":"other","tags":[],"opening_hours":"Mo-Fr 06:00-21:00; Sa-Su 08:00-21:00","operator":"TotalEnergies","hours":{"type":"weekly","weekly":{"0":{"isOpen":true,"periods":[{"open":480,"close":1260}]},"1":{"isOpen":true,"periods":[{"open":360,"close":1260}]},"2":{"isOpen":true,"periods":[{"open":360,"close":1260}]},"3":{"isOpen":true,"periods":[{"open":360,"close":1260}]},"4":{"isOpen":true,"periods":[{"open":360,"close":1260}]},"5":{"isOpen":true,"periods":[{"open":360,"close":1260}]},"6":{"isOpen":true,"periods":[{"open":480,"close":1260}]}},"original":"Mo-Fr 06:00-21:00; Sa-Su 08:00-21:00"}},{"id":"fuel_1732922374","lat":51.6336251,"lon":10.0966565,"name":"Raiffeisen","city":"","category":"other","tags":[],"gplace_id":"ChIJxSBGMQkppUcRWHrcoim72Q0","hours":{"type":"unknown"}},{"id":"fuel_1767282425","lat":51.0161367,"lon":10.1193468,"name":"Avia","city":"","category":"other","tags":[],"opening_hours":"Mo-Fr 08:00-19:00; Sa 08:00-15:00; Su 09:00-13:00","operator":"Bernhard Nölker","hours":{"type":"weekly","weekly":{"0":{"isOpen":true,"periods":[{"open":540,"close":780}]},"1":{"isOpen":true,"periods":[{"open":480,"close":1140}]},"2":{"isOpen":true,"periods":[{"open":480,"close":1140}]},"3":{"isOpen":true,"periods":[{"open":480,"close":1140}]},"4":{"isOpen":true,"periods":[{"open":480,"close":1140}]},"5":{"isOpen":true,"periods":[{"open":480,"close":1140}]},"6":{"isOpen":true,"periods":[{"open":480,"close":900}]}},"original":"Mo-Fr 08:00-19:00; Sa 08:00-15:00; Su 09:00-13:00"}},{"id":"fuel_1837169976","lat":51.1875305,"lon":10.1656117,"name":"AVIA Xpress","city":"","category":"other","tags":[],"opening_hours":"24/7","operator":"KNITTEL MobileEnergie","hours":{"type":"24_7"}},{"id":"fuel_1901891332","lat":51.4770324,"lon":10.8082516,"name":"Aral","city":"Nordhausen","category":"other","tags":[],"opening_hours":"24/7","operator":"Uwe Joch","hours":{"type":"24_7"}},{"id":"fuel_1934619075","lat":51.725901,"lon":10.2611016,"name":"Total","city":"Osterode am Harz","category":"other","tags":[],"operator":"Total","opening_hours":"Su 06:00-22:00; Mo 06:00-22:00; Tu 06:00-22:00; We 06:00-22:00; Th 06:00-22:00; Fr 06:00-22:00; Sa 06:00-22:00","gplace_id":"ChIJWfk72iAlpUcRaHH8EW-BWcM","hours":{"type":"weekly","weekly":{"0":{"isOpen":true,"periods":[{"open":360,"close":1320}]},"1":{"isOpen":true,"periods":[{"open":360,"close":1320}]},"2":{"isOpen":true,"periods":[{"open":360,"close":1320}]},"3":{"isOpen":true,"periods":[{"open":360,"close":1320}]},"4":{"isOpen":true,"periods":[{"open":360,"close":1320}]},"5":{"isOpen":true,"periods":[{"open":360,"close":1320}]},"6":{"isOpen":true,"periods":[{"open":360,"close":1320}]}},"original":"Su 06:00-22:00; Mo 06:00-22:00; Tu 06:00-22:00; We 06:00-22:00; Th 06:00-22:00; Fr 06:00-22:00; Sa 06:00-22:00"}},{"id":"fuel_2006144758","lat":51.1257204,"lon":10.8440517,"name":"BFT Herbsleben","city":"","category":"other","tags":[],"opening_hours":"Su 08:00-12:30; Mo 06:30-18:00; Tu 06:30-18:00; We 06:30-18:00; Th 06:30-18:00; Fr 06:30-18:00; Sa 08:00-16:00","gplace_id":"ChIJMT6H9VpmpEcRrZiXUstoOYU","hours":{"type":"weekly","weekly":{"0":{"isOpen":true,"periods":[{"open":480,"close":750}]},"1":{"isOpen":true,"periods":[{"open":390,"close":1080}]},"2":{"isOpen":true,"periods":[{"open":390,"close":1080}]},"3":{"isOpen":true,"periods":[{"open":390,"close":1080}]},"4":{"isOpen":true,"periods":[{"open":390,"close":1080}]},"5":{"isOpen":true,"periods":[{"open":390,"close":1080}]},"6":{"isOpen":true,"periods":[{"open":480,"close":960}]}},"original":"Su 08:00-12:30; Mo 06:30-18:00; Tu 06:30-18:00; We 06:30-18:00; Th 06:30-18:00; Fr 06:30-18:00; Sa 08:00-16:00"}},{"id":"fuel_2038004204","lat":51.1247646,"lon":10.5817643,"name":"Total","city":"Unstrut-Hainich","category":"other","tags":[],"opening_hours":"Mo-Fr 05:00-22:00; Sa,Su,PH 07:00-21:00","operator":"Total","hours":{"type":"weekly","weekly":{"0":{"isOpen":true,"periods":[{"open":420,"close":1260}]},"1":{"isOpen":true,"periods":[{"open":300,"close":1320}]},"2":{"isOpen":true,"periods":[{"open":300,"close":1320}]},"3":{"isOpen":true,"periods":[{"open":300,"close":1320}]},"4":{"isOpen":true,"periods":[{"open":300,"close":1320}]},"5":{"isOpen":true,"periods":[{"open":300,"close":1320}]},"6":{"isOpen":true,"periods":[{"open":420,"close":1260}]}},"original":"Mo-Fr 05:00-22:00; Sa,Su,PH 07:00-21:00"}},{"id":"fuel_2038248868","lat":51.9722035,"lon":10.8457252,"name":"HEM","city":"Osterwieck","category":"other","tags":[],"opening_hours":"24/7","operator":"HEM","hours":{"type":"24_7"}},{"id":"fuel_2092256937","lat":51.8414119,"lon":10.7810479,"name":"Erdgastankstelle","city":"Wernigerode","category":"other","tags":[],"operator":"Stadtwerke Wernigerode","gplace_id":"not_found","hours":{"type":"unknown"}},{"id":"fuel_2169153490","lat":51.4944484,"lon":10.8146488,"name":"Total","city":"Nordhausen","category":"other","tags":[],"opening_hours":"24/7","operator":"Total","hours":{"type":"24_7"}},{"id":"fuel_2357956517","lat":51.4859729,"lon":10.7993804,"name":"Tankstelle","city":"","category":"other","tags":[],"operator":"Stadtwerke Nordhausen GmbH","gplace_id":"not_found","hours":{"type":"unknown"}},{"id":"fuel_2414711935","lat":51.1349732,"lon":10.2342273,"name":"KFZ Werkstatt Bockel","city":"","category":"other","tags":[],"operator":"KFZ Werkstatt Bockel","opening_hours":"Su 00:00+","gplace_id":"ChIJtXkHUHGXpEcRUnJsvJF617I","hours":{"type":"unknown","original":"Su 00:00+"}},{"id":"fuel_2582143023","lat":51.9255372,"lon":10.1429814,"name":"Aral","city":"Seesen","category":"other","tags":[],"opening_hours":"24/7","operator":"BAT Harz Ost Areas Autobahn West GmbH","hours":{"type":"24_7"}},{"id":"fuel_2643757983","lat":51.447363,"lon":10.5840701,"name":"Total","city":"Bleicherode","category":"other","tags":[],"opening_hours":"24/7","operator":"TotalEnergies Deutschland GmbH","hours":{"type":"24_7"}},{"id":"fuel_3049276740","lat":51.8110388,"lon":10.3398169,"name":"Gastankstelle","city":"","category":"other","tags":[],"opening_hours":"Mo-Th 07:00-16:00; Fr 07:00-12:30","operator":"Stadtwerke Clausthal-Zellerfeld GmbH","hours":{"type":"weekly","weekly":{"0":{"isOpen":false,"periods":[]},"1":{"isOpen":true,"periods":[{"open":420,"close":960}]},"2":{"isOpen":true,"periods":[{"open":420,"close":960}]},"3":{"isOpen":true,"periods":[{"open":420,"close":960}]},"4":{"isOpen":true,"periods":[{"open":420,"close":960}]},"5":{"isOpen":true,"periods":[{"open":420,"close":750}]},"6":{"isOpen":false,"periods":[]}},"original":"Mo-Th 07:00-16:00; Fr 07:00-12:30"}},{"id":"fuel_3569138493","lat":51.0061869,"lon":10.9952543,"name":"Star","city":"Erfurt","category":"other","tags":[],"opening_hours":"24/7","operator":"Star","hours":{"type":"24_7"}},{"id":"fuel_3622169312","lat":51.9473495,"lon":10.1395839,"name":"Esso","city":"Seesen","category":"other","tags":[],"operator":"Esso","opening_hours":"Su 00:00+","gplace_id":"ChIJz6V-lkFKpUcR_OTLwg349eE","hours":{"type":"unknown","original":"Su 00:00+"}},{"id":"fuel_3691422146","lat":51.239076,"lon":10.456252,"name":"Avex Tankstelle","city":"Unstruttal","category":"other","tags":[],"opening_hours":"Mo-Fr 05:00-22:00; Sa,Su 06:00-22:00","operator":"Avex","hours":{"type":"weekly","weekly":{"0":{"isOpen":true,"periods":[{"open":360,"close":1320}]},"1":{"isOpen":true,"periods":[{"open":300,"close":1320}]},"2":{"isOpen":true,"periods":[{"open":300,"close":1320}]},"3":{"isOpen":true,"periods":[{"open":300,"close":1320}]},"4":{"isOpen":true,"periods":[{"open":300,"close":1320}]},"5":{"isOpen":true,"periods":[{"open":300,"close":1320}]},"6":{"isOpen":true,"periods":[{"open":360,"close":1320}]}},"original":"Mo-Fr 05:00-22:00; Sa,Su 06:00-22:00"}},{"id":"fuel_3691986790","lat":51.1976355,"lon":10.0175634,"name":"Jet Tankstelle Eschwege","city":"","category":"other","tags":[],"operator":"Jet","opening_hours":"Su 07:00-23:00; Mo 05:00-23:00; Tu 05:00-23:00; We 05:00-23:00; Th 05:00-23:00; Fr 05:00-23:00; Sa 06:00-23:00","gplace_id":"ChIJWePaItm5pEcRQHWaTMQa1rI","hours":{"type":"weekly","weekly":{"0":{"isOpen":true,"periods":[{"open":420,"close":1380}]},"1":{"isOpen":true,"periods":[{"open":300,"close":1380}]},"2":{"isOpen":true,"periods":[{"open":300,"close":1380}]},"3":{"isOpen":true,"periods":[{"open":300,"close":1380}]},"4":{"isOpen":true,"periods":[{"open":300,"close":1380}]},"5":{"isOpen":true,"periods":[{"open":300,"close":1380}]},"6":{"isOpen":true,"periods":[{"open":360,"close":1380}]}},"original":"Su 07:00-23:00; Mo 05:00-23:00; Tu 05:00-23:00; We 05:00-23:00; Th 05:00-23:00; Fr 05:00-23:00; Sa 06:00-23:00"}},{"id":"fuel_3994268271","lat":51.1993923,"lon":10.0221643,"name":"Hoyer Automatenstation","city":"","category":"other","tags":[],"operator":"Hoyer","opening_hours":"Su 00:00+","gplace_id":"ChIJW8q_GNq5pEcRkHH5OOJBh5s","hours":{"type":"unknown","original":"Su 00:00+"}},{"id":"fuel_4210959848","lat":51.3871785,"lon":10.3342911,"name":"Tankstelle","city":"","category":"other","tags":[],"operator":"Deutsche Bahn","gplace_id":"not_found","hours":{"type":"unknown"}},{"id":"fuel_4385216496","lat":51.2544255,"lon":10.362124,"name":"Tankstelle","city":"","category":"other","tags":[],"gplace_id":"not_found","hours":{"type":"unknown"}},{"id":"fuel_4411245852","lat":51.1023301,"lon":10.6734063,"name":"tankpool24","city":"","category":"other","tags":[],"opening_hours":"24/7","hours":{"type":"24_7"}},{"id":"fuel_5003631198","lat":51.8521605,"lon":10.8098614,"name":"M1 Wernigerode","city":"Wernigerode","category":"other","tags":[],"opening_hours":"Su 00:00+","gplace_id":"ChIJf8xi9bkMpUcR1EDso75plOA","hours":{"type":"unknown","original":"Su 00:00+"}},{"id":"fuel_5547466520","lat":51.45258,"lon":10.6052217,"name":"Raiffeisen - SB Dieseltankstelle","city":"Bleicherode","category":"other","tags":[],"opening_hours":"24/7","operator":"Raiffeisen","hours":{"type":"24_7"}},{"id":"fuel_5693023521","lat":51.8558382,"lon":10.0249923,"name":"Tankstelle","city":"","category":"other","tags":[],"gplace_id":"ChIJ467UJFPLukcRm1UQnoUyDwk","hours":{"type":"unknown"}},{"id":"fuel_6235632677","lat":51.2148376,"lon":10.4915917,"name":"Tankstelle","city":"","category":"other","tags":[],"gplace_id":"not_found","hours":{"type":"unknown"}},{"id":"fuel_6787702584","lat":51.0437393,"lon":10.8250941,"name":"Fahner Obst e.G.","city":"","category":"other","tags":[],"opening_hours":"24/7","hours":{"type":"24_7"}},{"id":"fuel_6866243217","lat":51.0011195,"lon":10.687242,"name":"Gulf","city":"Nessetal","category":"other","tags":[],"opening_hours":"Mo-Fr 05:00-21:00; Sa 07:00-19:00; Su 08:00-19:00","operator":"Gulf","hours":{"type":"weekly","weekly":{"0":{"isOpen":true,"periods":[{"open":480,"close":1140}]},"1":{"isOpen":true,"periods":[{"open":300,"close":1260}]},"2":{"isOpen":true,"periods":[{"open":300,"close":1260}]},"3":{"isOpen":true,"periods":[{"open":300,"close":1260}]},"4":{"isOpen":true,"periods":[{"open":300,"close":1260}]},"5":{"isOpen":true,"periods":[{"open":300,"close":1260}]},"6":{"isOpen":true,"periods":[{"open":420,"close":1140}]}},"original":"Mo-Fr 05:00-21:00; Sa 07:00-19:00; Su 08:00-19:00"}},{"id":"fuel_7063027045","lat":51.3765086,"lon":10.3300649,"name":"Q1 Tankstelle","city":"Leinefelde-Worbis","category":"other","tags":[],"opening_hours":"Mo-Fr 06:00-22:00; Sa,Su 07:00-22:00","operator":"bft","hours":{"type":"weekly","weekly":{"0":{"isOpen":true,"periods":[{"open":420,"close":1320}]},"1":{"isOpen":true,"periods":[{"open":360,"close":1320}]},"2":{"isOpen":true,"periods":[{"open":360,"close":1320}]},"3":{"isOpen":true,"periods":[{"open":360,"close":1320}]},"4":{"isOpen":true,"periods":[{"open":360,"close":1320}]},"5":{"isOpen":true,"periods":[{"open":360,"close":1320}]},"6":{"isOpen":true,"periods":[{"open":420,"close":1320}]}},"original":"Mo-Fr 06:00-22:00; Sa,Su 07:00-22:00"}},{"id":"fuel_7201168745","lat":51.7881963,"lon":10.0633197,"name":"Tankstelle","city":"","category":"other","tags":[],"opening_hours":"24/7","operator":"Raiffeisen","hours":{"type":"24_7"}},{"id":"fuel_7373015674","lat":51.8689283,"lon":10.5592657,"name":"Q1","city":"Bad Harzburg","category":"other","tags":[],"opening_hours":"Mo-Fr 05:00-19:00; Sa,Su,PH 07:00-19:00","operator":"Q1","hours":{"type":"weekly","weekly":{"0":{"isOpen":true,"periods":[{"open":420,"close":1140}]},"1":{"isOpen":true,"periods":[{"open":300,"close":1140}]},"2":{"isOpen":true,"periods":[{"open":300,"close":1140}]},"3":{"isOpen":true,"periods":[{"open":300,"close":1140}]},"4":{"isOpen":true,"periods":[{"open":300,"close":1140}]},"5":{"isOpen":true,"periods":[{"open":300,"close":1140}]},"6":{"isOpen":true,"periods":[{"open":420,"close":1140}]}},"original":"Mo-Fr 05:00-19:00; Sa,Su,PH 07:00-19:00"}},{"id":"fuel_7725506038","lat":51.4866297,"lon":10.8061728,"name":"Greenline","city":"Nordhausen","category":"other","tags":[],"operator":"Hassepass und Flagmeyer","opening_hours":"Su 00:00+","gplace_id":"ChIJ_1vzom9VpEcRhZkOsT1rF30","hours":{"type":"unknown","original":"Su 00:00+"}},{"id":"fuel_7978970469","lat":51.8864922,"lon":10.5575061,"name":"CLASSIC","city":"Bad Harzburg","category":"other","tags":[],"opening_hours":"Mo-Fr 06:00-22:00; Sa 07:00-22:00; Su 08:00-22:00","operator":"Lühmann Tankstellen Betriebs GmbH & Co.KG","hours":{"type":"weekly","weekly":{"0":{"isOpen":true,"periods":[{"open":480,"close":1320}]},"1":{"isOpen":true,"periods":[{"open":360,"close":1320}]},"2":{"isOpen":true,"periods":[{"open":360,"close":1320}]},"3":{"isOpen":true,"periods":[{"open":360,"close":1320}]},"4":{"isOpen":true,"periods":[{"open":360,"close":1320}]},"5":{"isOpen":true,"periods":[{"open":360,"close":1320}]},"6":{"isOpen":true,"periods":[{"open":420,"close":1320}]}},"original":"Mo-Fr 06:00-22:00; Sa 07:00-22:00; Su 08:00-22:00"}},{"id":"fuel_8381067842","lat":51.6900954,"lon":10.8440089,"name":"Tankstelle","city":"","category":"other","tags":[],"gplace_id":"not_found","hours":{"type":"unknown"}},{"id":"fuel_8402241219","lat":51.0067901,"lon":10.1807295,"name":"Esso","city":"","category":"other","tags":[],"opening_hours":"24/7","operator":"Esso","hours":{"type":"24_7"}},{"id":"fuel_8452917875","lat":51.6017936,"lon":10.204874,"name":"Gastankstelle","city":"Gieboldehausen","category":"other","tags":[],"opening_hours":"Su 00:00+","gplace_id":"ChIJSV5VKKMnpUcRe6O3gmmxryM","hours":{"type":"unknown","original":"Su 00:00+"}},{"id":"fuel_9693263633","lat":51.508471,"lon":10.2602584,"name":"Star","city":"Duderstadt","category":"other","tags":[],"opening_hours":"Mo-Su,PH 05:30-23:00","operator":"star","hours":{"type":"weekly","weekly":{"0":{"isOpen":true,"periods":[{"open":330,"close":1380}]},"1":{"isOpen":true,"periods":[{"open":330,"close":1380}]},"2":{"isOpen":true,"periods":[{"open":330,"close":1380}]},"3":{"isOpen":true,"periods":[{"open":330,"close":1380}]},"4":{"isOpen":true,"periods":[{"open":330,"close":1380}]},"5":{"isOpen":true,"periods":[{"open":330,"close":1380}]},"6":{"isOpen":true,"periods":[{"open":330,"close":1380}]}},"original":"Mo-Su,PH 05:30-23:00"}},{"id":"fuel_10135208571","lat":51.479289,"lon":10.4906558,"name":"Esso","city":"Am Ohmberg","category":"other","tags":[],"opening_hours":"Mo-Fr 06:00-20:00; Sa 07:00-20:00; Su 08:00-20:00","operator":"Kfz Meisterbetrieb Finck","hours":{"type":"weekly","weekly":{"0":{"isOpen":true,"periods":[{"open":480,"close":1200}]},"1":{"isOpen":true,"periods":[{"open":360,"close":1200}]},"2":{"isOpen":true,"periods":[{"open":360,"close":1200}]},"3":{"isOpen":true,"periods":[{"open":360,"close":1200}]},"4":{"isOpen":true,"periods":[{"open":360,"close":1200}]},"5":{"isOpen":true,"periods":[{"open":360,"close":1200}]},"6":{"isOpen":true,"periods":[{"open":420,"close":1200}]}},"original":"Mo-Fr 06:00-20:00; Sa 07:00-20:00; Su 08:00-20:00"}},{"id":"fuel_10171596904","lat":51.3134756,"lon":10.569852,"name":"AVEX-Tankstelle","city":"Unstruttal","category":"other","tags":[],"opening_hours":"24/7","operator":"AVEX","hours":{"type":"24_7"}},{"id":"fuel_10601617563","lat":51.1630798,"lon":10.4359568,"name":"STO Tankstelle Oberdorla","city":"Vogtei","category":"other","tags":[],"opening_hours":"Mo-Fr 06:00-21:00; Sa 07:00-21:00; Su 08:00-20:00","operator":"Dirk Trescher","hours":{"type":"weekly","weekly":{"0":{"isOpen":true,"periods":[{"open":480,"close":1200}]},"1":{"isOpen":true,"periods":[{"open":360,"close":1260}]},"2":{"isOpen":true,"periods":[{"open":360,"close":1260}]},"3":{"isOpen":true,"periods":[{"open":360,"close":1260}]},"4":{"isOpen":true,"periods":[{"open":360,"close":1260}]},"5":{"isOpen":true,"periods":[{"open":360,"close":1260}]},"6":{"isOpen":true,"periods":[{"open":420,"close":1260}]}},"original":"Mo-Fr 06:00-21:00; Sa 07:00-21:00; Su 08:00-20:00"}},{"id":"fuel_10771902679","lat":51.6294642,"lon":10.4683533,"name":"HEM","city":"","category":"other","tags":[],"opening_hours":"Mo-Sa 06:00-22:00; Su 07:00-22:00","operator":"TAMOIL","hours":{"type":"weekly","weekly":{"0":{"isOpen":true,"periods":[{"open":420,"close":1320}]},"1":{"isOpen":true,"periods":[{"open":360,"close":1320}]},"2":{"isOpen":true,"periods":[{"open":360,"close":1320}]},"3":{"isOpen":true,"periods":[{"open":360,"close":1320}]},"4":{"isOpen":true,"periods":[{"open":360,"close":1320}]},"5":{"isOpen":true,"periods":[{"open":360,"close":1320}]},"6":{"isOpen":true,"periods":[{"open":360,"close":1320}]}},"original":"Mo-Sa 06:00-22:00; Su 07:00-22:00"}},{"id":"fuel_10771991743","lat":51.6496071,"lon":10.3467138,"name":"Aral","city":"","category":"other","tags":[],"operator":"Aral","opening_hours":"Su 00:00+","gplace_id":"ChIJNfA9EhIkpUcRQOAyRcIPTjY","hours":{"type":"unknown","original":"Su 00:00+"}},{"id":"fuel_11041568642","lat":51.8379545,"lon":10.769215,"name":"Shell","city":"Wernigerode","category":"other","tags":[],"operator":"Ahlsleben Tankstellen GmbH","opening_hours":"Su 08:00-22:00; Mo 06:00-22:00; Tu 06:00-22:00; We 06:00-22:00; Th 06:00-22:00; Fr 06:00-22:00; Sa 07:00-22:00","gplace_id":"ChIJmXo3geIMpUcRrYoHCn04uSY","hours":{"type":"weekly","weekly":{"0":{"isOpen":true,"periods":[{"open":480,"close":1320}]},"1":{"isOpen":true,"periods":[{"open":360,"close":1320}]},"2":{"isOpen":true,"periods":[{"open":360,"close":1320}]},"3":{"isOpen":true,"periods":[{"open":360,"close":1320}]},"4":{"isOpen":true,"periods":[{"open":360,"close":1320}]},"5":{"isOpen":true,"periods":[{"open":360,"close":1320}]},"6":{"isOpen":true,"periods":[{"open":420,"close":1320}]}},"original":"Su 08:00-22:00; Mo 06:00-22:00; Tu 06:00-22:00; We 06:00-22:00; Th 06:00-22:00; Fr 06:00-22:00; Sa 07:00-22:00"}},{"id":"fuel_11382617997","lat":51.5786844,"lon":10.6687184,"name":"Tankstelle","city":"","category":"other","tags":[],"operator":"CASEA GmbH","gplace_id":"not_found","hours":{"type":"unknown"}},{"id":"fuel_12584554172","lat":51.8450635,"lon":10.8089899,"name":"Jet","city":"","category":"other","tags":[],"opening_hours":"Mo-Sa 08:30-20:00","operator":"Edeka","hours":{"type":"weekly","weekly":{"0":{"isOpen":false,"periods":[]},"1":{"isOpen":true,"periods":[{"open":510,"close":1200}]},"2":{"isOpen":true,"periods":[{"open":510,"close":1200}]},"3":{"isOpen":true,"periods":[{"open":510,"close":1200}]},"4":{"isOpen":true,"periods":[{"open":510,"close":1200}]},"5":{"isOpen":true,"periods":[{"open":510,"close":1200}]},"6":{"isOpen":true,"periods":[{"open":510,"close":1200}]}},"original":"Mo-Sa 08:30-20:00"}},{"id":"fuel_12787862063","lat":51.6210282,"lon":10.4141592,"name":"star","city":"","category":"other","tags":[],"operator":"star","opening_hours":"Su 07:30-21:00; Mo 06:00-21:00; Tu 06:00-21:00; We 06:00-21:00; Th 06:00-21:00; Fr 06:00-21:00; Sa 06:00-21:00","gplace_id":"ChIJ9ZLRvUgfpUcR00TpxhHRD_8","hours":{"type":"weekly","weekly":{"0":{"isOpen":true,"periods":[{"open":450,"close":1260}]},"1":{"isOpen":true,"periods":[{"open":360,"close":1260}]},"2":{"isOpen":true,"periods":[{"open":360,"close":1260}]},"3":{"isOpen":true,"periods":[{"open":360,"close":1260}]},"4":{"isOpen":true,"periods":[{"open":360,"close":1260}]},"5":{"isOpen":true,"periods":[{"open":360,"close":1260}]},"6":{"isOpen":true,"periods":[{"open":360,"close":1260}]}},"original":"Su 07:30-21:00; Mo 06:00-21:00; Tu 06:00-21:00; We 06:00-21:00; Th 06:00-21:00; Fr 06:00-21:00; Sa 06:00-21:00"}},{"id":"fuel_12973470933","lat":51.3804921,"lon":10.4235002,"name":"Hoyer","city":"Niederorschel","category":"other","tags":[],"opening_hours":"24/7","operator":"Hoyer","hours":{"type":"24_7"}},{"id":"fuel_12982489153","lat":51.5226804,"lon":10.2229101,"name":"Hoyer Energieservice","city":"","category":"other","tags":[],"operator":"Hoyer Energieservice","opening_hours":"Su 00:00+","gplace_id":"ChIJFZVTMyrZpEcRQCBX3OnxXxY","hours":{"type":"unknown","original":"Su 00:00+"}},{"id":"fuel_13114288604","lat":51.5405079,"lon":10.1626311,"name":"Raiffeisen","city":"","category":"other","tags":[],"operator":"Raiffeisen","opening_hours":"Su 00:00+","gplace_id":"ChIJjRdJ4DTYpEcRSD_0P8speMY","hours":{"type":"unknown","original":"Su 00:00+"}},{"id":"fuel_13271230062","lat":51.4130543,"lon":10.358505,"name":"Aral","city":"Leinefelde-Worbis","category":"other","tags":[],"opening_hours":"24/7","operator":"Katrin Albertsmeyer","hours":{"type":"24_7"}},{"id":"fuel_13639249738","lat":51.0071822,"lon":10.1751786,"name":"GAVEG Blaue Tanke","city":"Herleshausen","category":"other","tags":[],"opening_hours":"Su 00:00+","gplace_id":"ChIJ-w4UPACZpEcRQO1hha41Lac","hours":{"type":"unknown","original":"Su 00:00+"}},{"id":"fuel_13705051845","lat":51.0271977,"lon":10.1108878,"name":"Freie Tankstelle Weber","city":"","category":"other","tags":[],"opening_hours":"Mo 08:00-17:00; Tu 08:00-17:00; We 08:00-17:00; Th 08:00-17:00; Fr 08:00-17:00","gplace_id":"ChIJ5yUhYK6jpEcRaix3p4nYn5o","hours":{"type":"weekly","weekly":{"0":{"isOpen":false,"periods":[]},"1":{"isOpen":true,"periods":[{"open":480,"close":1020}]},"2":{"isOpen":true,"periods":[{"open":480,"close":1020}]},"3":{"isOpen":true,"periods":[{"open":480,"close":1020}]},"4":{"isOpen":true,"periods":[{"open":480,"close":1020}]},"5":{"isOpen":true,"periods":[{"open":480,"close":1020}]},"6":{"isOpen":false,"periods":[]}},"original":"Mo 08:00-17:00; Tu 08:00-17:00; We 08:00-17:00; Th 08:00-17:00; Fr 08:00-17:00"}},{"id":"fuel_13708931211","lat":51.6984911,"lon":10.0523032,"name":"Calpam Express","city":"Northeim","category":"other","tags":[],"opening_hours":"24/7","operator":"Calpam","hours":{"type":"24_7"}}]