[{"id":"station_node_1800313662","lat":46.5170017,"lon":6.6291687,"name":"Lausanne","city":"","category":"station","tags":["bahnhof","barrierefrei"],"operator":"SBB","hours":{"type":"unknown"}},{"id":"station_node_4236961491","lat":46.9008879,"lon":6.35338,"name":"Pontarlier","city":"Pontarlier","category":"station","tags":["bahnhof","barrierefrei"],"opening_hours":"Mo-Fr 04:40-21:30; Sa 06:20-21:30; Su, PH 06:00-21:30","operator":"SNCF Gares & Connexions","hours":{"type":"weekly","weekly":{"0":{"isOpen":true,"periods":[{"open":360,"close":1290}]},"1":{"isOpen":true,"periods":[{"open":280,"close":1290}]},"2":{"isOpen":true,"periods":[{"open":280,"close":1290}]},"3":{"isOpen":true,"periods":[{"open":280,"close":1290}]},"4":{"isOpen":true,"periods":[{"open":280,"close":1290}]},"5":{"isOpen":true,"periods":[{"open":280,"close":1290}]},"6":{"isOpen":true,"periods":[{"open":380,"close":1290}]}},"original":"Mo-Fr 04:40-21:30; Sa 06:20-21:30; Su, PH 06:00-21:30"}},{"id":"station_node_9543468699","lat":46.082478,"lon":6.9761851,"name":"Finhaut","city":"","category":"station","tags":["bahnhof","barrierefrei"],"operator":"ch-direct","hours":{"type":"unknown"}},{"id":"gplace_ChIJI7SBsy17jEcRTx6XoPkUcIs","lat":46.1949505,"lon":6.129792699999999,"name":"ALIGRO Genève","city":"Genf","category":"other","tags":["barrierefrei","google_wc_accessible"],"hours":{"type":"unknown"}},{"id":"gplace_ChIJARjSeiV7jEcR8tydzSBs3no","lat":46.1882346,"lon":6.1285491,"name":"McDonald’s","city":"Genf","category":"gastro","tags":["barrierefrei","google_wc_accessible"],"hours":{"type":"unknown"}},{"id":"gplace_ChIJU4qE9kZ7jEcR6g8WbfN5I5U","lat":46.187186,"lon":6.111250999999999,"name":"Lancy Centre","city":"Genf","category":"other","tags":["barrierefrei","google_wc_accessible"],"hours":{"type":"unknown"}},{"id":"gplace_ChIJPUz1sjB7jEcR7bp48GvybFI","lat":46.1898936,"lon":6.1214086,"name":"La Petite Vendée","city":"Genf","category":"gastro","tags":["barrierefrei","google_wc_accessible"],"hours":{"type":"unknown"}},{"id":"gplace_ChIJ17ID4UV7jEcRf7EZ-MHyTMk","lat":46.1886976,"lon":6.1103363,"name":"Supermarché Migros","city":"Genf","category":"other","tags":["barrierefrei","google_wc_accessible"],"hours":{"type":"unknown"}},{"id":"gplace_ChIJ5Y8n2kR7jEcRirdVg2N_2F0","lat":46.1877104,"lon":6.1046192,"name":"Coop Supermarché","city":"Genf","category":"other","tags":["barrierefrei","google_wc_accessible"],"hours":{"type":"unknown"}},{"id":"gplace_ChIJ47-otvNljEcRdi_dxL4aeEI","lat":46.198627099999996,"lon":6.1256996,"name":"Sadara","city":"Genf","category":"gastro","tags":["barrierefrei","google_wc_accessible"],"hours":{"type":"unknown"}},{"id":"gplace_ChIJ35jV0956jEcR94w_vXWD7V8","lat":46.194731399999995,"lon":6.1273784,"name":"Chez Maman","city":"Genf","category":"gastro","tags":["barrierefrei","google_wc_accessible"],"hours":{"type":"unknown"}},{"id":"gplace_ChIJ6V85AEd7jEcRXfBpeK_aqbw","lat":46.18766300000001,"lon":6.112794,"name":"NonStop Gym Lancy","city":"Genf","category":"other","tags":["barrierefrei","google_entrance_accessible"],"hours":{"type":"unknown"}},{"id":"gplace_ChIJJwCdsrZ7jEcR8p_BJoiQL0Q","lat":46.188569,"lon":6.1296555999999995,"name":"Kulture Bar","city":"Genf","category":"gastro","tags":["barrierefrei","google_entrance_accessible"],"hours":{"type":"unknown"}},{"id":"gplace_ChIJyzYMRMtkjEcR5VolSJTY78I","lat":46.1997088,"lon":6.122375099999999,"name":"Café de la Tour","city":"Genf","category":"gastro","tags":["barrierefrei","google_entrance_accessible"],"hours":{"type":"unknown"}},{"id":"gplace_ChIJ-WR2aTx7jEcRKsNJSkhEsCE","lat":46.183367999999994,"lon":6.1216552,"name":"Café Zinette","city":"Genf","category":"gastro","tags":["barrierefrei","google_wc_accessible"],"hours":{"type":"unknown"}},{"id":"gplace_ChIJK5zmRQB7jEcRLCihPxsvoL8","lat":46.196289799999995,"lon":6.1119094,"name":"Crescendo","city":"Genf","category":"gastro","tags":["barrierefrei","google_wc_accessible"],"hours":{"type":"unknown"}},{"id":"gplace_ChIJMcsBSC97jEcR2iUcYmetx9c","lat":46.18966,"lon":6.131856,"name":"Shell","city":"Genf","category":"gastro","tags":["barrierefrei","google_wc_accessible"],"hours":{"type":"unknown"}},{"id":"gplace_ChIJfSvXhqh7jEcRYYcr0xykrxU","lat":46.1867797,"lon":6.1097328,"name":"KFC","city":"Genf","category":"gastro","tags":["barrierefrei","google_wc_accessible"],"hours":{"type":"unknown"}},{"id":"gplace_ChIJdRFop8hkjEcRMWimvw-a6IE","lat":46.207614899999996,"lon":6.1234668999999995,"name":"Centre Commercial Planète Charmilles","city":"Genf","category":"other","tags":["barrierefrei","google_wc_accessible"],"hours":{"type":"unknown"}},{"id":"gplace_ChIJRcCpMgFljEcRMCUxd01QOYk","lat":46.205253000000006,"lon":6.132279800000001,"name":"Utopia coffee (St-Jean)","city":"Genf","category":"gastro","tags":["google_has_restroom"],"hours":{"type":"unknown"}},{"id":"gplace_ChIJrxBivRZljEcRAU8WaJ1cIZE","lat":46.2011943,"lon":6.1314372,"name":"The Barista Lab","city":"Genf","category":"gastro","tags":["barrierefrei","google_entrance_accessible"],"hours":{"type":"unknown"}},{"id":"gplace_ChIJ4YrMTNBkjEcRhu2hiiUnf5s","lat":46.205288599999996,"lon":6.1315523,"name":"Na Village","city":"Genf","category":"gastro","tags":["google_has_restroom"],"hours":{"type":"unknown"}},{"id":"gplace_ChIJlYPyvgBljEcRZ4rv6LJdbOM","lat":46.2054963,"lon":6.127675099999999,"name":"Le Picotin","city":"Genf","category":"gastro","tags":["barrierefrei","google_wc_accessible"],"hours":{"type":"unknown"}},{"id":"gplace_ChIJD0KuNtBkjEcRoTKFmN4Qe5k","lat":46.2058174,"lon":6.1313299,"name":"Les Tilleuls","city":"Genf","category":"gastro","tags":["google_has_restroom"],"hours":{"type":"unknown"}},{"id":"gplace_ChIJS7BgxqxkjEcRJC3mpnES9qE","lat":46.200595,"lon":6.1028459,"name":"Valais-style Tavern","city":"Genf","category":"gastro","tags":["barrierefrei","google_wc_accessible"],"hours":{"type":"unknown"}},{"id":"gplace_ChIJr3y_3s9kjEcRtG_Lva32QiM","lat":46.2065008,"lon":6.1301736,"name":"Café de la Limite","city":"Genf","category":"gastro","tags":["google_has_restroom"],"hours":{"type":"unknown"}},{"id":"gplace_ChIJnVC-ZNJkjEcRtX5PeXDJSl4","lat":46.2016401,"lon":6.1302528,"name":"NonStop Gym Jonction","city":"Genf","category":"other","tags":["google_has_restroom"],"hours":{"type":"unknown"}},{"id":"gplace_ChIJ_8qGQMhkjEcRXkHKQ_Q5Bo0","lat":46.207083399999995,"lon":6.1207657,"name":"Au Furet","city":"Genf","category":"gastro","tags":["barrierefrei","google_wc_accessible"],"hours":{"type":"unknown"}},{"id":"gplace_ChIJ-Zs39HNljEcRuesV2k5wCZo","lat":46.2083029,"lon":6.1262193,"name":"Calia","city":"Genf","category":"gastro","tags":["barrierefrei","google_wc_accessible"],"hours":{"type":"unknown"}},{"id":"gplace_ChIJnarUzZFljEcR_ihT-Eh5NKU","lat":46.2086,"lon":6.1236,"name":"ALDI SUISSE","city":"Genf","category":"other","tags":["barrierefrei","google_wc_accessible"],"hours":{"type":"unknown"}},{"id":"gplace_ChIJJa8rOMFkjEcR1NVq9KbCLTA","lat":46.2136974,"lon":6.1248149,"name":"Restaurant Le Figuier libanais - مطعم التينة جنيف مطعم لبناني شرقي حلال","city":"Genf","category":"gastro","tags":["barrierefrei","google_entrance_accessible"],"hours":{"type":"unknown"}},{"id":"gplace_ChIJ57Ox0ZdkjEcRsCjktGKcv9Y","lat":46.218896,"lon":6.113389,"name":"Balexert","city":"Genf","category":"other","tags":["barrierefrei","google_wc_accessible"],"hours":{"type":"unknown"}},{"id":"gplace_ChIJMwpcEOxkjEcRd_2UofasmUM","lat":46.223233199999996,"lon":6.1276722,"name":"Café du Soleil","city":"Genf","category":"gastro","tags":["barrierefrei","google_wc_accessible"],"hours":{"type":"unknown"}},{"id":"gplace_ChIJTZ3OtcxljEcRJkBhGJJ-794","lat":46.2191112,"lon":6.1020992000000005,"name":"Restaurant Royal Châtelaine-Vernier 皇家","city":"Genf","category":"gastro","tags":["barrierefrei","google_wc_accessible"],"hours":{"type":"unknown"}},{"id":"gplace_ChIJOzC1ZfdljEcRjbulzE9zFTQ","lat":46.2242965,"lon":6.1261572,"name":"Luigia","city":"Genf","category":"gastro","tags":["barrierefrei","google_wc_accessible"],"hours":{"type":"unknown"}},{"id":"gplace_ChIJOS1BjJlkjEcR20p-mA5Hd20","lat":46.2232563,"lon":6.1100705,"name":"Le P'tit Music Hohl","city":"Genf","category":"gastro","tags":["barrierefrei","google_entrance_accessible"],"hours":{"type":"unknown"}},{"id":"gplace_ChIJR1ruzZdkjEcReswSeLb3a18","lat":46.2179926,"lon":6.114938899999999,"name":"McDonald’s","city":"Genf","category":"gastro","tags":["barrierefrei","google_wc_accessible"],"hours":{"type":"unknown"}},{"id":"gplace_ChIJlzZFeQBljEcRWlJa_UevRUs","lat":46.2133933,"lon":6.129671399999999,"name":"McDonald’s","city":"Genf","category":"gastro","tags":["barrierefrei","google_wc_accessible"],"hours":{"type":"unknown"}},{"id":"gplace_ChIJ9XFbAplkjEcR4kxrQsTyOQw","lat":46.2201404,"lon":6.1091731,"name":"ALDI","city":"Genf","category":"other","tags":["barrierefrei","google_wc_accessible"],"hours":{"type":"unknown"}},{"id":"gplace_ChIJCTrhy-5kjEcRZyIEamvKcAQ","lat":46.2225021,"lon":6.130090399999999,"name":"Chez ma cousine Petit-Saconnex","city":"Genf","category":"gastro","tags":["barrierefrei","google_wc_accessible"],"hours":{"type":"unknown"}},{"id":"gplace_ChIJgfjp8o1kjEcRx8vG6cCoWgk","lat":46.2289539,"lon":6.1198115,"name":"MIGROS","city":"Genf","category":"other","tags":["barrierefrei","google_wc_accessible"],"hours":{"type":"unknown"}},{"id":"gplace_ChIJvdTULJpkjEcR6zw2G5T_SIg","lat":46.223923199999994,"lon":6.108973199999999,"name":"Restaurant Royal Oriental","city":"Genf","category":"gastro","tags":["barrierefrei","google_wc_accessible"],"hours":{"type":"unknown"}},{"id":"gplace_ChIJJTII6p1ljEcR-Rbe6bu68xo","lat":46.216798700000005,"lon":6.103970299999999,"name":"NonStop Gym Étang","city":"Genf","category":"other","tags":["barrierefrei","google_wc_accessible"],"hours":{"type":"unknown"}},{"id":"gplace_ChIJq_1y3cJkjEcRf5PevZ3oOjE","lat":46.2155897,"lon":6.131157099999999,"name":"Charly O’Neills Irish Pub & Restaurant","city":"Genf","category":"gastro","tags":["barrierefrei","google_entrance_accessible"],"hours":{"type":"unknown"}},{"id":"gplace_ChIJLTjweZxkjEcRMbjUGqvPp_E","lat":46.225646,"lon":6.105801,"name":"La Gioconda","city":"Genf","category":"gastro","tags":["barrierefrei","google_wc_accessible"],"hours":{"type":"unknown"}},{"id":"gplace_ChIJr0Yon41kjEcRiBMBTakwnj0","lat":46.228719299999995,"lon":6.1208502,"name":"Le Pommier","city":"Genf","category":"gastro","tags":["barrierefrei","google_wc_accessible"],"hours":{"type":"unknown"}},{"id":"gplace_ChIJBxxhkJtkjEcRJ0Wo8mtFK6M","lat":46.2252772,"lon":6.1073011,"name":"Migrol Service","city":"Genf","category":"tankstelle","tags":["barrierefrei","google_wc_accessible"],"hours":{"type":"unknown"}},{"id":"gplace_ChIJBZ1R1CB7jEcRBlgH6B7Oc9Q","lat":46.184799299999995,"lon":6.1339501,"name":"MParc La Praille","city":"Genf","category":"other","tags":["barrierefrei","google_wc_accessible"],"hours":{"type":"unknown"}},{"id":"gplace_ChIJW3ZYkCp7jEcRcbEB9Amhs-0","lat":46.1962489,"lon":6.1385613999999995,"name":"Madame","city":"Genf","category":"gastro","tags":["barrierefrei","google_wc_accessible"],"hours":{"type":"unknown"}},{"id":"gplace_ChIJuxiwIyF7jEcRWAVFZhD7BGs","lat":46.182442300000005,"lon":6.1343879999999995,"name":"Supermarché Migros","city":"Genf","category":"other","tags":["barrierefrei","google_wc_accessible"],"hours":{"type":"unknown"}},{"id":"gplace_ChIJIc8VY9l6jEcRYaZRtpi-tDw","lat":46.184999999999995,"lon":6.1425,"name":"Chat Noir Club","city":"Genf","category":"gastro","tags":["google_has_restroom"],"hours":{"type":"unknown"}},{"id":"gplace_ChIJExNJVndljEcRfVvV32aiRFE","lat":46.200657799999995,"lon":6.1357485,"name":"Yvonne & Nala \"Asian & Bedouin Flavors\"","city":"Genf","category":"gastro","tags":["barrierefrei","google_wc_accessible"],"hours":{"type":"unknown"}},{"id":"gplace_ChIJy9P2iIN7jEcRAgwtHkvPPf0","lat":46.196217999999995,"lon":6.1420756,"name":"PRETTY PATTY - Smash Burger - Plainpalais","city":"Genf","category":"gastro","tags":["barrierefrei","google_wc_accessible"],"hours":{"type":"unknown"}},{"id":"gplace_ChIJbeprz9R6jEcRytlL_p3DwAc","lat":46.1968841,"lon":6.1427974,"name":"Coop City Genève Plainpalais","city":"Genf","category":"other","tags":["barrierefrei","google_wc_accessible"],"hours":{"type":"unknown"}},{"id":"gplace_ChIJU8dq9CN7jEcRgiU0bRji_tk","lat":46.1833979,"lon":6.1296146,"name":"PAV Bar","city":"Genf","category":"gastro","tags":["barrierefrei","google_wc_accessible"],"hours":{"type":"unknown"}},{"id":"gplace_ChIJdxpTHdR6jEcRic21QYx-aXQ","lat":46.1928795,"lon":6.1428031,"name":"Supermarché Migros","city":"Genf","category":"other","tags":["barrierefrei","google_wc_accessible"],"hours":{"type":"unknown"}},{"id":"gplace_ChIJX0o-rCp7jEcRQPSw9kpgx-A","lat":46.197605300000006,"lon":6.1391637999999995,"name":"L’Éléphant dans la Canette","city":"Genf","category":"gastro","tags":["google_has_restroom"],"hours":{"type":"unknown"}},{"id":"gplace_ChIJuyC6-h57jEcR55DzTqePkc4","lat":46.196132399999996,"lon":6.144214,"name":"MAME Plainpalais","city":"Genf","category":"gastro","tags":["barrierefrei","google_entrance_accessible"],"hours":{"type":"unknown"}},{"id":"gplace_ChIJ0fphLSt7jEcRniFISXQ-if0","lat":46.1980208,"lon":6.1361528,"name":"Umamido Plainpalais - Ramen Shop","city":"Genf","category":"gastro","tags":["google_has_restroom"],"hours":{"type":"unknown"}},{"id":"gplace_ChIJtbLrA9VkjEcR6-Tfyl88Ll4","lat":46.1999825,"lon":6.137737899999999,"name":"Birdie Food & Coffee","city":"Genf","category":"gastro","tags":["barrierefrei","google_entrance_accessible"],"hours":{"type":"unknown"}},{"id":"gplace_ChIJf2CC_CdljEcRcvb8eM1qsgY","lat":46.2074048,"lon":6.1424207,"name":"MANOR Genève","city":"Genf","category":"other","tags":["barrierefrei","google_wc_accessible"],"hours":{"type":"unknown"}},{"id":"gplace_ChIJ26xzGClljEcRJCZHsWPAexA","lat":46.2040739,"lon":6.1451774,"name":"Coop City Genève Fusterie","city":"Genf","category":"other","tags":["barrierefrei","google_wc_accessible"],"hours":{"type":"unknown"}},{"id":"gplace_ChIJs0uxLltljEcRnJK_c3ovCPE","lat":46.211176599999995,"lon":6.1420309,"name":"Oh Martine !","city":"Genf","category":"gastro","tags":["google_has_restroom"],"hours":{"type":"unknown"}},{"id":"gplace_ChIJDbzfeitljEcRrg6ATs7itGk","lat":46.200738,"lon":6.1445653,"name":"Kiosque des Bastions","city":"Genf","category":"gastro","tags":["barrierefrei","google_wc_accessible"],"hours":{"type":"unknown"}},{"id":"gplace_ChIJpSAtailljEcRGuoirUiSGGs","lat":46.2034504,"lon":6.1445523,"name":"Confédération Centre","city":"Genf","category":"gastro","tags":["barrierefrei","google_wc_accessible"],"hours":{"type":"unknown"}},{"id":"gplace_ChIJn4u7gPlljEcRBEb19QCtx2o","lat":46.2030135,"lon":6.1347534999999995,"name":"La Jonquille","city":"Genf","category":"gastro","tags":["barrierefrei","google_wc_accessible"],"hours":{"type":"unknown"}},{"id":"gplace_ChIJv8qguidljEcRVDkD5q6xF-M","lat":46.209119799999996,"lon":6.1441506,"name":"McDonald’s Genève Mont-Blanc","city":"Genf","category":"gastro","tags":["barrierefrei","google_entrance_accessible","google_wc_accessible"],"hours":{"type":"unknown"}},{"id":"gplace_ChIJwVsiHtZkjEcRrt7i0fNVYkM","lat":46.2035169,"lon":6.140884,"name":"Boréal Coffee Shop","city":"Genf","category":"gastro","tags":["barrierefrei","google_wc_accessible"],"hours":{"type":"unknown"}},{"id":"gplace_ChIJTWDoIzNljEcRfQTF1XGIIgU","lat":46.207888499999996,"lon":6.140702699999999,"name":"Restaurant Kung Fu","city":"Genf","category":"gastro","tags":["barrierefrei","google_wc_accessible"],"hours":{"type":"unknown"}},{"id":"gplace_ChIJ_RQ_P0ZljEcR67_-RWwnYB4","lat":46.2070352,"lon":6.1448762,"name":"White Rabbit - Brunch & Co","city":"Genf","category":"gastro","tags":["barrierefrei","google_entrance_accessible"],"hours":{"type":"unknown"}},{"id":"gplace_ChIJU4kzY_ZljEcRRB0e5Hjg4-Y","lat":46.2091553,"lon":6.143094700000001,"name":"Coop Supermarché Genève Gare Mont-Blanc","city":"Genf","category":"other","tags":["barrierefrei","google_wc_accessible"],"hours":{"type":"unknown"}},{"id":"gplace_ChIJ-UM1LytljEcRdent7yEk_zk","lat":46.1983907,"lon":6.1428166,"name":"McDonald's","city":"Genf","category":"gastro","tags":["barrierefrei","google_entrance_accessible"],"hours":{"type":"unknown"}},{"id":"gplace_ChIJBwX-oOFkjEcRkl6_5ZzelzY","lat":46.220295799999995,"lon":6.1418121999999995,"name":"Coop Supermarché Genève Montbrillant","city":"Genf","category":"other","tags":["barrierefrei","google_wc_accessible"],"hours":{"type":"unknown"}},{"id":"gplace_ChIJPSCx-qZljEcRxvhIyIEvzV0","lat":46.2094935,"lon":6.1346107,"name":"Spinella","city":"Genf","category":"gastro","tags":["barrierefrei","google_entrance_accessible"],"hours":{"type":"unknown"}},{"id":"gplace_ChIJh6wps6NljEcR9gqthKySwM0","lat":46.22110800000001,"lon":6.1399402,"name":"Medusa Restaurant","city":"Genf","category":"gastro","tags":["barrierefrei","google_entrance_accessible"],"hours":{"type":"unknown"}},{"id":"gplace_ChIJUXIEg3dljEcRHTFtgtIj3cw","lat":46.2126136,"lon":6.1379771000000005,"name":"Le Jules-Edouard Restaurant","city":"Genf","category":"gastro","tags":["barrierefrei","google_entrance_accessible"],"hours":{"type":"unknown"}},{"id":"gplace_ChIJgTAh6u5ljEcRl9PXMB5yPJA","lat":46.2195616,"lon":6.137059799999999,"name":"Mama & Zita","city":"Genf","category":"gastro","tags":["barrierefrei","google_wc_accessible"],"hours":{"type":"unknown"}},{"id":"gplace_ChIJ4Yu5Jd1kjEcRqlOdMx6o8s4","lat":46.215435899999996,"lon":6.133057099999999,"name":"NonStop Gym Servette","city":"Genf","category":"other","tags":["barrierefrei","google_entrance_accessible"],"hours":{"type":"unknown"}},{"id":"gplace_ChIJ_b-GVcNkjEcRnSztlErRtLE","lat":46.212406099999995,"lon":6.1311607,"name":"Coop Supermarché Genève Servette","city":"Genf","category":"other","tags":["barrierefrei","google_wc_accessible"],"hours":{"type":"unknown"}},{"id":"gplace_ChIJg3NBF9lkjEcRGYrTR0jtrUM","lat":46.2108876,"lon":6.138996,"name":"Saveurs et Couleurs","city":"Genf","category":"gastro","tags":["google_has_restroom"],"hours":{"type":"unknown"}},{"id":"gplace_ChIJEXC3QulkjEcRZRYeUchEeFc","lat":46.220877699999996,"lon":6.1293726,"name":"Boulangerie pâtisserie Eric Emery","city":"Genf","category":"gastro","tags":["barrierefrei","google_wc_accessible"],"hours":{"type":"unknown"}},{"id":"gplace_ChIJi471wOFkjEcRJYtop-ZGbjE","lat":46.220050199999996,"lon":6.1432429,"name":"Let's Go Fitness","city":"Genf","category":"other","tags":["barrierefrei","google_wc_accessible"],"hours":{"type":"unknown"}},{"id":"gplace_ChIJT1kBGeFkjEcRFPEyt715mNo","lat":46.22012,"lon":6.140445499999999,"name":"Shell","city":"Genf","category":"gastro","tags":["barrierefrei","google_wc_accessible"],"hours":{"type":"unknown"}},{"id":"gplace_ChIJrdQEe9lkjEcRCH1BIftMZJI","lat":46.2104533,"lon":6.1373421,"name":"Maison d'Asie","city":"Genf","category":"gastro","tags":["google_has_restroom"],"hours":{"type":"unknown"}},{"id":"gplace_ChIJAUj6qcN6jEcR7z_JZ9V_U9k","lat":46.1807604,"lon":6.1500504,"name":"Le Jardin de Pinchat","city":"Genf","category":"gastro","tags":["barrierefrei","google_wc_accessible"],"hours":{"type":"unknown"}},{"id":"gplace_ChIJT5xxttt6jEcRsJ-9ydJiGFE","lat":46.185657,"lon":6.1437833,"name":"Centre commercial de Carouge","city":"Genf","category":"other","tags":["barrierefrei","google_wc_accessible"],"hours":{"type":"unknown"}},{"id":"gplace_ChIJ7WGWAiF7jEcRJCQJ2MpchoQ","lat":46.1818821,"lon":6.1334347,"name":"Bouchon","city":"Genf","category":"gastro","tags":["barrierefrei","google_wc_accessible"],"hours":{"type":"unknown"}},{"id":"gplace_ChIJy2OQNMd7jEcRIACfGKtF5Iw","lat":46.1862607,"lon":6.144032,"name":"Le Catalpa Bar","city":"Genf","category":"gastro","tags":["barrierefrei","google_wc_accessible"],"hours":{"type":"unknown"}},{"id":"gplace_ChIJOXDY82Z7jEcRTU8VfWBrvXw","lat":46.1762996,"lon":6.1294387,"name":"Rooftop 105","city":"Genf","category":"gastro","tags":["google_has_restroom"],"hours":{"type":"unknown"}},{"id":"gplace_ChIJVzCLQNl6jEcRxx6QWdmJCss","lat":46.18434630000001,"lon":6.1411508,"name":"Café du Marché","city":"Genf","category":"gastro","tags":["barrierefrei","google_wc_accessible"],"hours":{"type":"unknown"}},{"id":"gplace_ChIJq1cUaOp6jEcR48CzXIG7DcY","lat":46.1766922,"lon":6.1539157,"name":"Restaurant Il Mirtillo","city":"Genf","category":"gastro","tags":["barrierefrei","google_wc_accessible"],"hours":{"type":"unknown"}},{"id":"gplace_ChIJj18Srd56jEcRVPBSJ8XzhMg","lat":46.1831886,"lon":6.141654099999999,"name":"Qu'importe","city":"Genf","category":"gastro","tags":["barrierefrei","google_entrance_accessible"],"hours":{"type":"unknown"}},{"id":"gplace_ChIJYyyvTdd6jEcRd47g4Fmyv60","lat":46.188728,"lon":6.143159900000001,"name":"Le Saint Honoré","city":"Genf","category":"gastro","tags":["barrierefrei","google_entrance_accessible"],"hours":{"type":"unknown"}},{"id":"gplace_ChIJ_cVmj956jEcRKYZtysP6ge0","lat":46.1813922,"lon":6.1410342,"name":"Auberge Communale de Carouge","city":"Genf","category":"gastro","tags":["barrierefrei","google_entrance_accessible"],"hours":{"type":"unknown"}},{"id":"gplace_ChIJs5H1rx97jEcRD4TseTt5Ikw","lat":46.1858733,"lon":6.142231799999999,"name":"Gueuleton Genève","city":"Genf","category":"gastro","tags":["barrierefrei","google_entrance_accessible"],"hours":{"type":"unknown"}},{"id":"gplace_ChIJ9-PvLjx7jEcRzVGw7JCTChM","lat":46.184981099999995,"lon":6.1410513,"name":"Tablard","city":"Genf","category":"gastro","tags":["google_has_restroom"],"hours":{"type":"unknown"}},{"id":"gplace_ChIJ1QXRZ956jEcRJ5UdEEts0Vo","lat":46.1804105,"lon":6.140257699999999,"name":"Bistrot du Lion d'Or","city":"Genf","category":"gastro","tags":["barrierefrei","google_entrance_accessible"],"hours":{"type":"unknown"}},{"id":"gplace_ChIJc6gbX956jEcRxWTnSPqI7Fs","lat":46.1808913,"lon":6.1400749999999995,"name":"Indian Rasoi","city":"Genf","category":"gastro","tags":["barrierefrei","google_entrance_accessible"],"hours":{"type":"unknown"}},{"id":"gplace_ChIJbSQsbSxljEcRCwq4DNUIkO0","lat":46.2013286,"lon":6.147213,"name":"Restaurant Les Armures","city":"Genf","category":"gastro","tags":["barrierefrei","google_wc_accessible","google_entrance_accessible"],"hours":{"type":"unknown"}},{"id":"gplace_ChIJ1SVdV6V7jEcRdhQSL_l8eLQ","lat":46.1945865,"lon":6.147480799999999,"name":"Les petites artisanes","city":"Genf","category":"gastro","tags":["barrierefrei","google_entrance_accessible"],"hours":{"type":"unknown"}},{"id":"gplace_ChIJAezhxC1ljEcReHJ0ioQPWv8","lat":46.201467799999996,"lon":6.1497945,"name":"Pasta People","city":"Genf","category":"gastro","tags":["barrierefrei","google_entrance_accessible"],"hours":{"type":"unknown"}},{"id":"gplace_ChIJ7fS4rC1ljEcRNGeYMx-Tl0E","lat":46.2002314,"lon":6.148802600000001,"name":"Café La Clémence","city":"Genf","category":"gastro","tags":["barrierefrei","google_entrance_accessible"],"hours":{"type":"unknown"}},{"id":"gplace_ChIJ43vhti1ljEcRO6m3jAwMvAg","lat":46.2007185,"lon":6.1492897,"name":"Chez ma cousine Bourg-de-four","city":"Genf","category":"gastro","tags":["google_has_restroom"],"hours":{"type":"unknown"}},{"id":"gplace_ChIJB7gU7dVkjEcRBojSKznAaAc","lat":46.2015149,"lon":6.1401451,"name":"Café Remor","city":"Genf","category":"gastro","tags":["barrierefrei","google_entrance_accessible"],"hours":{"type":"unknown"}},{"id":"gplace_ChIJ_2D-ECRljEcRyNWplKSRJE4","lat":46.2109345,"lon":6.1491337,"name":"Auberge de Savièse","city":"Genf","category":"gastro","tags":["barrierefrei","google_entrance_accessible"],"hours":{"type":"unknown"}},{"id":"gplace_ChIJgb6n2i5ljEcR4DNtswL-GNA","lat":46.2039354,"lon":6.147291,"name":"Globus Genève Grand Magasin","city":"Genf","category":"other","tags":["barrierefrei","google_wc_accessible"],"hours":{"type":"unknown"}},{"id":"gplace_ChIJl4ICQipuqkERHFfJKR4I888","lat":46.2025278,"lon":6.153518699999999,"name":"Le Relais de l'Entrecôte","city":"Genf","category":"gastro","tags":["barrierefrei","google_wc_accessible"],"hours":{"type":"unknown"}},{"id":"gplace_ChIJ-wXg9zFljEcROYaIkweg4dE","lat":46.2020349,"lon":6.1526247,"name":"McDonald’s","city":"Genf","category":"gastro","tags":["barrierefrei","google_wc_accessible"],"hours":{"type":"unknown"}},{"id":"gplace_ChIJv6lj8CZljEcR1E9cpiKmAfM","lat":46.2099658,"lon":6.1458357,"name":"Parfums de Beyrouth","city":"Genf","category":"gastro","tags":["barrierefrei","google_entrance_accessible"],"hours":{"type":"unknown"}},{"id":"gplace_ChIJB3MxxTBljEcRduCOecxA12c","lat":46.204721,"lon":6.1571739999999995,"name":"Da Paolo","city":"Genf","category":"gastro","tags":["barrierefrei","google_entrance_accessible"],"hours":{"type":"unknown"}},{"id":"gplace_ChIJm-zLgjNljEcRvsG6ftvZ84w","lat":46.1993241,"lon":6.1561736,"name":"Luigia","city":"Genf","category":"gastro","tags":["barrierefrei","google_wc_accessible"],"hours":{"type":"unknown"}},{"id":"gplace_ChIJZ4NTMBhljEcRQB_-3fpJNJY","lat":46.2038012,"lon":6.1556824,"name":"Melrose Kitchen - Eaux-vives","city":"Genf","category":"gastro","tags":["barrierefrei","google_wc_accessible"],"hours":{"type":"unknown"}},{"id":"gplace_ChIJYWxPfKFljEcR2lmMXygVN2k","lat":46.2154761,"lon":6.1486893,"name":"Hotel N’vy","city":"Genf","category":"gastro","tags":["barrierefrei","google_entrance_accessible"],"hours":{"type":"unknown"}},{"id":"gplace_ChIJoS3kXx9ljEcRzafkfDRHaPs","lat":46.216640299999995,"lon":6.148071,"name":"Mr Pickwick Pub","city":"Genf","category":"gastro","tags":["barrierefrei","google_wc_accessible"],"hours":{"type":"unknown"}},{"id":"gplace_ChIJIXPDoSFljEcRU-8H3JkDpoU","lat":46.2144574,"lon":6.147551699999999,"name":"El Catrín","city":"Genf","category":"gastro","tags":["barrierefrei","google_entrance_accessible"],"hours":{"type":"unknown"}},{"id":"gplace_ChIJKYP_Er9ljEcR2dgUmNNiKbE","lat":46.211441699999995,"lon":6.1458005,"name":"Restaurant Tehran Center","city":"Genf","category":"gastro","tags":["barrierefrei","google_wc_accessible"],"hours":{"type":"unknown"}},{"id":"gplace_ChIJw2qIzyVljEcRD2N-BU01yls","lat":46.2087146,"lon":6.1485205999999994,"name":"Cottage Café","city":"Genf","category":"gastro","tags":["barrierefrei","google_entrance_accessible"],"hours":{"type":"unknown"}},{"id":"gplace_ChIJb76cnydljEcRrTEyfcEu6pA","lat":46.2095726,"lon":6.1452354,"name":"Au Petit Chalet","city":"Genf","category":"gastro","tags":["google_has_restroom"],"hours":{"type":"unknown"}},{"id":"gplace_ChIJQfQ50QJljEcRbVBdMaRex9I","lat":46.2266307,"lon":6.1488917,"name":"UN Port beach club","city":"Genf","category":"gastro","tags":["barrierefrei","google_wc_accessible"],"hours":{"type":"unknown"}},{"id":"gplace_ChIJu1frMyVljEcRX8h8p5OexkU","lat":46.2323789,"lon":6.1400266,"name":"Jardin de Penthes","city":"Genf","category":"gastro","tags":["barrierefrei","google_wc_accessible"],"hours":{"type":"unknown"}},{"id":"gplace_ChIJ12MAeQFljEcRcp0BhSigTlo","lat":46.231344899999996,"lon":6.1499302,"name":"Restaurant de la plage Le Reposoir","city":"Genf","category":"gastro","tags":["barrierefrei","google_entrance_accessible"],"hours":{"type":"unknown"}},{"id":"gplace_ChIJMfBKevlkjEcRmDKhqAWygqQ","lat":46.231941299999995,"lon":6.1395569,"name":"International Tennis Club","city":"Genf","category":"gastro","tags":["barrierefrei","google_wc_accessible"],"hours":{"type":"unknown"}},{"id":"gplace_ChIJl1nfK_tkjEcRC8zlfezkJaU","lat":46.226945,"lon":6.1380729999999994,"name":"Restaurant Vieux Bois","city":"Genf","category":"gastro","tags":["barrierefrei","google_wc_accessible"],"hours":{"type":"unknown"}},{"id":"gplace_ChIJrcqVYPpkjEcRdQXb7R4jqIo","lat":46.229434999999995,"lon":6.1366665,"name":"La Vie des Champs","city":"Genf","category":"gastro","tags":["barrierefrei","google_entrance_accessible"],"hours":{"type":"unknown"}},{"id":"gplace_ChIJOwUjOEtljEcRLnSAfV5t32Y","lat":46.2223869,"lon":6.1489417,"name":"CHi LE MA PLUS 吃了吗+","city":"Genf","category":"gastro","tags":["barrierefrei","google_wc_accessible"],"hours":{"type":"unknown"}},{"id":"gplace_ChIJr5jw3qpljEcReo-YKYHou0Y","lat":46.237984100000006,"lon":6.149328000000001,"name":"Station Service Eni","city":"Genf","category":"tankstelle","tags":["barrierefrei","google_wc_accessible"],"hours":{"type":"unknown"}},{"id":"gplace_ChIJzQbHotNljEcRx1lZI0LSEkI","lat":46.227127599999996,"lon":6.14678,"name":"Restaurant Amarante","city":"Genf","category":"gastro","tags":["barrierefrei","google_wc_accessible"],"hours":{"type":"unknown"}},{"id":"gplace_ChIJbam_STdljEcRWRWeOd4n2tU","lat":46.222298099999996,"lon":6.1502672,"name":"Pavillon Barton - Comptoir Basque - Lake House","city":"Genf","category":"gastro","tags":["barrierefrei","google_wc_accessible"],"hours":{"type":"unknown"}},{"id":"gplace_ChIJVwbinQhljEcRYNW0YkNbCz8","lat":46.227528199999995,"lon":6.1367115,"name":"lerestaurant - Restaurant of ICRC","city":"Genf","category":"gastro","tags":["barrierefrei","google_wc_accessible","google_entrance_accessible"],"hours":{"type":"unknown"}},{"id":"gplace_ChIJ0Ve-H7pljEcRP_IFd56QsnY","lat":46.2276266,"lon":6.1491435999999995,"name":"Restaurant de la Plage de l'ONU","city":"Genf","category":"gastro","tags":["barrierefrei","google_entrance_accessible"],"hours":{"type":"unknown"}},{"id":"gplace_ChIJM1gsNABljEcRaGXNGJg3VIM","lat":46.223721,"lon":6.1481438,"name":"Kysko","city":"Genf","category":"other","tags":["google_has_restroom"],"hours":{"type":"unknown"}},{"id":"gplace_ChIJafjtZlFkjEcR2HJ8WRcy2es","lat":46.242329,"lon":6.1431178,"name":"Le Relais de Chambésy","city":"Genf","category":"gastro","tags":["barrierefrei","google_wc_accessible"],"hours":{"type":"unknown"}},{"id":"gplace_ChIJLZxRYfhkjEcRw_Zm7j0oJi0","lat":46.2353915,"lon":6.139146800000001,"name":"Restaurant La Fontaine","city":"Genf","category":"gastro","tags":["barrierefrei","google_entrance_accessible"],"hours":{"type":"unknown"}},{"id":"gplace_ChIJmTKvFeJkjEcRf-OgDbSP844","lat":46.222293099999995,"lon":6.1437661,"name":"Maison de la Paix Restaurant","city":"Genf","category":"gastro","tags":["google_has_restroom"],"hours":{"type":"unknown"}},{"id":"gplace_ChIJrTnczKpljEcRXhZJZSGOVIs","lat":46.237415999999996,"lon":6.148327999999999,"name":"Station service Eni (Jura)","city":"Genf","category":"tankstelle","tags":["barrierefrei","google_wc_accessible"],"hours":{"type":"unknown"}},{"id":"gplace_ChIJ5QudBjx7jEcRutCjNntkZ4A","lat":46.199864,"lon":6.162668,"name":"Oh Martine!","city":"Genf","category":"gastro","tags":["google_has_restroom"],"hours":{"type":"unknown"}},{"id":"gplace_ChIJuWuMzDVljEcRe58areN_Uig","lat":46.2005862,"lon":6.1598961999999995,"name":"Coop","city":"Genf","category":"other","tags":["barrierefrei","google_wc_accessible"],"hours":{"type":"unknown"}},{"id":"gplace_ChIJgc9pojNljEcRdV6IgwuyEZ4","lat":46.1997831,"lon":6.1556416,"name":"Bains de l'Est","city":"Genf","category":"gastro","tags":["google_has_restroom"],"hours":{"type":"unknown"}},{"id":"gplace_ChIJWaoVjLV6jEcRUaWt5aBNv28","lat":46.193348199999996,"lon":6.161439499999999,"name":"Coop Supermarché Genève Florissant","city":"Genf","category":"gastro","tags":["barrierefrei","google_wc_accessible"],"hours":{"type":"unknown"}},{"id":"gplace_ChIJxcsoqYl7jEcRKHWwS2xypW0","lat":46.194567199999995,"lon":6.1458433999999995,"name":"Suahoy","city":"Genf","category":"gastro","tags":["barrierefrei","google_entrance_accessible"],"hours":{"type":"unknown"}},{"id":"gplace_ChIJwzaVGTJljEcRL6krXIHKph8","lat":46.201410499999994,"lon":6.1528072,"name":"Black Tap","city":"Genf","category":"gastro","tags":["barrierefrei","google_entrance_accessible"],"hours":{"type":"unknown"}},{"id":"gplace_ChIJ-UxNy0pljEcRg0dsBoA7nTI","lat":46.196505,"lon":6.163404,"name":"Pâtisserie Mage","city":"Genf","category":"gastro","tags":["barrierefrei","google_entrance_accessible"],"hours":{"type":"unknown"}},{"id":"gplace_ChIJIcdp1jNljEcRgl79rwl3Tk8","lat":46.20165600000001,"lon":6.155056,"name":"Soleil Rouge","city":"Genf","category":"gastro","tags":["barrierefrei","google_entrance_accessible"],"hours":{"type":"unknown"}},{"id":"gplace_ChIJV41tBfJljEcR8HEnDOeQYto","lat":46.2010259,"lon":6.1552481,"name":"ferdi","city":"Genf","category":"gastro","tags":["barrierefrei","google_entrance_accessible"],"hours":{"type":"unknown"}},{"id":"gplace_ChIJt2JaSDtljEcRIq1Zafl8h3M","lat":46.210266,"lon":6.154090999999999,"name":"Buvette des Bains","city":"Genf","category":"gastro","tags":["google_has_restroom"],"hours":{"type":"unknown"}},{"id":"gplace_ChIJJ7GmPOVljEcRSprqG8PtcKs","lat":46.211908099999995,"lon":6.16716,"name":"Restaurant de la Plage & Buvette","city":"Genf","category":"gastro","tags":["barrierefrei","google_wc_accessible"],"hours":{"type":"unknown"}},{"id":"gplace_ChIJ7_72dBlljEcRW2JfynJbcds","lat":46.220110999999996,"lon":6.1527579,"name":"Restaurant la Perle du Lac","city":"Genf","category":"gastro","tags":["barrierefrei","google_wc_accessible"],"hours":{"type":"unknown"}},{"id":"gplace_ChIJuR9PriZljEcRqgBtxdibw40","lat":46.2113553,"lon":6.147692500000001,"name":"Seoul","city":"Genf","category":"gastro","tags":["barrierefrei","google_entrance_accessible"],"hours":{"type":"unknown"}},{"id":"gplace_ChIJheUAWCNljEcR0PYOqhO77pY","lat":46.2117359,"lon":6.153169999999999,"name":"La Terrasse","city":"Genf","category":"gastro","tags":["barrierefrei","google_entrance_accessible"],"hours":{"type":"unknown"}},{"id":"gplace_ChIJW3ZMKlBljEcR6-78Lf36EjQ","lat":46.221422499999996,"lon":6.1480049,"name":"My Little Cup","city":"Genf","category":"gastro","tags":["google_has_restroom"],"hours":{"type":"unknown"}},{"id":"gplace_ChIJQ2NmVh5ljEcRhGLm2vJ14lk","lat":46.219422699999996,"lon":6.1471523,"name":"Le Fix","city":"Genf","category":"gastro","tags":["barrierefrei","google_wc_accessible"],"hours":{"type":"unknown"}},{"id":"gplace_ChIJyX9KHlFljEcRTep2M0JDT2c","lat":46.211386999999995,"lon":6.149979,"name":"Edelweiss restaurant","city":"Genf","category":"gastro","tags":["barrierefrei","google_wc_accessible","google_entrance_accessible"],"hours":{"type":"unknown"}},{"id":"gplace_ChIJPSPnQCRljEcRd_ZHbqNqDag","lat":46.210367000000005,"lon":6.1494383,"name":"Grand Duke Pub","city":"Genf","category":"gastro","tags":["barrierefrei","google_wc_accessible"],"hours":{"type":"unknown"}},{"id":"gplace_ChIJL0ES1hNljEcRt8nDWJ1hxuk","lat":46.2011512,"lon":6.1662368999999995,"name":"Gigi Cucina & Bar","city":"Genf","category":"gastro","tags":["barrierefrei","google_wc_accessible"],"hours":{"type":"unknown"}},{"id":"gplace_ChIJs9hDfbB7jEcRzPJHHTxdpI8","lat":46.195820399999995,"lon":6.156987,"name":"Beau Coffee","city":"Genf","category":"gastro","tags":["google_has_restroom"],"hours":{"type":"unknown"}},{"id":"gplace_ChIJ6XsChuBljEcR5xSRAdxnG1A","lat":46.2007751,"lon":6.1653008,"name":"GVA Eaux-vives train station & mallstation &","city":"Genf","category":"other","tags":["barrierefrei","google_wc_accessible"],"hours":{"type":"unknown"}},{"id":"gplace_ChIJC0ex8-d7jEcR5PI9c6bVB4k","lat":46.1864584,"lon":6.1598387,"name":"Centre sportif universitaire (CSU) - Bâtiment 1","city":"Genf","category":"other","tags":["barrierefrei","google_wc_accessible"],"hours":{"type":"unknown"}},{"id":"gplace_ChIJN8YLhjZljEcRFwLVskDThQ8","lat":46.199887499999996,"lon":6.165742,"name":"Laser Game","city":"Genf","category":"gastro","tags":["barrierefrei","google_wc_accessible"],"hours":{"type":"unknown"}},{"id":"gplace_ChIJQenlwqV7jEcRlqM9LO7l3UM","lat":46.1934373,"lon":6.165828299999999,"name":"NonStop Gym Champel","city":"Genf","category":"other","tags":["barrierefrei","google_entrance_accessible"],"hours":{"type":"unknown"}},{"id":"gplace_ChIJmV19Wl1ljEcRQwFXEfeG-RU","lat":46.200312,"lon":6.163688199999999,"name":"Scaramù","city":"Genf","category":"gastro","tags":["barrierefrei","google_wc_accessible"],"hours":{"type":"unknown"}},{"id":"gplace_ChIJwWDYbbtljEcRySenSEfF8MU","lat":46.20055310000001,"lon":6.166576500000001,"name":"Caracol","city":"Genf","category":"gastro","tags":["google_has_restroom"],"hours":{"type":"unknown"}},{"id":"gplace_ChIJAUTyz3dljEcRwqUiL_gAicI","lat":46.197930299999996,"lon":6.1606764,"name":"Bistro Coco","city":"Genf","category":"gastro","tags":["barrierefrei","google_wc_accessible"],"hours":{"type":"unknown"}},{"id":"gplace_ChIJUcL1-TZljEcRbO2ZU8UmJ9E","lat":46.203338699999996,"lon":6.1602105,"name":"Taqueria Los Cuñados","city":"Genf","category":"gastro","tags":["barrierefrei","google_entrance_accessible"],"hours":{"type":"unknown"}},{"id":"gplace_ChIJwXtt-9pljEcRlsjpqTfMaps","lat":46.2044084,"lon":6.1579261,"name":"Noon Café Céramique","city":"Genf","category":"gastro","tags":["barrierefrei","google_wc_accessible"],"hours":{"type":"unknown"}},{"id":"gplace_ChIJlyqjtjZljEcRmN_3ZpaSOJk","lat":46.202538499999996,"lon":6.158017,"name":"ALMA Restaurant","city":"Genf","category":"gastro","tags":["barrierefrei","google_wc_accessible"],"hours":{"type":"unknown"}},{"id":"gplace_ChIJB4lPsDJljEcRR5UluQnWxwk","lat":46.205622299999995,"lon":6.1582829,"name":"Hunch","city":"Genf","category":"gastro","tags":["google_has_restroom"],"hours":{"type":"unknown"}},{"id":"gplace_ChIJi284wjZljEcRc3-h6fQBKCk","lat":46.20317420000001,"lon":6.1589366,"name":"Maison Balkii","city":"Genf","category":"gastro","tags":["google_has_restroom"],"hours":{"type":"unknown"}},{"id":"gplace_ChIJyRax_FlljEcRLjWqtTF0QDs","lat":46.2053517,"lon":6.1819466,"name":"Supermarché Migros","city":"Genf","category":"other","tags":["barrierefrei","google_wc_accessible"],"hours":{"type":"unknown"}},{"id":"gplace_ChIJtW8VekZljEcRHMTm4W0SQoo","lat":46.207746,"lon":6.169275,"name":"Hôtel du Parc des Eaux-Vives","city":"Genf","category":"gastro","tags":["barrierefrei","google_wc_accessible"],"hours":{"type":"unknown"}},{"id":"gplace_ChIJ5UEoAfNljEcROlcilTZRQf4","lat":46.2021686,"lon":6.1574838000000005,"name":"Khora","city":"Genf","category":"gastro","tags":["barrierefrei","google_entrance_accessible"],"hours":{"type":"unknown"}},{"id":"gplace_ChIJL8uA74JljEcR30n-G3iWmaA","lat":46.2045089,"lon":6.1621714,"name":"Pizzeria Dagli Amici","city":"Genf","category":"gastro","tags":["barrierefrei","google_wc_accessible"],"hours":{"type":"unknown"}},{"id":"gplace_ChIJ60CiO3tljEcRZp2Ns6O7jFE","lat":46.225254299999996,"lon":6.182814,"name":"Yacht Club de Genève","city":"Genf","category":"gastro","tags":["barrierefrei","google_wc_accessible"],"hours":{"type":"unknown"}},{"id":"gplace_ChIJF5hGDGdljEcRkmK_mpVnL44","lat":46.216257000000006,"lon":6.1804286,"name":"Restaurant Le Lion d'Or","city":"Genf","category":"gastro","tags":["barrierefrei","google_entrance_accessible"],"hours":{"type":"unknown"}},{"id":"gplace_ChIJFVY2_UNljEcRkTweEUHkbXw","lat":46.211128699999996,"lon":6.1703763,"name":"Allianz Cinema Genève","city":"Genf","category":"gastro","tags":["barrierefrei","google_wc_accessible"],"hours":{"type":"unknown"}},{"id":"gplace_ChIJ67LCzGBljEcRS4EtxP6kWjw","lat":46.2163399,"lon":6.1829623,"name":"La Closerie","city":"Genf","category":"gastro","tags":["barrierefrei","google_wc_accessible"],"hours":{"type":"unknown"}},{"id":"gplace_ChIJM1jhcWdljEcRgEz8OJ6oVBo","lat":46.215692,"lon":6.180736,"name":"Mr. Philippe Taillé","city":"Genf","category":"gastro","tags":["barrierefrei","google_entrance_accessible"],"hours":{"type":"unknown"}},{"id":"gplace_ChIJJXCiR_NljEcRK5Wa9SgY35U","lat":46.214071,"lon":6.1745266,"name":"Les Terrasses de la Plage","city":"Genf","category":"gastro","tags":["barrierefrei","google_entrance_accessible"],"hours":{"type":"unknown"}},{"id":"gplace_ChIJ75K1c7xljEcRIYiwc1rIYow","lat":46.2131548,"lon":6.1735492999999995,"name":"Bistro","city":"Genf","category":"gastro","tags":["barrierefrei","google_entrance_accessible"],"hours":{"type":"unknown"}},{"id":"gplace_ChIJEaJf28QvjEcRf55RNcQlR9A","lat":46.504867999999995,"lon":6.6274342,"name":"The Lacustre","city":"Lausanne","category":"gastro","tags":["barrierefrei","google_wc_accessible"],"hours":{"type":"unknown"}},{"id":"gplace_ChIJ9be9-9cvjEcRuYwRzTjTJww","lat":46.5087498,"lon":6.6165129,"name":"Jetée de la Compagnie","city":"Lausanne","category":"gastro","tags":["barrierefrei","google_wc_accessible"],"hours":{"type":"unknown"}},{"id":"gplace_ChIJMRopTSkwjEcR_uZIU-MzjUU","lat":46.512851,"lon":6.610838299999999,"name":"Théâtre Vidy-Lausanne","city":"Lausanne","category":"gastro","tags":["barrierefrei","google_wc_accessible"],"hours":{"type":"unknown"}},{"id":"gplace_ChIJIRNEgtIvjEcRZkPEKNs6wCA","lat":46.5152778,"lon":6.6286111,"name":"Café de Grancy","city":"Lausanne","category":"gastro","tags":["barrierefrei","google_wc_accessible"],"hours":{"type":"unknown"}},{"id":"gplace_ChIJf4_WZhwvjEcRUIbF434IUN4","lat":46.5118513,"lon":6.628768399999999,"name":"Fripsquare café & Vintage store","city":"Lausanne","category":"gastro","tags":["google_has_restroom"],"hours":{"type":"unknown"}},{"id":"gplace_ChIJhTUWqnIvjEcRZcMeb4RZ4qY","lat":46.5163244,"lon":6.6265111999999995,"name":"Umamido Grancy - Ramen Shop","city":"Lausanne","category":"gastro","tags":["barrierefrei","google_wc_accessible"],"hours":{"type":"unknown"}},{"id":"gplace_ChIJvao3CQAxjEcRjXzh9HUJDhg","lat":46.5117816,"lon":6.609328100000001,"name":"HOKKAÏDO","city":"Lausanne","category":"gastro","tags":["barrierefrei","google_entrance_accessible"],"hours":{"type":"unknown"}},{"id":"gplace_ChIJoc5kzAEvjEcR-dB76ip1cho","lat":46.5118185,"lon":6.625619599999999,"name":"Lupaia Osteria","city":"Lausanne","category":"gastro","tags":["google_has_restroom"],"hours":{"type":"unknown"}},{"id":"gplace_ChIJSaJ1UMUvjEcRMyMZcLgE-SM","lat":46.50722220000001,"lon":6.6277778,"name":"Vieil Ouchy","city":"Lausanne","category":"gastro","tags":["barrierefrei","google_entrance_accessible","google_wc_accessible"],"hours":{"type":"unknown"}},{"id":"gplace_ChIJn7NHcc4vjEcRJppax5wPYmQ","lat":46.5116824,"lon":6.6297102,"name":"La Croix d'Ouchy","city":"Lausanne","category":"gastro","tags":["barrierefrei","google_entrance_accessible"],"hours":{"type":"unknown"}},{"id":"gplace_ChIJsdqp3zIvjEcRkAUnntvX_rY","lat":46.515900099999996,"lon":6.627998799999999,"name":"Inglewood Grancy","city":"Lausanne","category":"gastro","tags":["barrierefrei","google_entrance_accessible"],"hours":{"type":"unknown"}},{"id":"gplace_ChIJS69iIdMvjEcRbCXSpcMsLik","lat":46.516531,"lon":6.62589,"name":"Le Milan","city":"Lausanne","category":"gastro","tags":["barrierefrei","google_entrance_accessible"],"hours":{"type":"unknown"}},{"id":"gplace_ChIJs_J19TIujEcRAr8G9B1OxWU","lat":46.5194027,"lon":6.6307199,"name":"Lausanne Palace","city":"Lausanne","category":"gastro","tags":["barrierefrei","google_entrance_accessible"],"hours":{"type":"unknown"}},{"id":"gplace_ChIJCVMf-DEujEcRXWFepgYfFUI","lat":46.522236,"lon":6.6313569,"name":"MANOR Lausanne","city":"Lausanne","category":"other","tags":["barrierefrei","google_wc_accessible"],"hours":{"type":"unknown"}},{"id":"gplace_ChIJ_XZHhi4ujEcRpl3WsdDxyVo","lat":46.5224317,"lon":6.6274552,"name":"Métropole Lausanne","city":"Lausanne","category":"other","tags":["barrierefrei","google_wc_accessible"],"hours":{"type":"unknown"}},{"id":"gplace_ChIJPcvaZCwujEcREkNMSMORhZE","lat":46.5205136,"lon":6.6248083,"name":"Brasserie de Montbenon","city":"Lausanne","category":"gastro","tags":["barrierefrei","google_wc_accessible"],"hours":{"type":"unknown"}},{"id":"gplace_ChIJm5uuAi4ujEcRdh4SZ1ZxLzA","lat":46.522742099999995,"lon":6.6303887999999995,"name":"Coop City Lausanne Au Centre","city":"Lausanne","category":"other","tags":["barrierefrei","google_wc_accessible"],"hours":{"type":"unknown"}},{"id":"gplace_ChIJf-p1t8QvjEcRq1kQpcsjU10","lat":46.523334399999996,"lon":6.6290343,"name":"Kung-fu Cuisine 功夫小厨","city":"Lausanne","category":"gastro","tags":["barrierefrei","google_wc_accessible","google_has_restroom"],"hours":{"type":"unknown"}},{"id":"gplace_ChIJ9aR3nDEujEcRNxO8wCyA7w0","lat":46.5227149,"lon":6.6331685,"name":"The Great Escape","city":"Lausanne","category":"gastro","tags":["google_has_restroom"],"hours":{"type":"unknown"}},{"id":"gplace_ChIJfcJs0SwujEcRsZ9tjf1SslQ","lat":46.517978899999996,"lon":6.6254456,"name":"Cantonal museum of fine arts Lausanne","city":"Lausanne","category":"gastro","tags":["barrierefrei","google_wc_accessible"],"hours":{"type":"unknown"}},{"id":"gplace_ChIJATLJ0TMujEcRzotgkVmQyyc","lat":46.5211111,"lon":6.6336110999999995,"name":"Globus","city":"Lausanne","category":"other","tags":["barrierefrei","google_wc_accessible"],"hours":{"type":"unknown"}},{"id":"gplace_ChIJFeNYM48vjEcRVbzsQruaR2o","lat":46.518239,"lon":6.6338247,"name":"COFFEE PAGE","city":"Lausanne","category":"gastro","tags":["google_has_restroom"],"hours":{"type":"unknown"}},{"id":"gplace_ChIJoUb-XVkvjEcRq2_quTfvjbk","lat":46.5212292,"lon":6.6299931999999995,"name":"KFC","city":"Lausanne","category":"gastro","tags":["barrierefrei","google_wc_accessible"],"hours":{"type":"unknown"}},{"id":"gplace_ChIJu819Uq0xjEcR531XmrzzMio","lat":46.5348437,"lon":6.6062071,"name":"Prilly Centre","city":"Lausanne","category":"other","tags":["barrierefrei","google_wc_accessible"],"hours":{"type":"unknown"}},{"id":"gplace_ChIJoSa580oxjEcRpTDU8cdues4","lat":46.538021,"lon":6.6217711,"name":"Histoire Sans Faim - Restaurant Italien Lausanne","city":"Lausanne","category":"gastro","tags":["barrierefrei","google_wc_accessible"],"hours":{"type":"unknown"}},{"id":"gplace_ChIJraPqwtAxjEcR2vNBd4FCV-Q","lat":46.5261985,"lon":6.6127861999999995,"name":"Café de Prélaz","city":"Lausanne","category":"gastro","tags":["barrierefrei","google_entrance_accessible"],"hours":{"type":"unknown"}},{"id":"gplace_ChIJdYiLISYujEcRJxxOdtTCg3w","lat":46.527525499999996,"lon":6.6244137,"name":"L'Auberge de Beaulieu","city":"Lausanne","category":"gastro","tags":["barrierefrei","google_wc_accessible"],"hours":{"type":"unknown"}},{"id":"gplace_ChIJMSSTcm8xjEcRwqZlcwrEe7g","lat":46.523800699999995,"lon":6.6148117,"name":"FOOD HALLE 15","city":"Lausanne","category":"gastro","tags":["barrierefrei","google_wc_accessible"],"hours":{"type":"unknown"}},{"id":"gplace_ChIJu6gJ4tcxjEcRaquR2AijShU","lat":46.526654900000004,"lon":6.6200031,"name":"L'Atelier","city":"Lausanne","category":"gastro","tags":["barrierefrei","google_entrance_accessible"],"hours":{"type":"unknown"}},{"id":"gplace_ChIJ6csC5y0vjEcRyPPsl6HHulw","lat":46.526133099999996,"lon":6.6213769,"name":"Bạn","city":"Lausanne","category":"gastro","tags":["barrierefrei","google_entrance_accessible"],"hours":{"type":"unknown"}},{"id":"gplace_ChIJI_XDODYxjEcRvgFtOJZAoJo","lat":46.524219099999996,"lon":6.6176965999999995,"name":":Maison66","city":"Lausanne","category":"gastro","tags":["barrierefrei","google_entrance_accessible"],"hours":{"type":"unknown"}},{"id":"gplace_ChIJL37WytUxjEcRzuUXcK6OsPE","lat":46.531265999999995,"lon":6.6186739999999995,"name":"Supermarché Migros - Lausanne - Bergières","city":"Lausanne","category":"other","tags":["barrierefrei","google_wc_accessible"],"hours":{"type":"unknown"}},{"id":"gplace_ChIJ_7nkE4AxjEcR08dxFdS-lGY","lat":46.5275165,"lon":6.6125164,"name":"MEALZ ( SlurpBurger x SukiSando x Cotcotte )","city":"Lausanne","category":"gastro","tags":["barrierefrei","google_entrance_accessible"],"hours":{"type":"unknown"}},{"id":"gplace_ChIJGYOyNnEvjEcRWl33_s1epQU","lat":46.526108699999995,"lon":6.623313899999999,"name":"La Station","city":"Lausanne","category":"gastro","tags":["barrierefrei","google_wc_accessible"],"hours":{"type":"unknown"}},{"id":"gplace_ChIJOU_2jygujEcRStaWwwp7lvU","lat":46.526651,"lon":6.623574,"name":"Petit Boeuf","city":"Lausanne","category":"gastro","tags":["barrierefrei","google_wc_accessible"],"hours":{"type":"unknown"}},{"id":"gplace_ChIJqVxEsNIvjEcRrCuERs3UL3I","lat":46.5260964,"lon":6.631322,"name":"Fitness Wellness Sport Club Lausanne","city":"Lausanne","category":"other","tags":["barrierefrei","google_wc_accessible"],"hours":{"type":"unknown"}},{"id":"gplace_ChIJQWPElNAxjEcRLAHHzEnRfcg","lat":46.526643,"lon":6.6125066,"name":"Coop Supermarché Lausanne Prélaz","city":"Lausanne","category":"other","tags":["barrierefrei","google_wc_accessible"],"hours":{"type":"unknown"}},{"id":"gplace_ChIJCaKpgi8ujEcRs0oJQq86NKU","lat":46.526105,"lon":6.629333000000001,"name":"Herat","city":"Lausanne","category":"gastro","tags":["google_has_restroom"],"hours":{"type":"unknown"}},{"id":"gplace_ChIJT1vrHSkujEcRKuYwaw4dyyQ","lat":46.5248408,"lon":6.623503899999999,"name":"IRIS Lausanne Café-restaurant-Bar","city":"Lausanne","category":"gastro","tags":["barrierefrei","google_wc_accessible"],"hours":{"type":"unknown"}},{"id":"gplace_ChIJue-XNtExjEcRcwSGimHLNMc","lat":46.5242972,"lon":6.6137748,"name":"Mami Pizza","city":"Lausanne","category":"gastro","tags":["barrierefrei","google_entrance_accessible"],"hours":{"type":"unknown"}},{"id":"gplace_ChIJW4WvAs0vjEcRQJJh6cq4BqI","lat":46.515312699999996,"lon":6.6316035,"name":"Coop Supermarché Lausanne Grancy","city":"Lausanne","category":"other","tags":["barrierefrei","google_wc_accessible"],"hours":{"type":"unknown"}},{"id":"gplace_ChIJNe7Im8kvjEcRzCWGbMZ9ZMo","lat":46.5113801,"lon":6.6369216,"name":"Café des Avenues","city":"Lausanne","category":"gastro","tags":["google_has_restroom"],"hours":{"type":"unknown"}},{"id":"gplace_ChIJ92SJa80vjEcRF0n8ITebwfQ","lat":46.5158333,"lon":6.63,"name":"Café du Simplon","city":"Lausanne","category":"gastro","tags":["barrierefrei","google_wc_accessible"],"hours":{"type":"unknown"}},{"id":"gplace_ChIJfe-ssMwvjEcRzibxd1Koxic","lat":46.5164057,"lon":6.633572,"name":"NonStop Gym Lausanne Gare","city":"Lausanne","category":"other","tags":["barrierefrei","google_wc_accessible"],"hours":{"type":"unknown"}},{"id":"gplace_ChIJjz5f_s8vjEcRbzaMCWBeFJM","lat":46.507850399999995,"lon":6.6272527,"name":"White Horse","city":"Lausanne","category":"gastro","tags":["barrierefrei","google_entrance_accessible"],"hours":{"type":"unknown"}},{"id":"gplace_ChIJXwedWzQujEcR9LcRTzOwtSs","lat":46.519649099999995,"lon":6.6370968999999995,"name":"Luigia Lausanne","city":"Lausanne","category":"gastro","tags":["barrierefrei","google_wc_accessible"],"hours":{"type":"unknown"}},{"id":"gplace_ChIJNfDYd8EvjEcRGjC8TAVXQ2s","lat":46.520051099999996,"lon":6.640147,"name":"Doki Doki","city":"Lausanne","category":"gastro","tags":["barrierefrei","google_entrance_accessible"],"hours":{"type":"unknown"}},{"id":"gplace_ChIJa5TElL4vjEcRGPVO1nHC_Zk","lat":46.531443,"lon":6.639326,"name":"Restaurant Chalet Suisse","city":"Lausanne","category":"gastro","tags":["barrierefrei","google_wc_accessible"],"hours":{"type":"unknown"}},{"id":"gplace_ChIJd5pW3jEujEcRzW3IWxz-u-k","lat":46.523385000000005,"lon":6.630869799999999,"name":"Le Pointu","city":"Lausanne","category":"gastro","tags":["barrierefrei","google_entrance_accessible"],"hours":{"type":"unknown"}},{"id":"gplace_ChIJwazb3AQvjEcRJiEezanQj1s","lat":46.5241449,"lon":6.632387500000001,"name":"Un Po' Di Più Trattoria","city":"Lausanne","category":"gastro","tags":["barrierefrei","google_wc_accessible"],"hours":{"type":"unknown"}},{"id":"gplace_ChIJUYM1KI8vjEcRSkFD5N4-kZY","lat":46.5258277,"lon":6.6352132,"name":"Black Market Ramen","city":"Lausanne","category":"gastro","tags":["google_has_restroom"],"hours":{"type":"unknown"}},{"id":"gplace_ChIJwWgZWDAujEcRrCywzQJFjwI","lat":46.525039,"lon":6.633762,"name":"Café La Couronne d'Or","city":"Lausanne","category":"gastro","tags":["google_has_restroom"],"hours":{"type":"unknown"}},{"id":"gplace_ChIJl3lbJOYvjEcRs2Bzx-1dAuo","lat":46.5236325,"lon":6.635605699999999,"name":"Sisterfields Café","city":"Lausanne","category":"gastro","tags":["barrierefrei","google_entrance_accessible"],"hours":{"type":"unknown"}},{"id":"gplace_ChIJVVVZPDcujEcRpqpZtetA-0s","lat":46.5247988,"lon":6.6378182,"name":"Man'Ouchy","city":"Lausanne","category":"gastro","tags":["barrierefrei","google_wc_accessible"],"hours":{"type":"unknown"}},{"id":"gplace_ChIJs_EuCR8vjEcR2Xsy9vnk-J0","lat":46.524078,"lon":6.629582000000001,"name":"le Cazard","city":"Lausanne","category":"gastro","tags":["barrierefrei","google_wc_accessible"],"hours":{"type":"unknown"}},{"id":"gplace_ChIJew7_NaovjEcR2cfl_Wji4_E","lat":46.51153250000001,"lon":6.6598277999999995,"name":"Supermarché Migros","city":"Lausanne","category":"other","tags":["barrierefrei","google_wc_accessible"],"hours":{"type":"unknown"}},{"id":"gplace_ChIJD5mcmhYvjEcR86jKhZijdYE","lat":46.5055288,"lon":6.6613378999999995,"name":"Bar La Générale","city":"Lausanne","category":"gastro","tags":["barrierefrei","google_entrance_accessible"],"hours":{"type":"unknown"}},{"id":"gplace_ChIJDdkE3AcvjEcRuz5CKVzDiMA","lat":46.5059487,"lon":6.662597099999999,"name":"Restaurant du Port de Pully","city":"Lausanne","category":"gastro","tags":["barrierefrei","google_wc_accessible"],"hours":{"type":"unknown"}},{"id":"gplace_ChIJuaXxlzYvjEcRjRVllf7kog8","lat":46.506386,"lon":6.6361903,"name":"Bar Côté Lac Lausanne","city":"Lausanne","category":"gastro","tags":["google_has_restroom"],"hours":{"type":"unknown"}},{"id":"gplace_ChIJK3gJANIvjEcR0WcivoDh03M","lat":46.5086198,"lon":6.6340974,"name":"Restaurant du Musée Olympique (TOM Café)","city":"Lausanne","category":"gastro","tags":["barrierefrei","google_wc_accessible"],"hours":{"type":"unknown"}},{"id":"gplace_ChIJ81uTsXYvjEcRuBMRb4QIFk8","lat":46.506751099999995,"lon":6.6560944,"name":"East Side Pully","city":"Lausanne","category":"gastro","tags":["barrierefrei","google_wc_accessible"],"hours":{"type":"unknown"}},{"id":"gplace_ChIJFcOR1JMvjEcRr1zaop6uEyY","lat":46.5166841,"lon":6.6448374999999995,"name":"Café Restaurant Shiraz","city":"Lausanne","category":"gastro","tags":["barrierefrei","google_wc_accessible"],"hours":{"type":"unknown"}},{"id":"gplace_ChIJbZ64McovjEcRYiI7EjRhUJU","lat":46.512633099999995,"lon":6.6371036,"name":"Fondue chinoise Tang Roulou","city":"Lausanne","category":"gastro","tags":["google_has_restroom"],"hours":{"type":"unknown"}},{"id":"gplace_ChIJ8XbM2bIvjEcRsumePxY7158","lat":46.515440999999996,"lon":6.6493204,"name":"Le Rossignol","city":"Lausanne","category":"gastro","tags":["barrierefrei","google_wc_accessible"],"hours":{"type":"unknown"}},{"id":"gplace_ChIJUUILFa0vjEcRIAVrsjkzdc0","lat":46.514603799999996,"lon":6.6530990999999995,"name":"Keyann Lebanese café","city":"Lausanne","category":"gastro","tags":["google_has_restroom"],"hours":{"type":"unknown"}},{"id":"gplace_ChIJVatEHQAzjEcRTxqMnid2zxQ","lat":46.5058702,"lon":6.659999099999999,"name":"Bambino","city":"Lausanne","category":"gastro","tags":["barrierefrei","google_wc_accessible"],"hours":{"type":"unknown"}},{"id":"gplace_ChIJJUW5yjkvjEcRd9sPkxvOuRA","lat":46.5123286,"lon":6.638839,"name":"Rumah","city":"Lausanne","category":"gastro","tags":["barrierefrei","google_wc_accessible"],"hours":{"type":"unknown"}},{"id":"gplace_ChIJm5uuAi4ujEcRdV7tDLdiYNc","lat":46.5208593,"lon":6.6376033,"name":"Coop Supermarché Lausanne Caroline","city":"Lausanne","category":"other","tags":["barrierefrei","google_wc_accessible"],"hours":{"type":"unknown"}},{"id":"gplace_ChIJE0bt5YwvjEcR-vw3s1HcmU4","lat":46.5206502,"lon":6.6355794999999995,"name":"The Sweet Sage Pâtisserie","city":"Lausanne","category":"gastro","tags":["barrierefrei","google_wc_accessible"],"hours":{"type":"unknown"}},{"id":"gplace_ChIJ5z9zZjEujEcRAX3kUZZ3X3w","lat":46.522385899999996,"lon":6.6343339,"name":"Vieux-Lausanne Restaurant & Giraf Bar","city":"Lausanne","category":"gastro","tags":["barrierefrei","google_entrance_accessible"],"hours":{"type":"unknown"}},{"id":"gplace_ChIJz1bX4zMujEcRDLSYjd7SNyk","lat":46.521627599999995,"lon":6.6347133,"name":"Crêperie la Chandeleur","city":"Lausanne","category":"gastro","tags":["google_has_restroom"],"hours":{"type":"unknown"}},{"id":"gplace_ChIJkx47qjIujEcR5RZ1b3CMPZs","lat":46.520039999999995,"lon":6.6364038999999995,"name":"McDonald’s","city":"Lausanne","category":"gastro","tags":["barrierefrei","google_wc_accessible"],"hours":{"type":"unknown"}},{"id":"gplace_ChIJ98mcgjQujEcRpyAHAeO9NFk","lat":46.518541,"lon":6.635155000000001,"name":"Coop City Lausanne St. François","city":"Lausanne","category":"other","tags":["barrierefrei","google_wc_accessible"],"hours":{"type":"unknown"}},{"id":"gplace_ChIJcV4yVTEujEcR-4IC1sGzVzg","lat":46.521896,"lon":6.6359721,"name":"L'Evêché - Café-Restaurant","city":"Lausanne","category":"gastro","tags":["barrierefrei","google_wc_accessible"],"hours":{"type":"unknown"}},{"id":"gplace_ChIJEfE7ATQujEcR9a3grdltbMg","lat":46.521482999999996,"lon":6.6365419,"name":"ALDI","city":"Lausanne","category":"other","tags":["barrierefrei","google_wc_accessible"],"hours":{"type":"unknown"}},{"id":"gplace_ChIJh9xZVkAujEcRC2BT5VsWMc8","lat":46.5272222,"lon":6.651666700000001,"name":"Supermarché Migros","city":"Lausanne","category":"other","tags":["barrierefrei","google_wc_accessible"],"hours":{"type":"unknown"}},{"id":"gplace_ChIJz7R9U_ovjEcR_LTVTRo774M","lat":46.518459299999996,"lon":6.6370806,"name":"TAOLÉ Table Libanaise","city":"Lausanne","category":"gastro","tags":["barrierefrei","google_entrance_accessible"],"hours":{"type":"unknown"}},{"id":"gplace_ChIJgxf0RTQujEcRRlTHq9EySJ0","lat":46.5201463,"lon":6.6377261999999995,"name":"Bleu Lézard","city":"Lausanne","category":"gastro","tags":["barrierefrei","google_entrance_accessible"],"hours":{"type":"unknown"}},{"id":"gplace_ChIJ_cTByD0vjEcRGgM1mWLfkl8","lat":46.5176883,"lon":6.6443143,"name":"La Esquina","city":"Lausanne","category":"gastro","tags":["google_has_restroom"],"hours":{"type":"unknown"}},{"id":"gplace_ChIJo4iQG2gujEcRWana8qUGXzc","lat":46.53546,"lon":6.655259999999999,"name":"ALDI SUISSE Lausanne","city":"Lausanne","category":"other","tags":["barrierefrei","google_wc_accessible"],"hours":{"type":"unknown"}},{"id":"gplace_ChIJbeFPSp8vjEcRQF-6ghgtbA8","lat":46.527215399999996,"lon":6.6410934,"name":"Le Marrakech","city":"Lausanne","category":"gastro","tags":["barrierefrei","google_wc_accessible"],"hours":{"type":"unknown"}},{"id":"gplace_ChIJT8qCDOwvjEcR-wU9UEPI8h4","lat":46.543511699999996,"lon":6.6474025999999995,"name":"🔥 VOTRA – 🍽️🔥 Restaurant Albanais & Balkanique à Lausanne (Isabelle-de-Montolieu) | Restorant Shqiptar në Zvicër 🔴⚫✅","city":"Lausanne","category":"gastro","tags":["barrierefrei","google_wc_accessible"],"hours":{"type":"unknown"}},{"id":"gplace_ChIJv8HScBYujEcRZkpU-JNmMqw","lat":46.537221699999996,"lon":6.6389842,"name":"Pinte du Lac de Sauvabelin","city":"Lausanne","category":"gastro","tags":["barrierefrei","google_wc_accessible"],"hours":{"type":"unknown"}},{"id":"gplace_ChIJpWXD5EAujEcRShheiGG-cNQ","lat":46.5328825,"lon":6.646652100000001,"name":"Coop Supermarché La Sallaz","city":"Lausanne","category":"other","tags":["barrierefrei","google_wc_accessible"],"hours":{"type":"unknown"}},{"id":"gplace_ChIJYSwJ5BcujEcRhB4gJcjpLgo","lat":46.5366545,"lon":6.634818900000001,"name":"la Forêt","city":"Lausanne","category":"gastro","tags":["barrierefrei","google_wc_accessible"],"hours":{"type":"unknown"}},{"id":"gplace_ChIJ66SJwzkujEcRydaPxWh63Vw","lat":46.527212999999996,"lon":6.639037,"name":"Restaurant Dalat","city":"Lausanne","category":"gastro","tags":["google_has_restroom"],"hours":{"type":"unknown"}},{"id":"gplace_ChIJ66G4rTAujEcRatOFHIPxWZM","lat":46.5260368,"lon":6.6367236,"name":"à la Bossette","city":"Lausanne","category":"gastro","tags":["barrierefrei","google_wc_accessible"],"hours":{"type":"unknown"}},{"id":"gplace_ChIJ7Ud5bAAvjEcRjvFqihX6IrI","lat":46.531448,"lon":6.6460034,"name":"Top Beef","city":"Lausanne","category":"gastro","tags":["barrierefrei","google_entrance_accessible"],"hours":{"type":"unknown"}}]