[{"id":"fuel_175768727","lat":51.843102,"lon":10.7821458,"name":"Supertank","city":"Wernigerode","category":"tankstelle","tags":["barrierefrei","google_wc_accessible"],"operator":"Total","opening_hours":"Mo 07:00-20:00; Tu 07:00-20:00; We 07:00-20:00; Th 07:00-20:00; Fr 07:00-20:00; Sa 07:00-20:00","gplace_id":"ChIJrbNKTeYMpUcRSKF3Ld_9fiE","hours":{"type":"weekly","weekly":{"0":{"isOpen":false,"periods":[]},"1":{"isOpen":true,"periods":[{"open":420,"close":1200}]},"2":{"isOpen":true,"periods":[{"open":420,"close":1200}]},"3":{"isOpen":true,"periods":[{"open":420,"close":1200}]},"4":{"isOpen":true,"periods":[{"open":420,"close":1200}]},"5":{"isOpen":true,"periods":[{"open":420,"close":1200}]},"6":{"isOpen":true,"periods":[{"open":420,"close":1200}]}},"original":"Mo 07:00-20:00; Tu 07:00-20:00; We 07:00-20:00; Th 07:00-20:00; Fr 07:00-20:00; Sa 07:00-20:00"}},{"id":"fuel_203771692","lat":51.9587592,"lon":10.753628,"name":"Tankstelle","city":"","category":"tankstelle","tags":[],"opening_hours":"Mo 06:00-20:00; Tu 06:00-20:00; We 06:00-20:00; Th 06:00-20:00; Fr 06:00-20:00; Sa 07:00-15:00","gplace_id":"ChIJsfeypgFupUcRJ9DKHXUoS8A","hours":{"type":"weekly","weekly":{"0":{"isOpen":false,"periods":[]},"1":{"isOpen":true,"periods":[{"open":360,"close":1200}]},"2":{"isOpen":true,"periods":[{"open":360,"close":1200}]},"3":{"isOpen":true,"periods":[{"open":360,"close":1200}]},"4":{"isOpen":true,"periods":[{"open":360,"close":1200}]},"5":{"isOpen":true,"periods":[{"open":360,"close":1200}]},"6":{"isOpen":true,"periods":[{"open":420,"close":900}]}},"original":"Mo 06:00-20:00; Tu 06:00-20:00; We 06:00-20:00; Th 06:00-20:00; Fr 06:00-20:00; Sa 07:00-15:00"}},{"id":"fuel_203986035","lat":51.8918106,"lon":10.1610755,"name":"Shell","city":"","category":"tankstelle","tags":[],"opening_hours":"Mo-Su,PH 00:00-24:00","operator":"Shell","hours":{"type":"24_7"}},{"id":"fuel_237632788","lat":51.1039442,"lon":10.6640564,"name":"Classic","city":"Bad Langensalza","category":"tankstelle","tags":[],"opening_hours":"24/7","operator":"Classic","hours":{"type":"24_7"}},{"id":"fuel_237632801","lat":51.1133796,"lon":10.6592523,"name":"Aral","city":"Bad Langensalza","category":"tankstelle","tags":[],"opening_hours":"Mo-Su 05:00-23:00","operator":"Aral","hours":{"type":"weekly","weekly":{"0":{"isOpen":true,"periods":[{"open":300,"close":1380}]},"1":{"isOpen":true,"periods":[{"open":300,"close":1380}]},"2":{"isOpen":true,"periods":[{"open":300,"close":1380}]},"3":{"isOpen":true,"periods":[{"open":300,"close":1380}]},"4":{"isOpen":true,"periods":[{"open":300,"close":1380}]},"5":{"isOpen":true,"periods":[{"open":300,"close":1380}]},"6":{"isOpen":true,"periods":[{"open":300,"close":1380}]}},"original":"Mo-Su 05:00-23:00"}},{"id":"fuel_243883066","lat":51.9686704,"lon":10.6997797,"name":"Aral","city":"Osterwieck","category":"tankstelle","tags":[],"opening_hours":"Mo-Fr 06:00-22:00; Sa 07:00-20:00; Su 08:00-20:00","operator":"Autohaus Osterwieck GmbH","hours":{"type":"weekly","weekly":{"0":{"isOpen":true,"periods":[{"open":480,"close":1200}]},"1":{"isOpen":true,"periods":[{"open":360,"close":1320}]},"2":{"isOpen":true,"periods":[{"open":360,"close":1320}]},"3":{"isOpen":true,"periods":[{"open":360,"close":1320}]},"4":{"isOpen":true,"periods":[{"open":360,"close":1320}]},"5":{"isOpen":true,"periods":[{"open":360,"close":1320}]},"6":{"isOpen":true,"periods":[{"open":420,"close":1200}]}},"original":"Mo-Fr 06:00-22:00; Sa 07:00-20:00; Su 08:00-20:00"}},{"id":"fuel_244533953","lat":51.8582953,"lon":10.704417,"name":"HEM","city":"Ilsenburg","category":"tankstelle","tags":[],"operator":"HEM","opening_hours":"Su 07:00-21:00; Mo 05:00-22:00; Tu 05:00-22:00; We 05:00-22:00; Th 05:00-22:00; Fr 05:00-22:00; Sa 07:00-21:00","gplace_id":"ChIJGWtIfaQSpUcRx6s1pQ8olcc","hours":{"type":"weekly","weekly":{"0":{"isOpen":true,"periods":[{"open":420,"close":1260}]},"1":{"isOpen":true,"periods":[{"open":300,"close":1320}]},"2":{"isOpen":true,"periods":[{"open":300,"close":1320}]},"3":{"isOpen":true,"periods":[{"open":300,"close":1320}]},"4":{"isOpen":true,"periods":[{"open":300,"close":1320}]},"5":{"isOpen":true,"periods":[{"open":300,"close":1320}]},"6":{"isOpen":true,"periods":[{"open":420,"close":1260}]}},"original":"Su 07:00-21:00; Mo 05:00-22:00; Tu 05:00-22:00; We 05:00-22:00; Th 05:00-22:00; Fr 05:00-22:00; Sa 07:00-21:00"}},{"id":"fuel_249550592","lat":51.0072901,"lon":10.252727,"name":"Shell Eisenach Nord","city":"","category":"tankstelle","tags":[],"operator":"Shell","opening_hours":"Su 00:00+","gplace_id":"ChIJuWX_PmyZpEcRtdsIJcfUwlA","hours":{"type":"unknown","original":"Su 00:00+"}},{"id":"fuel_257889897","lat":51.104469,"lon":10.6643496,"name":"Total","city":"Bad Langensalza","category":"tankstelle","tags":[],"opening_hours":"Mo-Fr 05:00-23:00; Sa 06:00-23:00; Su 07:00-23:00","operator":"TOTAL","hours":{"type":"weekly","weekly":{"0":{"isOpen":true,"periods":[{"open":420,"close":1380}]},"1":{"isOpen":true,"periods":[{"open":300,"close":1380}]},"2":{"isOpen":true,"periods":[{"open":300,"close":1380}]},"3":{"isOpen":true,"periods":[{"open":300,"close":1380}]},"4":{"isOpen":true,"periods":[{"open":300,"close":1380}]},"5":{"isOpen":true,"periods":[{"open":300,"close":1380}]},"6":{"isOpen":true,"periods":[{"open":360,"close":1380}]}},"original":"Mo-Fr 05:00-23:00; Sa 06:00-23:00; Su 07:00-23:00"}},{"id":"fuel_262324279","lat":51.20486,"lon":10.462676,"name":"bft","city":"Mühlhausen","category":"tankstelle","tags":["barrierefrei","google_wc_accessible"],"opening_hours":"Mo-Fr 06:00-22:00; Sa 08:00-21:00; Su 08:00-20:00","operator":"KP-Petrol GmbH","hours":{"type":"weekly","weekly":{"0":{"isOpen":true,"periods":[{"open":480,"close":1200}]},"1":{"isOpen":true,"periods":[{"open":360,"close":1320}]},"2":{"isOpen":true,"periods":[{"open":360,"close":1320}]},"3":{"isOpen":true,"periods":[{"open":360,"close":1320}]},"4":{"isOpen":true,"periods":[{"open":360,"close":1320}]},"5":{"isOpen":true,"periods":[{"open":360,"close":1320}]},"6":{"isOpen":true,"periods":[{"open":480,"close":1260}]}},"original":"Mo-Fr 06:00-22:00; Sa 08:00-21:00; Su 08:00-20:00"}},{"id":"fuel_263692098","lat":51.2479065,"lon":10.6554985,"name":"Tankstelle","city":"","category":"tankstelle","tags":[],"operator":"Eni","gplace_id":"ChIJQ9gH4Kz1pEcR2UV3oLIz3tk","hours":{"type":"unknown"}},{"id":"fuel_264389659","lat":51.1950181,"lon":10.0358082,"name":"Kaufland","city":"","category":"other","tags":[],"operator":"Kaufland","opening_hours":"Mo 06:30-22:00; Tu 06:30-22:00; We 06:30-22:00; Th 06:30-22:00; Fr 06:30-22:00; Sa 06:30-22:00","gplace_id":"ChIJzduUy8a5pEcRjE2RlIbMFFA","hours":{"type":"weekly","weekly":{"0":{"isOpen":false,"periods":[]},"1":{"isOpen":true,"periods":[{"open":390,"close":1320}]},"2":{"isOpen":true,"periods":[{"open":390,"close":1320}]},"3":{"isOpen":true,"periods":[{"open":390,"close":1320}]},"4":{"isOpen":true,"periods":[{"open":390,"close":1320}]},"5":{"isOpen":true,"periods":[{"open":390,"close":1320}]},"6":{"isOpen":true,"periods":[{"open":390,"close":1320}]}},"original":"Mo 06:30-22:00; Tu 06:30-22:00; We 06:30-22:00; Th 06:30-22:00; Fr 06:30-22:00; Sa 06:30-22:00"}},{"id":"fuel_267101741","lat":51.7326553,"lon":10.2389395,"name":"Aral","city":"Osterode am Harz","category":"tankstelle","tags":[],"opening_hours":"24/7","operator":"Aral","hours":{"type":"24_7"}},{"id":"fuel_267650836","lat":51.7301811,"lon":10.2393655,"name":"Das Auto e.K.","city":"Osterode am Harz","category":"other","tags":[],"opening_hours":"24/7","operator":"Das Auto e.K.","hours":{"type":"24_7"}},{"id":"fuel_267828621","lat":51.6494725,"lon":10.2376637,"name":"LEO","city":"","category":"other","tags":[],"opening_hours":"Su 08:00-18:00; Mo 08:00-19:00; Tu 08:00-19:00; We 08:00-19:00; Th 08:00-19:00; Fr 08:00-19:00; Sa 08:00-18:00","gplace_id":"ChIJjZ6C3YcmpUcRy0R-PevNVL0","hours":{"type":"weekly","weekly":{"0":{"isOpen":true,"periods":[{"open":480,"close":1080}]},"1":{"isOpen":true,"periods":[{"open":480,"close":1140}]},"2":{"isOpen":true,"periods":[{"open":480,"close":1140}]},"3":{"isOpen":true,"periods":[{"open":480,"close":1140}]},"4":{"isOpen":true,"periods":[{"open":480,"close":1140}]},"5":{"isOpen":true,"periods":[{"open":480,"close":1140}]},"6":{"isOpen":true,"periods":[{"open":480,"close":1080}]}},"original":"Su 08:00-18:00; Mo 08:00-19:00; Tu 08:00-19:00; We 08:00-19:00; Th 08:00-19:00; Fr 08:00-19:00; Sa 08:00-18:00"}},{"id":"fuel_270342978","lat":51.8705798,"lon":10.0124237,"name":"Shell","city":"","category":"tankstelle","tags":[],"operator":"Shell","opening_hours":"Su 08:00-21:00; Mo 07:00-21:00; Tu 07:00-21:00; We 07:00-21:00; Th 07:00-21:00; Fr 07:00-21:00; Sa 07:00-21:00","gplace_id":"ChIJmSOwcEfLukcRqje2OOrv5QU","hours":{"type":"weekly","weekly":{"0":{"isOpen":true,"periods":[{"open":480,"close":1260}]},"1":{"isOpen":true,"periods":[{"open":420,"close":1260}]},"2":{"isOpen":true,"periods":[{"open":420,"close":1260}]},"3":{"isOpen":true,"periods":[{"open":420,"close":1260}]},"4":{"isOpen":true,"periods":[{"open":420,"close":1260}]},"5":{"isOpen":true,"periods":[{"open":420,"close":1260}]},"6":{"isOpen":true,"periods":[{"open":420,"close":1260}]}},"original":"Su 08:00-21:00; Mo 07:00-21:00; Tu 07:00-21:00; We 07:00-21:00; Th 07:00-21:00; Fr 07:00-21:00; Sa 07:00-21:00"}},{"id":"fuel_272297479","lat":51.6890067,"lon":10.8448049,"name":"Total","city":"Oberharz am Brocken","category":"tankstelle","tags":[],"opening_hours":"Mo-Sa 05:00-22:00; Su,PH 06:00-22:00","operator":"Uwe Kindervater","hours":{"type":"weekly","weekly":{"0":{"isOpen":true,"periods":[{"open":360,"close":1320}]},"1":{"isOpen":true,"periods":[{"open":300,"close":1320}]},"2":{"isOpen":true,"periods":[{"open":300,"close":1320}]},"3":{"isOpen":true,"periods":[{"open":300,"close":1320}]},"4":{"isOpen":true,"periods":[{"open":300,"close":1320}]},"5":{"isOpen":true,"periods":[{"open":300,"close":1320}]},"6":{"isOpen":true,"periods":[{"open":300,"close":1320}]}},"original":"Mo-Sa 05:00-22:00; Su,PH 06:00-22:00"}},{"id":"fuel_279227906","lat":51.1179038,"lon":10.032596,"name":"Honsel","city":"Ringgau","category":"other","tags":[],"operator":"Honsel","opening_hours":"Su 08:00-19:00; Mo 06:00-20:00; Tu 06:00-20:00; We 06:00-20:00; Th 06:00-20:00; Fr 06:00-20:00; Sa 08:00-19:00","gplace_id":"ChIJCzYHDfu6pEcRrbTD7ejW5S4","hours":{"type":"weekly","weekly":{"0":{"isOpen":true,"periods":[{"open":480,"close":1140}]},"1":{"isOpen":true,"periods":[{"open":360,"close":1200}]},"2":{"isOpen":true,"periods":[{"open":360,"close":1200}]},"3":{"isOpen":true,"periods":[{"open":360,"close":1200}]},"4":{"isOpen":true,"periods":[{"open":360,"close":1200}]},"5":{"isOpen":true,"periods":[{"open":360,"close":1200}]},"6":{"isOpen":true,"periods":[{"open":480,"close":1140}]}},"original":"Su 08:00-19:00; Mo 06:00-20:00; Tu 06:00-20:00; We 06:00-20:00; Th 06:00-20:00; Fr 06:00-20:00; Sa 08:00-19:00"}},{"id":"fuel_279767011","lat":51.385157,"lon":10.1655843,"name":"HEM","city":"Heilbad Heiligenstadt","category":"tankstelle","tags":[],"opening_hours":"Mo-Su 00:00-23:59","operator":"HEM","hours":{"type":"weekly","weekly":{"0":{"isOpen":true,"periods":[{"open":0,"close":1439}]},"1":{"isOpen":true,"periods":[{"open":0,"close":1439}]},"2":{"isOpen":true,"periods":[{"open":0,"close":1439}]},"3":{"isOpen":true,"periods":[{"open":0,"close":1439}]},"4":{"isOpen":true,"periods":[{"open":0,"close":1439}]},"5":{"isOpen":true,"periods":[{"open":0,"close":1439}]},"6":{"isOpen":true,"periods":[{"open":0,"close":1439}]}},"original":"Mo-Su 00:00-23:59"}},{"id":"fuel_282255609","lat":51.7144364,"lon":10.275381,"name":"Kaufland Tankstelle","city":"","category":"tankstelle","tags":[],"operator":"Kaufland","opening_hours":"Mo 07:00-20:00; Tu 07:00-20:00; We 07:00-20:00; Th 07:00-20:00; Fr 07:00-20:00; Sa 07:00-20:00","gplace_id":"ChIJs2wccCslpUcRQ0Suz-5wpk4","hours":{"type":"weekly","weekly":{"0":{"isOpen":false,"periods":[]},"1":{"isOpen":true,"periods":[{"open":420,"close":1200}]},"2":{"isOpen":true,"periods":[{"open":420,"close":1200}]},"3":{"isOpen":true,"periods":[{"open":420,"close":1200}]},"4":{"isOpen":true,"periods":[{"open":420,"close":1200}]},"5":{"isOpen":true,"periods":[{"open":420,"close":1200}]},"6":{"isOpen":true,"periods":[{"open":420,"close":1200}]}},"original":"Mo 07:00-20:00; Tu 07:00-20:00; We 07:00-20:00; Th 07:00-20:00; Fr 07:00-20:00; Sa 07:00-20:00"}},{"id":"fuel_282890408","lat":51.7818221,"lon":10.1997694,"name":"CLASSIC Tankstellen GmbH & Co. KG","city":"","category":"tankstelle","tags":[],"operator":"Star","opening_hours":"Su 08:00-21:00; Mo 05:30-21:00; Tu 05:30-21:00; We 05:30-21:00; Th 05:30-21:00; Fr 05:30-21:00; Sa 07:00-21:00","gplace_id":"ChIJ58RyQQAxpUcRN36cLwoUJe0","hours":{"type":"weekly","weekly":{"0":{"isOpen":true,"periods":[{"open":480,"close":1260}]},"1":{"isOpen":true,"periods":[{"open":330,"close":1260}]},"2":{"isOpen":true,"periods":[{"open":330,"close":1260}]},"3":{"isOpen":true,"periods":[{"open":330,"close":1260}]},"4":{"isOpen":true,"periods":[{"open":330,"close":1260}]},"5":{"isOpen":true,"periods":[{"open":330,"close":1260}]},"6":{"isOpen":true,"periods":[{"open":420,"close":1260}]}},"original":"Su 08:00-21:00; Mo 05:30-21:00; Tu 05:30-21:00; We 05:30-21:00; Th 05:30-21:00; Fr 05:30-21:00; Sa 07:00-21:00"}},{"id":"fuel_288593523","lat":51.3190788,"lon":10.3082666,"name":"AVEX","city":"Dingelstädt","category":"other","tags":[],"opening_hours":"24/7","operator":"AVEX","hours":{"type":"24_7"}},{"id":"fuel_292701202","lat":51.4955216,"lon":10.1808607,"name":"Tankstelle","city":"","category":"tankstelle","tags":[],"opening_hours":"Su 00:00+","gplace_id":"ChIJh3Dbwn_ZpEcRLUa2IB_Jfec","hours":{"type":"unknown","original":"Su 00:00+"}},{"id":"fuel_297208676","lat":51.9100497,"lon":10.4705345,"name":"HEM","city":"Goslar","category":"tankstelle","tags":["barrierefrei","google_wc_accessible"],"opening_hours":"Mo-Fr 06:00-22:00; Sa 07:00-22:00; Su 07:00-22:00","operator":"Tamoil","hours":{"type":"weekly","weekly":{"0":{"isOpen":true,"periods":[{"open":420,"close":1320}]},"1":{"isOpen":true,"periods":[{"open":360,"close":1320}]},"2":{"isOpen":true,"periods":[{"open":360,"close":1320}]},"3":{"isOpen":true,"periods":[{"open":360,"close":1320}]},"4":{"isOpen":true,"periods":[{"open":360,"close":1320}]},"5":{"isOpen":true,"periods":[{"open":360,"close":1320}]},"6":{"isOpen":true,"periods":[{"open":420,"close":1320}]}},"original":"Mo-Fr 06:00-22:00; Sa 07:00-22:00; Su 07:00-22:00"}},{"id":"fuel_297714068","lat":51.4227823,"lon":10.6064585,"name":"Shell","city":"Niedergebra","category":"tankstelle","tags":[],"opening_hours":"Mo-Fr 05:00-21:00; Sa 06:00-21:00; Su,PH 07:00-21:00","operator":"Shell","hours":{"type":"weekly","weekly":{"0":{"isOpen":true,"periods":[{"open":420,"close":1260}]},"1":{"isOpen":true,"periods":[{"open":300,"close":1260}]},"2":{"isOpen":true,"periods":[{"open":300,"close":1260}]},"3":{"isOpen":true,"periods":[{"open":300,"close":1260}]},"4":{"isOpen":true,"periods":[{"open":300,"close":1260}]},"5":{"isOpen":true,"periods":[{"open":300,"close":1260}]},"6":{"isOpen":true,"periods":[{"open":360,"close":1260}]}},"original":"Mo-Fr 05:00-21:00; Sa 06:00-21:00; Su,PH 07:00-21:00"}},{"id":"fuel_302867125","lat":51.7877655,"lon":10.0642356,"name":"Aral","city":"","category":"tankstelle","tags":[],"opening_hours":"Su 07:00-21:00; Mo 06:00-21:00; Tu 06:00-21:00; We 06:00-21:00; Th 06:00-21:00; Fr 06:00-21:00; Sa 07:00-21:00","gplace_id":"ChIJrVg8RVkypUcR9ZtTahHBxaE","hours":{"type":"weekly","weekly":{"0":{"isOpen":true,"periods":[{"open":420,"close":1260}]},"1":{"isOpen":true,"periods":[{"open":360,"close":1260}]},"2":{"isOpen":true,"periods":[{"open":360,"close":1260}]},"3":{"isOpen":true,"periods":[{"open":360,"close":1260}]},"4":{"isOpen":true,"periods":[{"open":360,"close":1260}]},"5":{"isOpen":true,"periods":[{"open":360,"close":1260}]},"6":{"isOpen":true,"periods":[{"open":420,"close":1260}]}},"original":"Su 07:00-21:00; Mo 06:00-21:00; Tu 06:00-21:00; We 06:00-21:00; Th 06:00-21:00; Fr 06:00-21:00; Sa 07:00-21:00"}},{"id":"fuel_318133786","lat":51.6976538,"lon":10.1524088,"name":"Raiffeisen","city":"","category":"tankstelle","tags":[],"opening_hours":"24/7","hours":{"type":"24_7"}},{"id":"fuel_319217122","lat":51.5163257,"lon":10.2429076,"name":"Aral","city":"Duderstadt","category":"tankstelle","tags":[],"opening_hours":"Mo-Fr 05:30-22:00; Sa-Su 06:30-22:00","operator":"Jens Nolte","hours":{"type":"weekly","weekly":{"0":{"isOpen":true,"periods":[{"open":390,"close":1320}]},"1":{"isOpen":true,"periods":[{"open":330,"close":1320}]},"2":{"isOpen":true,"periods":[{"open":330,"close":1320}]},"3":{"isOpen":true,"periods":[{"open":330,"close":1320}]},"4":{"isOpen":true,"periods":[{"open":330,"close":1320}]},"5":{"isOpen":true,"periods":[{"open":330,"close":1320}]},"6":{"isOpen":true,"periods":[{"open":390,"close":1320}]}},"original":"Mo-Fr 05:30-22:00; Sa-Su 06:30-22:00"}},{"id":"fuel_319869495","lat":51.9287664,"lon":10.1420895,"name":"Aral","city":"Seesen","category":"tankstelle","tags":["sanifair","barrierefrei","kostenpflichtig"],"opening_hours":"24/7","operator":"BAT Harz West Areas Autobahn West GmbH","hours":{"type":"24_7"},"fee":"yes"},{"id":"fuel_321475071","lat":51.4124144,"lon":10.4382945,"name":"Shell","city":"Breitenworbis","category":"tankstelle","tags":[],"opening_hours":"24/7","operator":"Grund Tankstellen GmbH","hours":{"type":"24_7"}},{"id":"fuel_322831007","lat":51.5086765,"lon":10.2496055,"name":"Raiffeisen-Tankstelle","city":"Duderstadt","category":"tankstelle","tags":[],"opening_hours":"PH,Mo-Su 00:00-24:00","operator":"Raiffeisen","hours":{"type":"unknown","original":"PH,Mo-Su 00:00-24:00"}},{"id":"fuel_347628351","lat":51.3359904,"lon":10.5280963,"name":"Tankstelle Keula","city":"Helbedündorf","category":"tankstelle","tags":[],"operator":"Nord Energie","gplace_id":"not_found","hours":{"type":"unknown"}},{"id":"fuel_354950397","lat":51.6080703,"lon":10.1345464,"name":"Tankstelle","city":"","category":"tankstelle","tags":[],"opening_hours":"Tu 00:00-00:00","gplace_id":"ChIJY_FY1kEopUcR1whqO66Nzpo","hours":{"type":"weekly","weekly":{"0":{"isOpen":false,"periods":[]},"1":{"isOpen":false,"periods":[]},"2":{"isOpen":true,"periods":[{"open":0,"close":1440}]},"3":{"isOpen":false,"periods":[]},"4":{"isOpen":false,"periods":[]},"5":{"isOpen":false,"periods":[]},"6":{"isOpen":false,"periods":[]}},"original":"Tu 00:00-00:00"}},{"id":"fuel_385128639","lat":51.3756559,"lon":10.1307599,"name":"Honsel","city":"","category":"other","tags":[],"opening_hours":"Mo-Fr 06:30-19:30; Sa 08:00-19:30; Su 09:00-19:30","operator":"Honsel","hours":{"type":"weekly","weekly":{"0":{"isOpen":true,"periods":[{"open":540,"close":1170}]},"1":{"isOpen":true,"periods":[{"open":390,"close":1170}]},"2":{"isOpen":true,"periods":[{"open":390,"close":1170}]},"3":{"isOpen":true,"periods":[{"open":390,"close":1170}]},"4":{"isOpen":true,"periods":[{"open":390,"close":1170}]},"5":{"isOpen":true,"periods":[{"open":390,"close":1170}]},"6":{"isOpen":true,"periods":[{"open":480,"close":1170}]}},"original":"Mo-Fr 06:30-19:30; Sa 08:00-19:30; Su 09:00-19:30"}},{"id":"fuel_392813907","lat":51.7157465,"lon":10.279029,"name":"Schlüsseltankstelle","city":"Osterode am Harz","category":"other","tags":[],"operator":"Mävers","opening_hours":"Su 00:00+","gplace_id":"ChIJOVV2JOkkpUcRuG7V3sermqc","hours":{"type":"unknown","original":"Su 00:00+"}},{"id":"fuel_402517430","lat":51.8791841,"lon":10.1531946,"name":"Tankpool","city":"","category":"other","tags":[],"opening_hours":"Su 00:00+","gplace_id":"ChIJ33aDjIA2pUcRY2IuFQnu0m8","hours":{"type":"unknown","original":"Su 00:00+"}},{"id":"fuel_424206136","lat":51.0838881,"lon":10.9965695,"name":"Tankstelle","city":"Riethnordhausen","category":"tankstelle","tags":[],"opening_hours":"24/7","operator":"Universal-Agrar Mittelhausen e.G.","hours":{"type":"24_7"}},{"id":"fuel_443874854","lat":51.5262059,"lon":10.1846528,"name":"Tankstelle","city":"","category":"tankstelle","tags":[],"gplace_id":"not_found","hours":{"type":"unknown"}},{"id":"fuel_448513485","lat":51.7694627,"lon":10.203166,"name":"Raiffeisen SB-Tankstelle","city":"Bad Grund","category":"tankstelle","tags":[],"opening_hours":"24/7","hours":{"type":"24_7"}},{"id":"fuel_455048290","lat":51.2367164,"lon":10.9449087,"name":"Shell","city":"Greußen","category":"tankstelle","tags":[],"opening_hours":"24/7","operator":"Shell","hours":{"type":"24_7"}},{"id":"fuel_461227297","lat":51.0504614,"lon":10.2263716,"name":"Aral","city":"Amt Creuzburg","category":"tankstelle","tags":[],"opening_hours":"24/7","operator":"Jörg Eisfeld","hours":{"type":"24_7"}},{"id":"fuel_467092627","lat":51.1870029,"lon":10.061195,"name":"Avia","city":"","category":"tankstelle","tags":[],"operator":"Avia","opening_hours":"Mo 08:00-20:00; Tu 08:00-20:00; We 08:00-20:00; Th 08:00-20:00; Fr 08:00-20:00; Sa 08:00-20:00","gplace_id":"ChIJy661fo-5pEcRiV7Syhbyda0","hours":{"type":"weekly","weekly":{"0":{"isOpen":false,"periods":[]},"1":{"isOpen":true,"periods":[{"open":480,"close":1200}]},"2":{"isOpen":true,"periods":[{"open":480,"close":1200}]},"3":{"isOpen":true,"periods":[{"open":480,"close":1200}]},"4":{"isOpen":true,"periods":[{"open":480,"close":1200}]},"5":{"isOpen":true,"periods":[{"open":480,"close":1200}]},"6":{"isOpen":true,"periods":[{"open":480,"close":1200}]}},"original":"Mo 08:00-20:00; Tu 08:00-20:00; We 08:00-20:00; Th 08:00-20:00; Fr 08:00-20:00; Sa 08:00-20:00"}},{"id":"fuel_472372180","lat":51.8512195,"lon":10.1765488,"name":"Freise","city":"","category":"other","tags":[],"opening_hours":"Su 00:00+","gplace_id":"ChIJvR5wc8Q2pUcRiFYCaxLGfOI","hours":{"type":"unknown","original":"Su 00:00+"}},{"id":"fuel_473733017","lat":51.5119911,"lon":10.242101,"name":"Autogas-Tankstelle","city":"","category":"tankstelle","tags":[],"operator":"Autohaus Abicht","gplace_id":"not_found","hours":{"type":"unknown"}},{"id":"fuel_504709527","lat":51.6442189,"lon":10.3179985,"name":"Pfeffer SB-Tanke","city":"Herzberg am Harz","category":"tankstelle","tags":[],"opening_hours":"24/7","operator":"Aral","hours":{"type":"24_7"}},{"id":"fuel_506274496","lat":51.8108209,"lon":10.9386404,"name":"Erdgas CNG","city":"","category":"other","tags":[],"operator":"Stadtwerke Blankenburg","opening_hours":"Su 00:00+","gplace_id":"ChIJ1-oLdX6gpUcRaeq5xhGcD5U","hours":{"type":"unknown","original":"Su 00:00+"}},{"id":"fuel_528501498","lat":51.0081606,"lon":10.2541586,"name":"Shell Eisenach Süd","city":"","category":"tankstelle","tags":[],"operator":"Shell","opening_hours":"Su 00:00+","gplace_id":"ChIJVyhgv2yZpEcR9KBXOq0YA00","hours":{"type":"unknown","original":"Su 00:00+"}},{"id":"fuel_561214195","lat":51.8054866,"lon":10.9370922,"name":"ASM Autoservice","city":"Blankenburg","category":"other","tags":[],"opening_hours":"Mo-Fr 08:30-18:30; Sa 09:00-13:00","hours":{"type":"weekly","weekly":{"0":{"isOpen":false,"periods":[]},"1":{"isOpen":true,"periods":[{"open":510,"close":1110}]},"2":{"isOpen":true,"periods":[{"open":510,"close":1110}]},"3":{"isOpen":true,"periods":[{"open":510,"close":1110}]},"4":{"isOpen":true,"periods":[{"open":510,"close":1110}]},"5":{"isOpen":true,"periods":[{"open":510,"close":1110}]},"6":{"isOpen":true,"periods":[{"open":540,"close":780}]}},"original":"Mo-Fr 08:30-18:30; Sa 09:00-13:00"}},{"id":"fuel_568340414","lat":51.7914108,"lon":10.0374989,"name":"Raiffeisen Tankstelle","city":"Kalefeld","category":"tankstelle","tags":[],"opening_hours":"24/7","operator":"Raiffeisen","hours":{"type":"24_7"}},{"id":"fuel_667855709","lat":51.3018297,"lon":10.7734935,"name":"star","city":"Ebeleben","category":"tankstelle","tags":[],"operator":"star","gplace_id":"ChIJJW0Oje9YpEcRA5aDfkYCYqM","hours":{"type":"unknown"}},{"id":"fuel_671340308","lat":51.1353733,"lon":10.2320096,"name":"AVEX","city":"","category":"other","tags":[],"operator":"Gastankanlagen und Mineralölprodukte Handel GmbH","opening_hours":"Su 06:00-21:55; Mo 05:00-21:55; Tu 05:00-21:55; We 05:00-21:55; Th 05:00-21:55; Fr 05:00-21:55; Sa 06:00-21:55","gplace_id":"ChIJ4UDpLBGWpEcRDlDwFXYNvGg","hours":{"type":"weekly","weekly":{"0":{"isOpen":true,"periods":[{"open":360,"close":1315}]},"1":{"isOpen":true,"periods":[{"open":300,"close":1315}]},"2":{"isOpen":true,"periods":[{"open":300,"close":1315}]},"3":{"isOpen":true,"periods":[{"open":300,"close":1315}]},"4":{"isOpen":true,"periods":[{"open":300,"close":1315}]},"5":{"isOpen":true,"periods":[{"open":300,"close":1315}]},"6":{"isOpen":true,"periods":[{"open":360,"close":1315}]}},"original":"Su 06:00-21:55; Mo 05:00-21:55; Tu 05:00-21:55; We 05:00-21:55; Th 05:00-21:55; Fr 05:00-21:55; Sa 06:00-21:55"}},{"id":"fuel_675135670","lat":51.4911644,"lon":10.4197651,"name":"Autohaus Eisenbarth","city":"","category":"other","tags":[],"opening_hours":"Mo-Fr 06:00-19:00; Sa 08:00-18:00; Su 09:00-18:00","operator":"Chevrolet","hours":{"type":"weekly","weekly":{"0":{"isOpen":true,"periods":[{"open":540,"close":1080}]},"1":{"isOpen":true,"periods":[{"open":360,"close":1140}]},"2":{"isOpen":true,"periods":[{"open":360,"close":1140}]},"3":{"isOpen":true,"periods":[{"open":360,"close":1140}]},"4":{"isOpen":true,"periods":[{"open":360,"close":1140}]},"5":{"isOpen":true,"periods":[{"open":360,"close":1140}]},"6":{"isOpen":true,"periods":[{"open":480,"close":1080}]}},"original":"Mo-Fr 06:00-19:00; Sa 08:00-18:00; Su 09:00-18:00"}},{"id":"fuel_732712133","lat":51.9318427,"lon":10.4183646,"name":"Autohaus Bolluck GmbH","city":"Goslar","category":"other","tags":[],"opening_hours":"Mo-Fr 07:00-18:00; Sa 09:00-14:00","hours":{"type":"weekly","weekly":{"0":{"isOpen":false,"periods":[]},"1":{"isOpen":true,"periods":[{"open":420,"close":1080}]},"2":{"isOpen":true,"periods":[{"open":420,"close":1080}]},"3":{"isOpen":true,"periods":[{"open":420,"close":1080}]},"4":{"isOpen":true,"periods":[{"open":420,"close":1080}]},"5":{"isOpen":true,"periods":[{"open":420,"close":1080}]},"6":{"isOpen":true,"periods":[{"open":540,"close":840}]}},"original":"Mo-Fr 07:00-18:00; Sa 09:00-14:00"}},{"id":"fuel_732712219","lat":51.7617,"lon":10.0433,"name":"Bernd Schmidt KFZ- Meist...","city":"Northeim","category":"other","tags":[],"opening_hours":"Mo-Fr 08:00-18:00","hours":{"type":"weekly","weekly":{"0":{"isOpen":false,"periods":[]},"1":{"isOpen":true,"periods":[{"open":480,"close":1080}]},"2":{"isOpen":true,"periods":[{"open":480,"close":1080}]},"3":{"isOpen":true,"periods":[{"open":480,"close":1080}]},"4":{"isOpen":true,"periods":[{"open":480,"close":1080}]},"5":{"isOpen":true,"periods":[{"open":480,"close":1080}]},"6":{"isOpen":false,"periods":[]}},"original":"Mo-Fr 08:00-18:00"}},{"id":"fuel_732712467","lat":51.6713266,"lon":10.7266866,"name":"Tankstelle","city":"Oberharz am Brocken","category":"tankstelle","tags":[],"gplace_id":"not_found","hours":{"type":"unknown"}},{"id":"fuel_732712605","lat":51.6620962,"lon":10.2785283,"name":"RWG Südharz eG","city":"Elbingerode","category":"other","tags":[],"opening_hours":"Su 00:00+","gplace_id":"ChIJxZJCkBskpUcR7H2iJ5Vbwo0","hours":{"type":"unknown","original":"Su 00:00+"}},{"id":"fuel_732712827","lat":51.4720031,"lon":10.8112603,"name":"Autogas Tankstelle","city":"Nordhausen","category":"tankstelle","tags":[],"opening_hours":"Mo-Fr 06:30-18:30; Sa 08:00-12:00","hours":{"type":"weekly","weekly":{"0":{"isOpen":false,"periods":[]},"1":{"isOpen":true,"periods":[{"open":390,"close":1110}]},"2":{"isOpen":true,"periods":[{"open":390,"close":1110}]},"3":{"isOpen":true,"periods":[{"open":390,"close":1110}]},"4":{"isOpen":true,"periods":[{"open":390,"close":1110}]},"5":{"isOpen":true,"periods":[{"open":390,"close":1110}]},"6":{"isOpen":true,"periods":[{"open":480,"close":720}]}},"original":"Mo-Fr 06:30-18:30; Sa 08:00-12:00"}},{"id":"fuel_732712839","lat":51.7376074,"lon":10.2286108,"name":"Michael Ludwig Gase + Technik","city":"Osterode am Harz","category":"other","tags":[],"opening_hours":"Mo-Fr 08:00-18:00","hours":{"type":"weekly","weekly":{"0":{"isOpen":false,"periods":[]},"1":{"isOpen":true,"periods":[{"open":480,"close":1080}]},"2":{"isOpen":true,"periods":[{"open":480,"close":1080}]},"3":{"isOpen":true,"periods":[{"open":480,"close":1080}]},"4":{"isOpen":true,"periods":[{"open":480,"close":1080}]},"5":{"isOpen":true,"periods":[{"open":480,"close":1080}]},"6":{"isOpen":false,"periods":[]}},"original":"Mo-Fr 08:00-18:00"}},{"id":"fuel_732713155","lat":51.9309883,"lon":10.4147006,"name":"Georg Piening Mineralölhandel","city":"Goslar","category":"other","tags":[],"opening_hours":"24/7","hours":{"type":"24_7"}},{"id":"fuel_732713512","lat":51.21583,"lon":10.445,"name":"Subaru Autohaus Hoppe","city":"","category":"other","tags":[],"opening_hours":"Mo-Fr 07:00-21:00; Sa 09:00-18:00","hours":{"type":"weekly","weekly":{"0":{"isOpen":false,"periods":[]},"1":{"isOpen":true,"periods":[{"open":420,"close":1260}]},"2":{"isOpen":true,"periods":[{"open":420,"close":1260}]},"3":{"isOpen":true,"periods":[{"open":420,"close":1260}]},"4":{"isOpen":true,"periods":[{"open":420,"close":1260}]},"5":{"isOpen":true,"periods":[{"open":420,"close":1260}]},"6":{"isOpen":true,"periods":[{"open":540,"close":1080}]}},"original":"Mo-Fr 07:00-21:00; Sa 09:00-18:00"}},{"id":"fuel_732713747","lat":51.3842825,"lon":10.4134434,"name":"Raiffeisen Tankstelle","city":"Gernrode","category":"tankstelle","tags":[],"opening_hours":"24/7","operator":"VR-Bank in Südniedersachsen eG","hours":{"type":"24_7"}},{"id":"fuel_732713962","lat":51.2000114,"lon":10.4771736,"name":"Regionalbus GmbH","city":"Mühlhausen","category":"other","tags":[],"opening_hours":"Mo-Fr 04:00-22:00; Sa 06:00-20:00; Su 08:00-20:00","hours":{"type":"weekly","weekly":{"0":{"isOpen":true,"periods":[{"open":480,"close":1200}]},"1":{"isOpen":true,"periods":[{"open":240,"close":1320}]},"2":{"isOpen":true,"periods":[{"open":240,"close":1320}]},"3":{"isOpen":true,"periods":[{"open":240,"close":1320}]},"4":{"isOpen":true,"periods":[{"open":240,"close":1320}]},"5":{"isOpen":true,"periods":[{"open":240,"close":1320}]},"6":{"isOpen":true,"periods":[{"open":360,"close":1200}]}},"original":"Mo-Fr 04:00-22:00; Sa 06:00-20:00; Su 08:00-20:00"}},{"id":"fuel_732714192","lat":51.54009,"lon":10.77068,"name":"Harztor Automobile GmbH...","city":"Niedersachswerfen","category":"other","tags":[],"opening_hours":"Mo-Fr 08:00-18:00; Sa 09:00-12:00","hours":{"type":"weekly","weekly":{"0":{"isOpen":false,"periods":[]},"1":{"isOpen":true,"periods":[{"open":480,"close":1080}]},"2":{"isOpen":true,"periods":[{"open":480,"close":1080}]},"3":{"isOpen":true,"periods":[{"open":480,"close":1080}]},"4":{"isOpen":true,"periods":[{"open":480,"close":1080}]},"5":{"isOpen":true,"periods":[{"open":480,"close":1080}]},"6":{"isOpen":true,"periods":[{"open":540,"close":720}]}},"original":"Mo-Fr 08:00-18:00; Sa 09:00-12:00"}},{"id":"fuel_732714993","lat":51.1619304,"lon":10.9880675,"name":"Kfz-Instandsetzungsbetrieb","city":"Straußfurt","category":"other","tags":[],"opening_hours":"Mo-Fr 07:00-18:00; Sa 09:00-12:00","hours":{"type":"weekly","weekly":{"0":{"isOpen":false,"periods":[]},"1":{"isOpen":true,"periods":[{"open":420,"close":1080}]},"2":{"isOpen":true,"periods":[{"open":420,"close":1080}]},"3":{"isOpen":true,"periods":[{"open":420,"close":1080}]},"4":{"isOpen":true,"periods":[{"open":420,"close":1080}]},"5":{"isOpen":true,"periods":[{"open":420,"close":1080}]},"6":{"isOpen":true,"periods":[{"open":540,"close":720}]}},"original":"Mo-Fr 07:00-18:00; Sa 09:00-12:00"}},{"id":"fuel_732715117","lat":51.9276356,"lon":10.414765,"name":"Autohaus Volker Höfert","city":"Goslar","category":"other","tags":[],"opening_hours":"Mo-Fr 08:00-18:00; Sa 09:00-13:00","hours":{"type":"weekly","weekly":{"0":{"isOpen":false,"periods":[]},"1":{"isOpen":true,"periods":[{"open":480,"close":1080}]},"2":{"isOpen":true,"periods":[{"open":480,"close":1080}]},"3":{"isOpen":true,"periods":[{"open":480,"close":1080}]},"4":{"isOpen":true,"periods":[{"open":480,"close":1080}]},"5":{"isOpen":true,"periods":[{"open":480,"close":1080}]},"6":{"isOpen":true,"periods":[{"open":540,"close":780}]}},"original":"Mo-Fr 08:00-18:00; Sa 09:00-13:00"}},{"id":"fuel_732715155","lat":51.5007459,"lon":10.7770134,"name":"Drachen Propangas GmbH/Gas-Schäfer","city":"Nordhausen","category":"other","tags":[],"opening_hours":"Mo-Th 08:00-17:00; Fr 08:00-15:00; Sa 09:00-11:00","hours":{"type":"weekly","weekly":{"0":{"isOpen":false,"periods":[]},"1":{"isOpen":true,"periods":[{"open":480,"close":1020}]},"2":{"isOpen":true,"periods":[{"open":480,"close":1020}]},"3":{"isOpen":true,"periods":[{"open":480,"close":1020}]},"4":{"isOpen":true,"periods":[{"open":480,"close":1020}]},"5":{"isOpen":true,"periods":[{"open":480,"close":900}]},"6":{"isOpen":true,"periods":[{"open":540,"close":660}]}},"original":"Mo-Th 08:00-17:00; Fr 08:00-15:00; Sa 09:00-11:00"}},{"id":"fuel_732715478","lat":51.2856517,"lon":10.7294383,"name":"OIL!","city":"Ebeleben","category":"tankstelle","tags":[],"opening_hours":"Mo 07:30-20:30; Tu 07:30-20:30; We 07:30-20:30; Th 07:30-20:30; Fr 07:30-20:30; Sa 07:00-20:00; Su 07:00-20:00","operator":"OIL!","hours":{"type":"weekly","weekly":{"0":{"isOpen":true,"periods":[{"open":420,"close":1200}]},"1":{"isOpen":true,"periods":[{"open":450,"close":1230}]},"2":{"isOpen":true,"periods":[{"open":450,"close":1230}]},"3":{"isOpen":true,"periods":[{"open":450,"close":1230}]},"4":{"isOpen":true,"periods":[{"open":450,"close":1230}]},"5":{"isOpen":true,"periods":[{"open":450,"close":1230}]},"6":{"isOpen":true,"periods":[{"open":420,"close":1200}]}},"original":"Mo 07:30-20:30; Tu 07:30-20:30; We 07:30-20:30; Th 07:30-20:30; Fr 07:30-20:30; Sa 07:00-20:00; Su 07:00-20:00"}},{"id":"fuel_732715652","lat":51.9895463,"lon":10.8941476,"name":"Tankstelle","city":"Huy","category":"tankstelle","tags":[],"opening_hours":"Mo-Fr 07:00-18:00; Sa 09:00-13:00","operator":"Waldemar Quaas GmbH","hours":{"type":"weekly","weekly":{"0":{"isOpen":false,"periods":[]},"1":{"isOpen":true,"periods":[{"open":420,"close":1080}]},"2":{"isOpen":true,"periods":[{"open":420,"close":1080}]},"3":{"isOpen":true,"periods":[{"open":420,"close":1080}]},"4":{"isOpen":true,"periods":[{"open":420,"close":1080}]},"5":{"isOpen":true,"periods":[{"open":420,"close":1080}]},"6":{"isOpen":true,"periods":[{"open":540,"close":780}]}},"original":"Mo-Fr 07:00-18:00; Sa 09:00-13:00"}},{"id":"fuel_732716024","lat":51.2039476,"lon":10.4423144,"name":"Honsel","city":"Mühlhausen","category":"tankstelle","tags":["barrierefrei","google_wc_accessible"],"opening_hours":"Mo-Fr 06:00-20:00; Sa 07:00-20:00; Su 08:00-20:00","hours":{"type":"weekly","weekly":{"0":{"isOpen":true,"periods":[{"open":480,"close":1200}]},"1":{"isOpen":true,"periods":[{"open":360,"close":1200}]},"2":{"isOpen":true,"periods":[{"open":360,"close":1200}]},"3":{"isOpen":true,"periods":[{"open":360,"close":1200}]},"4":{"isOpen":true,"periods":[{"open":360,"close":1200}]},"5":{"isOpen":true,"periods":[{"open":360,"close":1200}]},"6":{"isOpen":true,"periods":[{"open":420,"close":1200}]}},"original":"Mo-Fr 06:00-20:00; Sa 07:00-20:00; Su 08:00-20:00"}},{"id":"fuel_732716205","lat":51.00781,"lon":10.26299,"name":"Auto-Meier","city":"Krauthausen","category":"other","tags":[],"opening_hours":"Mo-Fr 07:00-23:00; Sa-Su 08:00-23:00","hours":{"type":"weekly","weekly":{"0":{"isOpen":true,"periods":[{"open":480,"close":1380}]},"1":{"isOpen":true,"periods":[{"open":420,"close":1380}]},"2":{"isOpen":true,"periods":[{"open":420,"close":1380}]},"3":{"isOpen":true,"periods":[{"open":420,"close":1380}]},"4":{"isOpen":true,"periods":[{"open":420,"close":1380}]},"5":{"isOpen":true,"periods":[{"open":420,"close":1380}]},"6":{"isOpen":true,"periods":[{"open":480,"close":1380}]}},"original":"Mo-Fr 07:00-23:00; Sa-Su 08:00-23:00"}},{"id":"fuel_732716937","lat":51.198715,"lon":10.0648287,"name":"Honsel Tankstelle","city":"Meinhard","category":"tankstelle","tags":[],"opening_hours":"24/7","operator":"Honsel","hours":{"type":"24_7"}},{"id":"fuel_732717083","lat":51.2362014,"lon":10.1589643,"name":"bft - Walther","city":"","category":"tankstelle","tags":[],"opening_hours":"Mo-Fr 06:30-20:00; Sa-Su 08:00-18:00","operator":"Independent","hours":{"type":"weekly","weekly":{"0":{"isOpen":true,"periods":[{"open":480,"close":1080}]},"1":{"isOpen":true,"periods":[{"open":390,"close":1200}]},"2":{"isOpen":true,"periods":[{"open":390,"close":1200}]},"3":{"isOpen":true,"periods":[{"open":390,"close":1200}]},"4":{"isOpen":true,"periods":[{"open":390,"close":1200}]},"5":{"isOpen":true,"periods":[{"open":390,"close":1200}]},"6":{"isOpen":true,"periods":[{"open":480,"close":1080}]}},"original":"Mo-Fr 06:30-20:00; Sa-Su 08:00-18:00"}},{"id":"fuel_732717285","lat":51.60917,"lon":10.43056,"name":"Georg Piening Mineralölhandel","city":"Bad Lauterberg im Harz","category":"tankstelle","tags":[],"operator":"Georg Piening","gplace_id":"ChIJq_5pRg4fpUcRJabJtHkec3k","hours":{"type":"unknown"}},{"id":"fuel_732717514","lat":51.7918287,"lon":10.9745481,"name":"Baberski GmbH","city":"Blankenburg (Harz)","category":"other","tags":[],"opening_hours":"Mo-Fr 06:00-18:00; Sa 09:00-13:00","hours":{"type":"weekly","weekly":{"0":{"isOpen":false,"periods":[]},"1":{"isOpen":true,"periods":[{"open":360,"close":1080}]},"2":{"isOpen":true,"periods":[{"open":360,"close":1080}]},"3":{"isOpen":true,"periods":[{"open":360,"close":1080}]},"4":{"isOpen":true,"periods":[{"open":360,"close":1080}]},"5":{"isOpen":true,"periods":[{"open":360,"close":1080}]},"6":{"isOpen":true,"periods":[{"open":540,"close":780}]}},"original":"Mo-Fr 06:00-18:00; Sa 09:00-13:00"}},{"id":"fuel_732717682","lat":51.6127261,"lon":10.3225778,"name":"LEO Station Falke","city":"Herzberg am Harz","category":"other","tags":[],"opening_hours":"Mo-Fr 05:30-19:00; Sa 06:00-19:00; Su 07:00-19:00","operator":"Ute Falke","hours":{"type":"weekly","weekly":{"0":{"isOpen":true,"periods":[{"open":420,"close":1140}]},"1":{"isOpen":true,"periods":[{"open":330,"close":1140}]},"2":{"isOpen":true,"periods":[{"open":330,"close":1140}]},"3":{"isOpen":true,"periods":[{"open":330,"close":1140}]},"4":{"isOpen":true,"periods":[{"open":330,"close":1140}]},"5":{"isOpen":true,"periods":[{"open":330,"close":1140}]},"6":{"isOpen":true,"periods":[{"open":360,"close":1140}]}},"original":"Mo-Fr 05:30-19:00; Sa 06:00-19:00; Su 07:00-19:00"}},{"id":"fuel_826430062","lat":51.5882402,"lon":10.6163888,"name":"HEM","city":"Walkenried","category":"tankstelle","tags":[],"operator":"HEM","opening_hours":"Su 07:00-21:00; Mo 06:00-21:00; Tu 06:00-21:00; We 06:00-21:00; Th 06:00-21:00; Fr 06:00-21:00; Sa 07:00-21:00","gplace_id":"ChIJnZ_5eysDpUcR73WbqXHHcHM","hours":{"type":"weekly","weekly":{"0":{"isOpen":true,"periods":[{"open":420,"close":1260}]},"1":{"isOpen":true,"periods":[{"open":360,"close":1260}]},"2":{"isOpen":true,"periods":[{"open":360,"close":1260}]},"3":{"isOpen":true,"periods":[{"open":360,"close":1260}]},"4":{"isOpen":true,"periods":[{"open":360,"close":1260}]},"5":{"isOpen":true,"periods":[{"open":360,"close":1260}]},"6":{"isOpen":true,"periods":[{"open":420,"close":1260}]}},"original":"Su 07:00-21:00; Mo 06:00-21:00; Tu 06:00-21:00; We 06:00-21:00; Th 06:00-21:00; Fr 06:00-21:00; Sa 07:00-21:00"}},{"id":"fuel_911173649","lat":51.8985954,"lon":10.0359666,"name":"Raiffeisen","city":"","category":"tankstelle","tags":[],"opening_hours":"Mo 07:30-16:30; Tu 07:30-16:30; We 07:30-16:30; Th 07:30-16:30; Fr 07:30-16:30","gplace_id":"ChIJ5e19RtLKukcR6Ea_S6DOzQo","hours":{"type":"weekly","weekly":{"0":{"isOpen":false,"periods":[]},"1":{"isOpen":true,"periods":[{"open":450,"close":990}]},"2":{"isOpen":true,"periods":[{"open":450,"close":990}]},"3":{"isOpen":true,"periods":[{"open":450,"close":990}]},"4":{"isOpen":true,"periods":[{"open":450,"close":990}]},"5":{"isOpen":true,"periods":[{"open":450,"close":990}]},"6":{"isOpen":false,"periods":[]}},"original":"Mo 07:30-16:30; Tu 07:30-16:30; We 07:30-16:30; Th 07:30-16:30; Fr 07:30-16:30"}},{"id":"fuel_1175006969","lat":51.0901984,"lon":10.735373,"name":"Independent","city":"","category":"other","tags":[],"operator":"A.Fricke","opening_hours":"Su 05:00-22:00; Mo 05:00-22:00; Tu 05:00-22:00; We 05:00-22:00; Th 05:00-22:00; Fr 05:00-22:00; Sa 05:00-22:00","gplace_id":"ChIJL1HP8OljpEcRQUHAEZILnnE","hours":{"type":"weekly","weekly":{"0":{"isOpen":true,"periods":[{"open":300,"close":1320}]},"1":{"isOpen":true,"periods":[{"open":300,"close":1320}]},"2":{"isOpen":true,"periods":[{"open":300,"close":1320}]},"3":{"isOpen":true,"periods":[{"open":300,"close":1320}]},"4":{"isOpen":true,"periods":[{"open":300,"close":1320}]},"5":{"isOpen":true,"periods":[{"open":300,"close":1320}]},"6":{"isOpen":true,"periods":[{"open":300,"close":1320}]}},"original":"Su 05:00-22:00; Mo 05:00-22:00; Tu 05:00-22:00; We 05:00-22:00; Th 05:00-22:00; Fr 05:00-22:00; Sa 05:00-22:00"}},{"id":"fuel_1341017009","lat":51.9553249,"lon":10.0082307,"name":"Esso","city":"","category":"tankstelle","tags":[],"operator":"Esso","opening_hours":"Su 09:00-17:00; Mo 06:30-19:00; Tu 06:30-19:00; We 06:30-19:00; Th 06:30-19:00; Fr 06:30-19:00; Sa 07:00-18:00","gplace_id":"ChIJNYfS43S1ukcRtFinAErD1kk","hours":{"type":"weekly","weekly":{"0":{"isOpen":true,"periods":[{"open":540,"close":1020}]},"1":{"isOpen":true,"periods":[{"open":390,"close":1140}]},"2":{"isOpen":true,"periods":[{"open":390,"close":1140}]},"3":{"isOpen":true,"periods":[{"open":390,"close":1140}]},"4":{"isOpen":true,"periods":[{"open":390,"close":1140}]},"5":{"isOpen":true,"periods":[{"open":390,"close":1140}]},"6":{"isOpen":true,"periods":[{"open":420,"close":1080}]}},"original":"Su 09:00-17:00; Mo 06:30-19:00; Tu 06:30-19:00; We 06:30-19:00; Th 06:30-19:00; Fr 06:30-19:00; Sa 07:00-18:00"}},{"id":"fuel_1369901013","lat":51.5785101,"lon":10.295094,"name":"Tankstelle Domeier","city":"Rhumspringe","category":"tankstelle","tags":[],"opening_hours":"Mo-Fr 06:00-20:00; Sa 07:00-20:00; Su 08:00-20:00","operator":"HD","hours":{"type":"weekly","weekly":{"0":{"isOpen":true,"periods":[{"open":480,"close":1200}]},"1":{"isOpen":true,"periods":[{"open":360,"close":1200}]},"2":{"isOpen":true,"periods":[{"open":360,"close":1200}]},"3":{"isOpen":true,"periods":[{"open":360,"close":1200}]},"4":{"isOpen":true,"periods":[{"open":360,"close":1200}]},"5":{"isOpen":true,"periods":[{"open":360,"close":1200}]},"6":{"isOpen":true,"periods":[{"open":420,"close":1200}]}},"original":"Mo-Fr 06:00-20:00; Sa 07:00-20:00; Su 08:00-20:00"}},{"id":"fuel_1482501584","lat":51.2247648,"lon":10.4542794,"name":"Raiffeisen SB Tankstelle","city":"Mühlhausen","category":"tankstelle","tags":[],"opening_hours":"24/7","operator":"Raiffeisen Waren GmbH","hours":{"type":"24_7"}},{"id":"fuel_1484541422","lat":51.4869397,"lon":10.7846003,"name":"Star","city":"Nordhausen","category":"tankstelle","tags":[],"operator":"star","opening_hours":"Su 08:00-20:00; Mo 05:00-21:00; Tu 05:00-21:00; We 05:00-21:00; Th 05:00-21:00; Fr 05:00-21:00; Sa 07:00-20:00","gplace_id":"ChIJ-w4AZ9z_pEcR1Qb7fwOeGPA","hours":{"type":"weekly","weekly":{"0":{"isOpen":true,"periods":[{"open":480,"close":1200}]},"1":{"isOpen":true,"periods":[{"open":300,"close":1260}]},"2":{"isOpen":true,"periods":[{"open":300,"close":1260}]},"3":{"isOpen":true,"periods":[{"open":300,"close":1260}]},"4":{"isOpen":true,"periods":[{"open":300,"close":1260}]},"5":{"isOpen":true,"periods":[{"open":300,"close":1260}]},"6":{"isOpen":true,"periods":[{"open":420,"close":1200}]}},"original":"Su 08:00-20:00; Mo 05:00-21:00; Tu 05:00-21:00; We 05:00-21:00; Th 05:00-21:00; Fr 05:00-21:00; Sa 07:00-20:00"}},{"id":"fuel_1606528786","lat":51.0479985,"lon":10.9421828,"name":"Total","city":"Elxleben","category":"tankstelle","tags":[],"opening_hours":"Mo-Fr 06:00-21:00; Sa-Su 08:00-21:00","operator":"TotalEnergies","hours":{"type":"weekly","weekly":{"0":{"isOpen":true,"periods":[{"open":480,"close":1260}]},"1":{"isOpen":true,"periods":[{"open":360,"close":1260}]},"2":{"isOpen":true,"periods":[{"open":360,"close":1260}]},"3":{"isOpen":true,"periods":[{"open":360,"close":1260}]},"4":{"isOpen":true,"periods":[{"open":360,"close":1260}]},"5":{"isOpen":true,"periods":[{"open":360,"close":1260}]},"6":{"isOpen":true,"periods":[{"open":480,"close":1260}]}},"original":"Mo-Fr 06:00-21:00; Sa-Su 08:00-21:00"}},{"id":"fuel_1732922374","lat":51.6336251,"lon":10.0966565,"name":"Raiffeisen","city":"","category":"tankstelle","tags":[],"gplace_id":"ChIJxSBGMQkppUcRWHrcoim72Q0","hours":{"type":"unknown"}},{"id":"fuel_1767282425","lat":51.0161367,"lon":10.1193468,"name":"Avia","city":"","category":"tankstelle","tags":[],"opening_hours":"Mo-Fr 08:00-19:00; Sa 08:00-15:00; Su 09:00-13:00","operator":"Bernhard Nölker","hours":{"type":"weekly","weekly":{"0":{"isOpen":true,"periods":[{"open":540,"close":780}]},"1":{"isOpen":true,"periods":[{"open":480,"close":1140}]},"2":{"isOpen":true,"periods":[{"open":480,"close":1140}]},"3":{"isOpen":true,"periods":[{"open":480,"close":1140}]},"4":{"isOpen":true,"periods":[{"open":480,"close":1140}]},"5":{"isOpen":true,"periods":[{"open":480,"close":1140}]},"6":{"isOpen":true,"periods":[{"open":480,"close":900}]}},"original":"Mo-Fr 08:00-19:00; Sa 08:00-15:00; Su 09:00-13:00"}},{"id":"fuel_1837169976","lat":51.1875305,"lon":10.1656117,"name":"AVIA Xpress","city":"","category":"tankstelle","tags":[],"opening_hours":"24/7","operator":"KNITTEL MobileEnergie","hours":{"type":"24_7"}},{"id":"fuel_1901891332","lat":51.4770324,"lon":10.8082516,"name":"Aral","city":"Nordhausen","category":"tankstelle","tags":[],"opening_hours":"24/7","operator":"Uwe Joch","hours":{"type":"24_7"}},{"id":"fuel_1934619075","lat":51.725901,"lon":10.2611016,"name":"Total","city":"Osterode am Harz","category":"tankstelle","tags":[],"operator":"Total","opening_hours":"Su 06:00-22:00; Mo 06:00-22:00; Tu 06:00-22:00; We 06:00-22:00; Th 06:00-22:00; Fr 06:00-22:00; Sa 06:00-22:00","gplace_id":"ChIJWfk72iAlpUcRaHH8EW-BWcM","hours":{"type":"weekly","weekly":{"0":{"isOpen":true,"periods":[{"open":360,"close":1320}]},"1":{"isOpen":true,"periods":[{"open":360,"close":1320}]},"2":{"isOpen":true,"periods":[{"open":360,"close":1320}]},"3":{"isOpen":true,"periods":[{"open":360,"close":1320}]},"4":{"isOpen":true,"periods":[{"open":360,"close":1320}]},"5":{"isOpen":true,"periods":[{"open":360,"close":1320}]},"6":{"isOpen":true,"periods":[{"open":360,"close":1320}]}},"original":"Su 06:00-22:00; Mo 06:00-22:00; Tu 06:00-22:00; We 06:00-22:00; Th 06:00-22:00; Fr 06:00-22:00; Sa 06:00-22:00"}},{"id":"fuel_2006144758","lat":51.1257204,"lon":10.8440517,"name":"BFT Herbsleben","city":"","category":"tankstelle","tags":[],"opening_hours":"Su 08:00-12:30; Mo 06:30-18:00; Tu 06:30-18:00; We 06:30-18:00; Th 06:30-18:00; Fr 06:30-18:00; Sa 08:00-16:00","gplace_id":"ChIJMT6H9VpmpEcRrZiXUstoOYU","hours":{"type":"weekly","weekly":{"0":{"isOpen":true,"periods":[{"open":480,"close":750}]},"1":{"isOpen":true,"periods":[{"open":390,"close":1080}]},"2":{"isOpen":true,"periods":[{"open":390,"close":1080}]},"3":{"isOpen":true,"periods":[{"open":390,"close":1080}]},"4":{"isOpen":true,"periods":[{"open":390,"close":1080}]},"5":{"isOpen":true,"periods":[{"open":390,"close":1080}]},"6":{"isOpen":true,"periods":[{"open":480,"close":960}]}},"original":"Su 08:00-12:30; Mo 06:30-18:00; Tu 06:30-18:00; We 06:30-18:00; Th 06:30-18:00; Fr 06:30-18:00; Sa 08:00-16:00"}},{"id":"fuel_2038004204","lat":51.1247646,"lon":10.5817643,"name":"Total","city":"Unstrut-Hainich","category":"tankstelle","tags":[],"opening_hours":"Mo-Fr 05:00-22:00; Sa,Su,PH 07:00-21:00","operator":"Total","hours":{"type":"weekly","weekly":{"0":{"isOpen":true,"periods":[{"open":420,"close":1260}]},"1":{"isOpen":true,"periods":[{"open":300,"close":1320}]},"2":{"isOpen":true,"periods":[{"open":300,"close":1320}]},"3":{"isOpen":true,"periods":[{"open":300,"close":1320}]},"4":{"isOpen":true,"periods":[{"open":300,"close":1320}]},"5":{"isOpen":true,"periods":[{"open":300,"close":1320}]},"6":{"isOpen":true,"periods":[{"open":420,"close":1260}]}},"original":"Mo-Fr 05:00-22:00; Sa,Su,PH 07:00-21:00"}},{"id":"fuel_2038248868","lat":51.9722035,"lon":10.8457252,"name":"HEM","city":"Osterwieck","category":"tankstelle","tags":[],"opening_hours":"24/7","operator":"HEM","hours":{"type":"24_7"}},{"id":"fuel_2092256937","lat":51.8414119,"lon":10.7810479,"name":"Erdgastankstelle","city":"Wernigerode","category":"other","tags":[],"operator":"Stadtwerke Wernigerode","gplace_id":"not_found","hours":{"type":"unknown"}},{"id":"fuel_2169153490","lat":51.4944484,"lon":10.8146488,"name":"Total","city":"Nordhausen","category":"tankstelle","tags":[],"opening_hours":"24/7","operator":"Total","hours":{"type":"24_7"}},{"id":"fuel_2357956517","lat":51.4859729,"lon":10.7993804,"name":"Tankstelle","city":"","category":"tankstelle","tags":[],"operator":"Stadtwerke Nordhausen GmbH","gplace_id":"not_found","hours":{"type":"unknown"}},{"id":"fuel_2414711935","lat":51.1349732,"lon":10.2342273,"name":"KFZ Werkstatt Bockel","city":"","category":"other","tags":[],"operator":"KFZ Werkstatt Bockel","opening_hours":"Su 00:00+","gplace_id":"ChIJtXkHUHGXpEcRUnJsvJF617I","hours":{"type":"unknown","original":"Su 00:00+"}},{"id":"fuel_2582143023","lat":51.9255372,"lon":10.1429814,"name":"Aral","city":"Seesen","category":"tankstelle","tags":["sanifair","kostenpflichtig"],"opening_hours":"24/7","operator":"BAT Harz Ost Areas Autobahn West GmbH","hours":{"type":"24_7"},"fee":"yes"},{"id":"fuel_2643757983","lat":51.447363,"lon":10.5840701,"name":"Total","city":"Bleicherode","category":"tankstelle","tags":[],"opening_hours":"24/7","operator":"TotalEnergies Deutschland GmbH","hours":{"type":"24_7"}},{"id":"fuel_3049276740","lat":51.8110388,"lon":10.3398169,"name":"Gastankstelle","city":"","category":"other","tags":[],"opening_hours":"Mo-Th 07:00-16:00; Fr 07:00-12:30","operator":"Stadtwerke Clausthal-Zellerfeld GmbH","hours":{"type":"weekly","weekly":{"0":{"isOpen":false,"periods":[]},"1":{"isOpen":true,"periods":[{"open":420,"close":960}]},"2":{"isOpen":true,"periods":[{"open":420,"close":960}]},"3":{"isOpen":true,"periods":[{"open":420,"close":960}]},"4":{"isOpen":true,"periods":[{"open":420,"close":960}]},"5":{"isOpen":true,"periods":[{"open":420,"close":750}]},"6":{"isOpen":false,"periods":[]}},"original":"Mo-Th 07:00-16:00; Fr 07:00-12:30"}},{"id":"fuel_3569138493","lat":51.0061869,"lon":10.9952543,"name":"Star","city":"Erfurt","category":"tankstelle","tags":["barrierefrei","google_wc_accessible"],"opening_hours":"24/7","operator":"Star","hours":{"type":"24_7"}},{"id":"fuel_3622169312","lat":51.9473495,"lon":10.1395839,"name":"Esso","city":"Seesen","category":"tankstelle","tags":[],"operator":"Esso","opening_hours":"Su 00:00+","gplace_id":"ChIJz6V-lkFKpUcR_OTLwg349eE","hours":{"type":"unknown","original":"Su 00:00+"}},{"id":"fuel_3691422146","lat":51.239076,"lon":10.456252,"name":"Avex Tankstelle","city":"Unstruttal","category":"tankstelle","tags":[],"opening_hours":"Mo-Fr 05:00-22:00; Sa,Su 06:00-22:00","operator":"Avex","hours":{"type":"weekly","weekly":{"0":{"isOpen":true,"periods":[{"open":360,"close":1320}]},"1":{"isOpen":true,"periods":[{"open":300,"close":1320}]},"2":{"isOpen":true,"periods":[{"open":300,"close":1320}]},"3":{"isOpen":true,"periods":[{"open":300,"close":1320}]},"4":{"isOpen":true,"periods":[{"open":300,"close":1320}]},"5":{"isOpen":true,"periods":[{"open":300,"close":1320}]},"6":{"isOpen":true,"periods":[{"open":360,"close":1320}]}},"original":"Mo-Fr 05:00-22:00; Sa,Su 06:00-22:00"}},{"id":"fuel_3691986790","lat":51.1976355,"lon":10.0175634,"name":"Jet Tankstelle Eschwege","city":"","category":"tankstelle","tags":[],"operator":"Jet","opening_hours":"Su 07:00-23:00; Mo 05:00-23:00; Tu 05:00-23:00; We 05:00-23:00; Th 05:00-23:00; Fr 05:00-23:00; Sa 06:00-23:00","gplace_id":"ChIJWePaItm5pEcRQHWaTMQa1rI","hours":{"type":"weekly","weekly":{"0":{"isOpen":true,"periods":[{"open":420,"close":1380}]},"1":{"isOpen":true,"periods":[{"open":300,"close":1380}]},"2":{"isOpen":true,"periods":[{"open":300,"close":1380}]},"3":{"isOpen":true,"periods":[{"open":300,"close":1380}]},"4":{"isOpen":true,"periods":[{"open":300,"close":1380}]},"5":{"isOpen":true,"periods":[{"open":300,"close":1380}]},"6":{"isOpen":true,"periods":[{"open":360,"close":1380}]}},"original":"Su 07:00-23:00; Mo 05:00-23:00; Tu 05:00-23:00; We 05:00-23:00; Th 05:00-23:00; Fr 05:00-23:00; Sa 06:00-23:00"}},{"id":"fuel_3994268271","lat":51.1993923,"lon":10.0221643,"name":"Hoyer Automatenstation","city":"","category":"tankstelle","tags":[],"operator":"Hoyer","opening_hours":"Su 00:00+","gplace_id":"ChIJW8q_GNq5pEcRkHH5OOJBh5s","hours":{"type":"unknown","original":"Su 00:00+"}},{"id":"fuel_4210959848","lat":51.3871785,"lon":10.3342911,"name":"Tankstelle","city":"","category":"tankstelle","tags":[],"operator":"Deutsche Bahn","gplace_id":"not_found","hours":{"type":"unknown"}},{"id":"fuel_4385216496","lat":51.2544255,"lon":10.362124,"name":"Tankstelle","city":"","category":"tankstelle","tags":[],"gplace_id":"not_found","hours":{"type":"unknown"}},{"id":"fuel_4411245852","lat":51.1023301,"lon":10.6734063,"name":"tankpool24","city":"","category":"tankstelle","tags":[],"opening_hours":"24/7","hours":{"type":"24_7"}},{"id":"fuel_5003631198","lat":51.8521605,"lon":10.8098614,"name":"M1 Wernigerode","city":"Wernigerode","category":"other","tags":[],"opening_hours":"Su 00:00+","gplace_id":"ChIJf8xi9bkMpUcR1EDso75plOA","hours":{"type":"unknown","original":"Su 00:00+"}},{"id":"fuel_5547466520","lat":51.45258,"lon":10.6052217,"name":"Raiffeisen - SB Dieseltankstelle","city":"Bleicherode","category":"tankstelle","tags":[],"opening_hours":"24/7","operator":"Raiffeisen","hours":{"type":"24_7"}},{"id":"fuel_5693023521","lat":51.8558382,"lon":10.0249923,"name":"Tankstelle","city":"","category":"tankstelle","tags":[],"gplace_id":"ChIJ467UJFPLukcRm1UQnoUyDwk","hours":{"type":"unknown"}},{"id":"fuel_6235632677","lat":51.2148376,"lon":10.4915917,"name":"Tankstelle","city":"","category":"tankstelle","tags":[],"gplace_id":"not_found","hours":{"type":"unknown"}},{"id":"fuel_6787702584","lat":51.0437393,"lon":10.8250941,"name":"Fahner Obst e.G.","city":"","category":"other","tags":[],"opening_hours":"24/7","hours":{"type":"24_7"}},{"id":"fuel_6866243217","lat":51.0011195,"lon":10.687242,"name":"Gulf","city":"Nessetal","category":"tankstelle","tags":[],"opening_hours":"Mo-Fr 05:00-21:00; Sa 07:00-19:00; Su 08:00-19:00","operator":"Gulf","hours":{"type":"weekly","weekly":{"0":{"isOpen":true,"periods":[{"open":480,"close":1140}]},"1":{"isOpen":true,"periods":[{"open":300,"close":1260}]},"2":{"isOpen":true,"periods":[{"open":300,"close":1260}]},"3":{"isOpen":true,"periods":[{"open":300,"close":1260}]},"4":{"isOpen":true,"periods":[{"open":300,"close":1260}]},"5":{"isOpen":true,"periods":[{"open":300,"close":1260}]},"6":{"isOpen":true,"periods":[{"open":420,"close":1140}]}},"original":"Mo-Fr 05:00-21:00; Sa 07:00-19:00; Su 08:00-19:00"}},{"id":"fuel_7063027045","lat":51.3765086,"lon":10.3300649,"name":"Q1 Tankstelle","city":"Leinefelde-Worbis","category":"tankstelle","tags":[],"opening_hours":"Mo-Fr 06:00-22:00; Sa,Su 07:00-22:00","operator":"bft","hours":{"type":"weekly","weekly":{"0":{"isOpen":true,"periods":[{"open":420,"close":1320}]},"1":{"isOpen":true,"periods":[{"open":360,"close":1320}]},"2":{"isOpen":true,"periods":[{"open":360,"close":1320}]},"3":{"isOpen":true,"periods":[{"open":360,"close":1320}]},"4":{"isOpen":true,"periods":[{"open":360,"close":1320}]},"5":{"isOpen":true,"periods":[{"open":360,"close":1320}]},"6":{"isOpen":true,"periods":[{"open":420,"close":1320}]}},"original":"Mo-Fr 06:00-22:00; Sa,Su 07:00-22:00"}},{"id":"fuel_7201168745","lat":51.7881963,"lon":10.0633197,"name":"Tankstelle","city":"","category":"tankstelle","tags":[],"opening_hours":"24/7","operator":"Raiffeisen","hours":{"type":"24_7"}},{"id":"fuel_7373015674","lat":51.8689283,"lon":10.5592657,"name":"Q1","city":"Bad Harzburg","category":"tankstelle","tags":[],"opening_hours":"Mo-Fr 05:00-19:00; Sa,Su,PH 07:00-19:00","operator":"Q1","hours":{"type":"weekly","weekly":{"0":{"isOpen":true,"periods":[{"open":420,"close":1140}]},"1":{"isOpen":true,"periods":[{"open":300,"close":1140}]},"2":{"isOpen":true,"periods":[{"open":300,"close":1140}]},"3":{"isOpen":true,"periods":[{"open":300,"close":1140}]},"4":{"isOpen":true,"periods":[{"open":300,"close":1140}]},"5":{"isOpen":true,"periods":[{"open":300,"close":1140}]},"6":{"isOpen":true,"periods":[{"open":420,"close":1140}]}},"original":"Mo-Fr 05:00-19:00; Sa,Su,PH 07:00-19:00"}},{"id":"fuel_7725506038","lat":51.4866297,"lon":10.8061728,"name":"Greenline","city":"Nordhausen","category":"other","tags":[],"operator":"Hassepass und Flagmeyer","opening_hours":"Su 00:00+","gplace_id":"ChIJ_1vzom9VpEcRhZkOsT1rF30","hours":{"type":"unknown","original":"Su 00:00+"}},{"id":"fuel_7978970469","lat":51.8864922,"lon":10.5575061,"name":"CLASSIC","city":"Bad Harzburg","category":"tankstelle","tags":[],"opening_hours":"Mo-Fr 06:00-22:00; Sa 07:00-22:00; Su 08:00-22:00","operator":"Lühmann Tankstellen Betriebs GmbH & Co.KG","hours":{"type":"weekly","weekly":{"0":{"isOpen":true,"periods":[{"open":480,"close":1320}]},"1":{"isOpen":true,"periods":[{"open":360,"close":1320}]},"2":{"isOpen":true,"periods":[{"open":360,"close":1320}]},"3":{"isOpen":true,"periods":[{"open":360,"close":1320}]},"4":{"isOpen":true,"periods":[{"open":360,"close":1320}]},"5":{"isOpen":true,"periods":[{"open":360,"close":1320}]},"6":{"isOpen":true,"periods":[{"open":420,"close":1320}]}},"original":"Mo-Fr 06:00-22:00; Sa 07:00-22:00; Su 08:00-22:00"}},{"id":"fuel_8381067842","lat":51.6900954,"lon":10.8440089,"name":"Tankstelle","city":"","category":"tankstelle","tags":[],"gplace_id":"not_found","hours":{"type":"unknown"}},{"id":"fuel_8402241219","lat":51.0067901,"lon":10.1807295,"name":"Esso","city":"","category":"tankstelle","tags":["sanifair","barrierefrei","kostenpflichtig"],"opening_hours":"24/7","operator":"Esso","hours":{"type":"24_7"},"fee":"yes"},{"id":"fuel_8452917875","lat":51.6017936,"lon":10.204874,"name":"Gastankstelle","city":"Gieboldehausen","category":"other","tags":[],"opening_hours":"Su 00:00+","gplace_id":"ChIJSV5VKKMnpUcRe6O3gmmxryM","hours":{"type":"unknown","original":"Su 00:00+"}},{"id":"fuel_9693263633","lat":51.508471,"lon":10.2602584,"name":"Star","city":"Duderstadt","category":"tankstelle","tags":[],"opening_hours":"Mo-Su,PH 05:30-23:00","operator":"star","hours":{"type":"weekly","weekly":{"0":{"isOpen":true,"periods":[{"open":330,"close":1380}]},"1":{"isOpen":true,"periods":[{"open":330,"close":1380}]},"2":{"isOpen":true,"periods":[{"open":330,"close":1380}]},"3":{"isOpen":true,"periods":[{"open":330,"close":1380}]},"4":{"isOpen":true,"periods":[{"open":330,"close":1380}]},"5":{"isOpen":true,"periods":[{"open":330,"close":1380}]},"6":{"isOpen":true,"periods":[{"open":330,"close":1380}]}},"original":"Mo-Su,PH 05:30-23:00"}},{"id":"fuel_10135208571","lat":51.479289,"lon":10.4906558,"name":"Esso","city":"Am Ohmberg","category":"tankstelle","tags":[],"opening_hours":"Mo-Fr 06:00-20:00; Sa 07:00-20:00; Su 08:00-20:00","operator":"Kfz Meisterbetrieb Finck","hours":{"type":"weekly","weekly":{"0":{"isOpen":true,"periods":[{"open":480,"close":1200}]},"1":{"isOpen":true,"periods":[{"open":360,"close":1200}]},"2":{"isOpen":true,"periods":[{"open":360,"close":1200}]},"3":{"isOpen":true,"periods":[{"open":360,"close":1200}]},"4":{"isOpen":true,"periods":[{"open":360,"close":1200}]},"5":{"isOpen":true,"periods":[{"open":360,"close":1200}]},"6":{"isOpen":true,"periods":[{"open":420,"close":1200}]}},"original":"Mo-Fr 06:00-20:00; Sa 07:00-20:00; Su 08:00-20:00"}},{"id":"fuel_10171596904","lat":51.3134756,"lon":10.569852,"name":"AVEX-Tankstelle","city":"Unstruttal","category":"tankstelle","tags":[],"opening_hours":"24/7","operator":"AVEX","hours":{"type":"24_7"}},{"id":"fuel_10601617563","lat":51.1630798,"lon":10.4359568,"name":"STO Tankstelle Oberdorla","city":"Vogtei","category":"tankstelle","tags":[],"opening_hours":"Mo-Fr 06:00-21:00; Sa 07:00-21:00; Su 08:00-20:00","operator":"Dirk Trescher","hours":{"type":"weekly","weekly":{"0":{"isOpen":true,"periods":[{"open":480,"close":1200}]},"1":{"isOpen":true,"periods":[{"open":360,"close":1260}]},"2":{"isOpen":true,"periods":[{"open":360,"close":1260}]},"3":{"isOpen":true,"periods":[{"open":360,"close":1260}]},"4":{"isOpen":true,"periods":[{"open":360,"close":1260}]},"5":{"isOpen":true,"periods":[{"open":360,"close":1260}]},"6":{"isOpen":true,"periods":[{"open":420,"close":1260}]}},"original":"Mo-Fr 06:00-21:00; Sa 07:00-21:00; Su 08:00-20:00"}},{"id":"fuel_10771902679","lat":51.6294642,"lon":10.4683533,"name":"HEM","city":"","category":"tankstelle","tags":[],"opening_hours":"Mo-Sa 06:00-22:00; Su 07:00-22:00","operator":"TAMOIL","hours":{"type":"weekly","weekly":{"0":{"isOpen":true,"periods":[{"open":420,"close":1320}]},"1":{"isOpen":true,"periods":[{"open":360,"close":1320}]},"2":{"isOpen":true,"periods":[{"open":360,"close":1320}]},"3":{"isOpen":true,"periods":[{"open":360,"close":1320}]},"4":{"isOpen":true,"periods":[{"open":360,"close":1320}]},"5":{"isOpen":true,"periods":[{"open":360,"close":1320}]},"6":{"isOpen":true,"periods":[{"open":360,"close":1320}]}},"original":"Mo-Sa 06:00-22:00; Su 07:00-22:00"}},{"id":"fuel_10771991743","lat":51.6496071,"lon":10.3467138,"name":"Aral","city":"","category":"tankstelle","tags":[],"operator":"Aral","opening_hours":"Su 00:00+","gplace_id":"ChIJNfA9EhIkpUcRQOAyRcIPTjY","hours":{"type":"unknown","original":"Su 00:00+"}},{"id":"fuel_11041568642","lat":51.8379545,"lon":10.769215,"name":"Shell","city":"Wernigerode","category":"tankstelle","tags":["barrierefrei","google_wc_accessible"],"operator":"Ahlsleben Tankstellen GmbH","opening_hours":"Su 08:00-22:00; Mo 06:00-22:00; Tu 06:00-22:00; We 06:00-22:00; Th 06:00-22:00; Fr 06:00-22:00; Sa 07:00-22:00","gplace_id":"ChIJmXo3geIMpUcRrYoHCn04uSY","hours":{"type":"weekly","weekly":{"0":{"isOpen":true,"periods":[{"open":480,"close":1320}]},"1":{"isOpen":true,"periods":[{"open":360,"close":1320}]},"2":{"isOpen":true,"periods":[{"open":360,"close":1320}]},"3":{"isOpen":true,"periods":[{"open":360,"close":1320}]},"4":{"isOpen":true,"periods":[{"open":360,"close":1320}]},"5":{"isOpen":true,"periods":[{"open":360,"close":1320}]},"6":{"isOpen":true,"periods":[{"open":420,"close":1320}]}},"original":"Su 08:00-22:00; Mo 06:00-22:00; Tu 06:00-22:00; We 06:00-22:00; Th 06:00-22:00; Fr 06:00-22:00; Sa 07:00-22:00"}},{"id":"fuel_11382617997","lat":51.5786844,"lon":10.6687184,"name":"Tankstelle","city":"","category":"tankstelle","tags":[],"operator":"CASEA GmbH","gplace_id":"not_found","hours":{"type":"unknown"}},{"id":"fuel_12584554172","lat":51.8450635,"lon":10.8089899,"name":"Jet","city":"","category":"tankstelle","tags":[],"opening_hours":"Mo-Sa 08:30-20:00","operator":"Edeka","hours":{"type":"weekly","weekly":{"0":{"isOpen":false,"periods":[]},"1":{"isOpen":true,"periods":[{"open":510,"close":1200}]},"2":{"isOpen":true,"periods":[{"open":510,"close":1200}]},"3":{"isOpen":true,"periods":[{"open":510,"close":1200}]},"4":{"isOpen":true,"periods":[{"open":510,"close":1200}]},"5":{"isOpen":true,"periods":[{"open":510,"close":1200}]},"6":{"isOpen":true,"periods":[{"open":510,"close":1200}]}},"original":"Mo-Sa 08:30-20:00"}},{"id":"fuel_12787862063","lat":51.6210282,"lon":10.4141592,"name":"star","city":"","category":"tankstelle","tags":[],"operator":"star","opening_hours":"Su 07:30-21:00; Mo 06:00-21:00; Tu 06:00-21:00; We 06:00-21:00; Th 06:00-21:00; Fr 06:00-21:00; Sa 06:00-21:00","gplace_id":"ChIJ9ZLRvUgfpUcR00TpxhHRD_8","hours":{"type":"weekly","weekly":{"0":{"isOpen":true,"periods":[{"open":450,"close":1260}]},"1":{"isOpen":true,"periods":[{"open":360,"close":1260}]},"2":{"isOpen":true,"periods":[{"open":360,"close":1260}]},"3":{"isOpen":true,"periods":[{"open":360,"close":1260}]},"4":{"isOpen":true,"periods":[{"open":360,"close":1260}]},"5":{"isOpen":true,"periods":[{"open":360,"close":1260}]},"6":{"isOpen":true,"periods":[{"open":360,"close":1260}]}},"original":"Su 07:30-21:00; Mo 06:00-21:00; Tu 06:00-21:00; We 06:00-21:00; Th 06:00-21:00; Fr 06:00-21:00; Sa 06:00-21:00"}},{"id":"fuel_12973470933","lat":51.3804921,"lon":10.4235002,"name":"Hoyer","city":"Niederorschel","category":"tankstelle","tags":[],"opening_hours":"24/7","operator":"Hoyer","hours":{"type":"24_7"}},{"id":"fuel_12982489153","lat":51.5226804,"lon":10.2229101,"name":"Hoyer Energieservice","city":"","category":"tankstelle","tags":[],"operator":"Hoyer Energieservice","opening_hours":"Su 00:00+","gplace_id":"ChIJFZVTMyrZpEcRQCBX3OnxXxY","hours":{"type":"unknown","original":"Su 00:00+"}},{"id":"fuel_13114288604","lat":51.5405079,"lon":10.1626311,"name":"Raiffeisen","city":"","category":"tankstelle","tags":[],"operator":"Raiffeisen","opening_hours":"Su 00:00+","gplace_id":"ChIJjRdJ4DTYpEcRSD_0P8speMY","hours":{"type":"unknown","original":"Su 00:00+"}},{"id":"fuel_13271230062","lat":51.4130543,"lon":10.358505,"name":"Aral","city":"Leinefelde-Worbis","category":"tankstelle","tags":[],"opening_hours":"24/7","operator":"Katrin Albertsmeyer","hours":{"type":"24_7"}},{"id":"fuel_13639249738","lat":51.0071822,"lon":10.1751786,"name":"GAVEG Blaue Tanke","city":"Herleshausen","category":"other","tags":[],"opening_hours":"Su 00:00+","gplace_id":"ChIJ-w4UPACZpEcRQO1hha41Lac","hours":{"type":"unknown","original":"Su 00:00+"}},{"id":"fuel_13705051845","lat":51.0271977,"lon":10.1108878,"name":"Freie Tankstelle Weber","city":"","category":"tankstelle","tags":[],"opening_hours":"Mo 08:00-17:00; Tu 08:00-17:00; We 08:00-17:00; Th 08:00-17:00; Fr 08:00-17:00","gplace_id":"ChIJ5yUhYK6jpEcRaix3p4nYn5o","hours":{"type":"weekly","weekly":{"0":{"isOpen":false,"periods":[]},"1":{"isOpen":true,"periods":[{"open":480,"close":1020}]},"2":{"isOpen":true,"periods":[{"open":480,"close":1020}]},"3":{"isOpen":true,"periods":[{"open":480,"close":1020}]},"4":{"isOpen":true,"periods":[{"open":480,"close":1020}]},"5":{"isOpen":true,"periods":[{"open":480,"close":1020}]},"6":{"isOpen":false,"periods":[]}},"original":"Mo 08:00-17:00; Tu 08:00-17:00; We 08:00-17:00; Th 08:00-17:00; Fr 08:00-17:00"}},{"id":"fuel_13708931211","lat":51.6984911,"lon":10.0523032,"name":"Calpam Express","city":"Northeim","category":"other","tags":[],"opening_hours":"24/7","operator":"Calpam","hours":{"type":"24_7"}},{"id":"autobahn_DE-HE-400002","lat":51.00894599999974,"lon":10.174503000000161,"name":"Burgberg (A4)","city":"","category":"public_24h","tags":["autobahn","a4","toilette"],"opening_hours":"24/7","operator":"Autobahn GmbH","hours":{"type":"24_7"}},{"id":"autobahn_DE-TH-004211","lat":51.007978999999615,"lon":10.252403000000223,"name":"TR Eisenach (A4)","city":"","category":"other","tags":["autobahn","a4"],"operator":"Autobahn GmbH","hours":{"type":"unknown"}},{"id":"autobahn_DE-HE-400001","lat":51.00611399999973,"lon":10.183371000000166,"name":"Werratal (A4)","city":"","category":"public_24h","tags":["autobahn","a4","toilette"],"opening_hours":"24/7","operator":"Autobahn GmbH","hours":{"type":"24_7"}},{"id":"autobahn_DE-NI-422601","lat":51.779829999999876,"lon":10.031721000000077,"name":"Am Bierberg West (A7)","city":"","category":"public_24h","tags":["autobahn","a7","toilette"],"opening_hours":"24/7","operator":"Autobahn GmbH","hours":{"type":"24_7"}},{"id":"autobahn_DE-NI-422602","lat":51.781211999999876,"lon":10.03485000000008,"name":"Am Bierberg Ost (A7)","city":"","category":"public_24h","tags":["autobahn","a7","toilette"],"opening_hours":"24/7","operator":"Autobahn GmbH","hours":{"type":"24_7"}},{"id":"autobahn_DE-NI-412603","lat":51.85627699999979,"lon":10.123947000000117,"name":"Schwalenberg West (A7)","city":"","category":"public_24h","tags":["autobahn","a7","toilette"],"opening_hours":"24/7","operator":"Autobahn GmbH","hours":{"type":"24_7"}},{"id":"autobahn_DE-NI-412601","lat":51.85605999999979,"lon":10.126013000000121,"name":"Schwalenberg Ost (A7)","city":"","category":"public_24h","tags":["autobahn","a7","toilette"],"opening_hours":"24/7","operator":"Autobahn GmbH","hours":{"type":"24_7"}},{"id":"autobahn_DE-NI-402604","lat":51.927909999999784,"lon":10.141580000000127,"name":"Harz W (A7)","city":"","category":"tankstelle","tags":["autobahn","a7","toilette","tankstelle","raststätte","dusche"],"operator":"Tank & Rast","hours":{"type":"unknown"}},{"id":"autobahn_DE-NI-402603","lat":51.926539999999775,"lon":10.14417000000013,"name":"Harz O (A7)","city":"","category":"tankstelle","tags":["autobahn","a7","toilette","tankstelle","raststätte","dusche"],"operator":"Tank & Rast","hours":{"type":"unknown"}},{"id":"autobahn_DE-NI-005332","lat":51.97724299999977,"lon":10.150365000000132,"name":"Ambergau West (A7)","city":"","category":"other","tags":["autobahn","a7"],"operator":"Autobahn GmbH","hours":{"type":"unknown"}},{"id":"autobahn_DE-NI-005331","lat":51.977640999999764,"lon":10.151856000000134,"name":"Ambergau Ost (A7)","city":"","category":"other","tags":["autobahn","a7"],"operator":"Autobahn GmbH","hours":{"type":"unknown"}},{"id":"autobahn_DE-ST-001249","lat":51.918796999997944,"lon":10.662261000000829,"name":"Brockenblick Ost (A36)","city":"","category":"other","tags":["autobahn","a36"],"operator":"Autobahn GmbH","hours":{"type":"unknown"}},{"id":"autobahn_DE-ST-001251","lat":51.919666999997965,"lon":10.659553000000821,"name":"BAB 36 PWC Brockenblick (West) RFB Halle (BAB14) (A36)","city":"","category":"other","tags":["autobahn","a36"],"operator":"Autobahn GmbH","hours":{"type":"unknown"}},{"id":"autobahn_DE-ST-001257","lat":51.84035099999564,"lon":10.88514100000154,"name":"Regensteinblick (Nord) (A36)","city":"","category":"other","tags":["autobahn","a36"],"operator":"Autobahn GmbH","hours":{"type":"unknown"}},{"id":"autobahn_DE-ST-001259","lat":51.83924899999567,"lon":10.885270000001539,"name":"Regensteinblick Süd (A36)","city":"","category":"other","tags":["autobahn","a36"],"operator":"Autobahn GmbH","hours":{"type":"unknown"}},{"id":"autobahn_DE-TH-038012","lat":51.40996699999974,"lon":10.175304000000157,"name":"PWC Leinetal Nord (A38)","city":"","category":"public_24h","tags":["autobahn","a38","toilette"],"opening_hours":"24/7","operator":"Autobahn GmbH","hours":{"type":"24_7"}},{"id":"autobahn_DE-TH-038011","lat":51.408287999999736,"lon":10.18075200000016,"name":"PWC Leinetal Süd (A38)","city":"","category":"public_24h","tags":["autobahn","a38","toilette"],"opening_hours":"24/7","operator":"Autobahn GmbH","hours":{"type":"24_7"}},{"id":"autobahn_DE-TH-038022","lat":51.40427699999921,"lon":10.415808000000395,"name":"TR Eichsfeld Nord (A38)","city":"","category":"public_24h","tags":["autobahn","a38","toilette"],"opening_hours":"24/7","operator":"Autobahn GmbH","hours":{"type":"24_7"}},{"id":"autobahn_DE-TH-038021","lat":51.40277799999921,"lon":10.415664000000394,"name":"TR Eichsfeld Süd (A38)","city":"","category":"public_24h","tags":["autobahn","a38","toilette"],"opening_hours":"24/7","operator":"Autobahn GmbH","hours":{"type":"24_7"}},{"id":"autobahn_DE-TH-038032","lat":51.434726999998226,"lon":10.623396000000778,"name":"PWC Galgenberg Nord (A38)","city":"","category":"public_24h","tags":["autobahn","a38","toilette"],"opening_hours":"24/7","operator":"Autobahn GmbH","hours":{"type":"24_7"}},{"id":"autobahn_DE-TH-038031","lat":51.43389399999823,"lon":10.622489000000776,"name":"PWC Galgenberg Süd (A38)","city":"","category":"public_24h","tags":["autobahn","a38","toilette"],"opening_hours":"24/7","operator":"Autobahn GmbH","hours":{"type":"24_7"}},{"id":"autobahn_DE-TH-038042","lat":51.47257799999693,"lon":10.779848000001216,"name":"PWC Kesselberg Nord (A38)","city":"","category":"public_24h","tags":["autobahn","a38","toilette"],"opening_hours":"24/7","operator":"Autobahn GmbH","hours":{"type":"24_7"}},{"id":"autobahn_DE-TH-038041","lat":51.47183899999693,"lon":10.778745000001216,"name":"PWC Kesselberg Süd (A38)","city":"","category":"public_24h","tags":["autobahn","a38","toilette"],"opening_hours":"24/7","operator":"Autobahn GmbH","hours":{"type":"24_7"}},{"id":"station_node_175905094","lat":51.8401896,"lon":10.7888637,"name":"Wernigerode Hbf","city":"Wernigerode","category":"station","tags":["bahnhof","barrierefrei"],"opening_hours":"Mo-Fr 05:00-20:00; Sa 07:00-19:00; Su 08:00-20:00","operator":"DB InfraGO","hours":{"type":"weekly","weekly":{"0":{"isOpen":true,"periods":[{"open":480,"close":1200}]},"1":{"isOpen":true,"periods":[{"open":300,"close":1200}]},"2":{"isOpen":true,"periods":[{"open":300,"close":1200}]},"3":{"isOpen":true,"periods":[{"open":300,"close":1200}]},"4":{"isOpen":true,"periods":[{"open":300,"close":1200}]},"5":{"isOpen":true,"periods":[{"open":300,"close":1200}]},"6":{"isOpen":true,"periods":[{"open":420,"close":1140}]}},"original":"Mo-Fr 05:00-20:00; Sa 07:00-19:00; Su 08:00-20:00"}},{"id":"sanifair_node_3472244151","lat":51.0088429,"lon":10.9935266,"name":"Kunden-WC","city":"","category":"station","tags":["sanifair","barrierefrei","kostenpflichtig"],"opening_hours":"Mo-Sa 08:00-20:30","operator":"Sanifair","fee":"yes","hours":{"type":"weekly","weekly":{"0":{"isOpen":false,"periods":[]},"1":{"isOpen":true,"periods":[{"open":480,"close":1230}]},"2":{"isOpen":true,"periods":[{"open":480,"close":1230}]},"3":{"isOpen":true,"periods":[{"open":480,"close":1230}]},"4":{"isOpen":true,"periods":[{"open":480,"close":1230}]},"5":{"isOpen":true,"periods":[{"open":480,"close":1230}]},"6":{"isOpen":true,"periods":[{"open":480,"close":1230}]}},"original":"Mo-Sa 08:00-20:30"}},{"id":"sanifair_node_5908914550","lat":51.4026445,"lon":10.4144129,"name":"Sanifair WC","city":"","category":"station","tags":["sanifair","barrierefrei","kostenpflichtig"],"operator":"SANIFAIR GmbH","fee":"yes","hours":{"type":"unknown"}},{"id":"sanifair_node_5908914794","lat":51.4043148,"lon":10.4166022,"name":"Sanifair WC","city":"","category":"station","tags":["sanifair","barrierefrei","kostenpflichtig"],"operator":"SANIFAIR GmbH","fee":"yes","hours":{"type":"unknown"}},{"id":"sanifair_node_8339175762","lat":51.9616275,"lon":10.004698,"name":"Sanifair WC","city":"","category":"station","tags":["sanifair","barrierefrei"],"operator":"Waldbad Lamspringe","hours":{"type":"unknown"}},{"id":"gplace_ChIJtThVa5BtpEcR871QlVAndgQ","lat":51.008300399999996,"lon":10.9989043,"name":"Lotushaus","city":"Erfurt","category":"gastro","tags":["barrierefrei","google_wc_accessible"],"hours":{"type":"unknown"}},{"id":"gplace_ChIJXeWtQl8_pUcR2D1UnSub90Y","lat":51.8989346,"lon":10.3977992,"name":"Steinberg Alm Zum Rösner","city":"Goslar","category":"gastro","tags":["barrierefrei","google_wc_accessible"],"hours":{"type":"unknown"}},{"id":"gplace_ChIJRyRK4mQ_pUcRQS6Mk6rt_D8","lat":51.891619999999996,"lon":10.424647,"name":"Berggaststätte \"Maltermeister Turm\"","city":"Goslar","category":"gastro","tags":["barrierefrei","google_wc_accessible"],"hours":{"type":"unknown"}},{"id":"gplace_ChIJgwmY-2U_pUcRxjqjiDy_Tp0","lat":51.8900423,"lon":10.4192327,"name":"Casino Rammelsberg - Café und Restaurant","city":"Goslar","category":"gastro","tags":["barrierefrei","google_wc_accessible"],"hours":{"type":"unknown"}},{"id":"gplace_ChIJeTK39ag_pUcRwkeIiceupP0","lat":51.888926399999995,"lon":10.418958499999999,"name":"Zum Förderturm by Dolce Amaro","city":"Goslar","category":"gastro","tags":["barrierefrei","google_wc_accessible"],"hours":{"type":"unknown"}},{"id":"gplace_ChIJPUQqnJtApUcR102Z0AI4pq8","lat":51.9052778,"lon":10.428055599999999,"name":"Brauhaus Goslar","city":"Goslar","category":"gastro","tags":["google_has_restroom"],"hours":{"type":"unknown"}},{"id":"gplace_ChIJSUL9rpdApUcRy8Wnp9ac8tw","lat":51.912559099999996,"lon":10.4202788,"name":"EDEKA Center Goslar","city":"Goslar","category":"other","tags":["barrierefrei","google_wc_accessible"],"hours":{"type":"unknown"}},{"id":"gplace_ChIJlxMKeZtApUcRMSbZ9bjOANI","lat":51.9046259,"lon":10.4288937,"name":"Paulaner Wirtshaus an der Lohmühle","city":"Goslar","category":"gastro","tags":["google_has_restroom"],"hours":{"type":"unknown"}},{"id":"gplace_ChIJK5-GQ5pApUcRDznergYJjfc","lat":51.907989699999995,"lon":10.4282004,"name":"GALERIA Goslar","city":"Goslar","category":"other","tags":["barrierefrei","google_wc_accessible"],"hours":{"type":"unknown"}},{"id":"gplace_ChIJyRzDUopApUcRcmbJRhs9T28","lat":51.906847199999994,"lon":10.429673099999999,"name":"KaiserPassage","city":"Goslar","category":"other","tags":["barrierefrei","google_wc_accessible"],"hours":{"type":"unknown"}},{"id":"gplace_ChIJjSehTwBBpUcR5oD5vWrwsGI","lat":51.9063166,"lon":10.427631,"name":"Hirsch Cafe","city":"Goslar","category":"gastro","tags":["barrierefrei","google_wc_accessible"],"hours":{"type":"unknown"}},{"id":"gplace_ChIJAZwdDydBpUcRGYCs5GJxm2U","lat":51.907394,"lon":10.430168199999999,"name":"Hallyu Korean Kitchen","city":"Goslar","category":"gastro","tags":["google_has_restroom"],"hours":{"type":"unknown"}},{"id":"gplace_ChIJY6EGIJJBpUcRJWK4pcp_JII","lat":51.9105883,"lon":10.423161000000002,"name":"Fehmis Gemüse Kebap","city":"Goslar","category":"gastro","tags":["barrierefrei","google_entrance_accessible","google_has_restroom"],"hours":{"type":"unknown"}},{"id":"gplace_ChIJewSvaJtApUcRU5DXH79N9XM","lat":51.9047534,"lon":10.4298185,"name":"Restaurant Worthmühle","city":"Goslar","category":"gastro","tags":["google_has_restroom"],"hours":{"type":"unknown"}},{"id":"gplace_ChIJBR4-PJpApUcRLF1-DwCElt8","lat":51.908084099999996,"lon":10.427319899999999,"name":"Wildfang - Bier & Wirtshaus","city":"Goslar","category":"gastro","tags":["barrierefrei","google_entrance_accessible","google_has_restroom"],"hours":{"type":"unknown"}},{"id":"gplace_ChIJlw8ANJpApUcRgTci4hag0yk","lat":51.9073461,"lon":10.427133099999999,"name":"Veggie Vegan - Schneeweiss und Rosenrot","city":"Goslar","category":"gastro","tags":["google_has_restroom"],"hours":{"type":"unknown"}},{"id":"gplace_ChIJ_e_ZOppApUcRKUwcmHfStLQ","lat":51.909639899999995,"lon":10.4306044,"name":"Schwarzes Schaf","city":"Goslar","category":"gastro","tags":["google_has_restroom"],"hours":{"type":"unknown"}},{"id":"gplace_ChIJrfrmN61BpUcR70p6iB-RDjw","lat":51.9035325,"lon":10.4273208,"name":"Harzer Burger König Goslar","city":"Goslar","category":"gastro","tags":["barrierefrei","google_entrance_accessible"],"hours":{"type":"unknown"}},{"id":"gplace_ChIJabCS1pdApUcRcsvIubdPQMY","lat":51.929550600000006,"lon":10.410853,"name":"Kaufland Goslar","city":"Goslar","category":"gastro","tags":["barrierefrei","google_wc_accessible"],"hours":{"type":"unknown"}},{"id":"gplace_ChIJcXC8mcdBpUcR4QoweA2Qyuc","lat":51.9245315,"lon":10.416359900000002,"name":"China Restaurant Asia Gourmet Goslar","city":"Goslar","category":"gastro","tags":["barrierefrei","google_wc_accessible"],"hours":{"type":"unknown"}},{"id":"gplace_ChIJMxNiUs5ApUcRH85bsE3FxzU","lat":51.930403899999995,"lon":10.409049000000001,"name":"McDonald's","city":"Goslar","category":"gastro","tags":["google_has_restroom"],"hours":{"type":"unknown"}},{"id":"gplace_ChIJQ7b1kL9ApUcRfzdMLzEbUjI","lat":51.921402,"lon":10.4208302,"name":"FITNESSLAND Goslar","city":"Goslar","category":"other","tags":["barrierefrei","google_wc_accessible"],"hours":{"type":"unknown"}},{"id":"gplace_ChIJwe2Sm5dApUcRjcQOSaRX29c","lat":51.910927,"lon":10.4223404,"name":"Celtic-Inn Irish Pub","city":"Goslar","category":"gastro","tags":["barrierefrei","google_entrance_accessible"],"hours":{"type":"unknown"}},{"id":"gplace_ChIJlxHKev8CcEERwP8uYLMgUQA","lat":51.9110527,"lon":10.4196434,"name":"EASYFITNESS.club Goslar","city":"Goslar","category":"other","tags":["google_has_restroom"],"hours":{"type":"unknown"}},{"id":"gplace_ChIJz5YeMbtqpUcRFwlJ7Pwiwz4","lat":51.924749,"lon":10.4312731,"name":"Pizzeria Marco Polo","city":"Goslar","category":"gastro","tags":["barrierefrei","google_entrance_accessible"],"hours":{"type":"unknown"}},{"id":"gplace_ChIJccnMC8dApUcRJHMjwjuWBjU","lat":51.923649,"lon":10.413237599999999,"name":"LEZZETO - KEBAP UND PIZZA HOUSE","city":"Goslar","category":"gastro","tags":["barrierefrei","google_entrance_accessible"],"hours":{"type":"unknown"}},{"id":"gplace_ChIJ-egWk8RApUcRVcgl4qYzHfE","lat":51.93008,"lon":10.41827,"name":"HF Bistro","city":"Goslar","category":"gastro","tags":["google_has_restroom"],"hours":{"type":"unknown"}},{"id":"gplace_ChIJQ30If4RApUcRj_nG--W8ZWQ","lat":51.903675299999996,"lon":10.4351702,"name":"REWE","city":"Goslar","category":"other","tags":["barrierefrei","google_wc_accessible"],"hours":{"type":"unknown"}},{"id":"gplace_ChIJP_Y2wY5ApUcRpJdcBHQqp5o","lat":51.912684999999996,"lon":10.440883999999999,"name":"HEM Tankstelle","city":"Goslar","category":"tankstelle","tags":["barrierefrei","google_wc_accessible"],"hours":{"type":"unknown"}},{"id":"gplace_ChIJs6-4o_BBpUcRIKqNwobiMCI","lat":51.9306949,"lon":10.431720799999999,"name":"REWE","city":"Goslar","category":"other","tags":["barrierefrei","google_wc_accessible"],"hours":{"type":"unknown"}},{"id":"gplace_ChIJ_wo_e5dApUcRkZE6WxRFVDA","lat":51.9104429,"lon":10.4240853,"name":"Baker Wolf GmbH shop Wolf Railway","city":"Goslar","category":"gastro","tags":["barrierefrei","google_entrance_accessible","google_has_restroom"],"hours":{"type":"unknown"}},{"id":"gplace_ChIJpxyhcIlApUcRrIgp7Q_hIwc","lat":51.9132131,"lon":10.4456857,"name":"McDonald's","city":"Goslar","category":"gastro","tags":["google_has_restroom"],"hours":{"type":"unknown"}},{"id":"gplace_ChIJebxKQX9BpUcRlESiQ5qdkSw","lat":51.9167287,"lon":10.4488255,"name":"MARKTKAUF Goslar","city":"Goslar","category":"other","tags":["barrierefrei","google_wc_accessible"],"hours":{"type":"unknown"}},{"id":"gplace_ChIJDW60wWFApUcR15kdI6z7h0E","lat":51.914280100000006,"lon":10.451685399999999,"name":"Subway","city":"Goslar","category":"gastro","tags":["google_has_restroom"],"hours":{"type":"unknown"}},{"id":"gplace_ChIJfT7hzX1BpUcRSOoCSNvZJfw","lat":51.9160416,"lon":10.453257899999999,"name":"Bollywood Tadka","city":"Goslar","category":"gastro","tags":["google_has_restroom"],"hours":{"type":"unknown"}},{"id":"gplace_ChIJjZKDJYpApUcR6WdAkm5Das4","lat":51.91372,"lon":10.447519999999999,"name":"Harz Food Goslar","city":"Goslar","category":"gastro","tags":["barrierefrei","google_entrance_accessible"],"hours":{"type":"unknown"}},{"id":"gplace_ChIJV7xXkZJApUcRkv-NqfZPfuU","lat":51.917771,"lon":10.435512899999999,"name":"Baker Wolf GmbH shop Feldstraße","city":"Goslar","category":"gastro","tags":["barrierefrei","google_wc_accessible"],"hours":{"type":"unknown"}},{"id":"gplace_ChIJ5zCWxo9ApUcR4mcm6pqDnnE","lat":51.9107425,"lon":10.435779,"name":"Twins Gym","city":"Goslar","category":"other","tags":["google_has_restroom"],"hours":{"type":"unknown"}},{"id":"gplace_ChIJVw6GEQBBpUcRoLOFBY6Hsnk","lat":51.9257627,"lon":10.4316976,"name":"Lala's Pizza","city":"Goslar","category":"gastro","tags":["google_has_restroom"],"hours":{"type":"unknown"}},{"id":"gplace_ChIJlSWLpu5ApUcRod1_-0t_AZ0","lat":51.92524110000001,"lon":10.4339714,"name":"Little Italy Restaurant","city":"Goslar","category":"gastro","tags":["google_has_restroom"],"hours":{"type":"unknown"}},{"id":"gplace_ChIJUdSIeWZApUcRlv76rzmmemA","lat":51.9121704,"lon":10.4612159,"name":"Fitness First Goslar","city":"Goslar","category":"other","tags":["google_has_restroom"],"hours":{"type":"unknown"}},{"id":"gplace_ChIJt_dy6YVApUcRJAFoYRB15Nk","lat":51.90747770000001,"lon":10.4388799,"name":"Aral","city":"Goslar","category":"tankstelle","tags":["barrierefrei","google_wc_accessible"],"hours":{"type":"unknown"}},{"id":"gplace_ChIJ3UjT8IVApUcROOxMkkCvHyE","lat":51.908122999999996,"lon":10.439447399999999,"name":"Goslar Lindenhof","city":"Goslar","category":"gastro","tags":["barrierefrei","google_wc_accessible"],"hours":{"type":"unknown"}},{"id":"gplace_ChIJe9FmXIlApUcRuXtBpjnMtJI","lat":51.9128725,"lon":10.4439174,"name":"Bäcker Wolf GmbH Fachgeschäft Odermarkplatz","city":"Goslar","category":"gastro","tags":["barrierefrei","google_entrance_accessible"],"hours":{"type":"unknown"}},{"id":"gplace_ChIJf2m-bQxBpUcRRiNLy3gwvPc","lat":51.9148119,"lon":10.450896199999999,"name":"XXXL Restaurant Goslar","city":"Goslar","category":"gastro","tags":["google_has_restroom"],"hours":{"type":"unknown"}},{"id":"gplace_ChIJ2wFpNOIMpUcRdXtsL13MY4E","lat":51.8398019,"lon":10.7728219,"name":"Wernigerode Aviation Museum","city":"Wernigerode","category":"gastro","tags":["barrierefrei","google_wc_accessible"],"hours":{"type":"unknown"}},{"id":"gplace_ChIJ5dm4o_EMpUcR9mdbxH4SX8o","lat":51.832077,"lon":10.7853975,"name":"Altwernigeröder Kartoffelhaus","city":"Wernigerode","category":"gastro","tags":["google_has_restroom"],"hours":{"type":"unknown"}},{"id":"gplace_ChIJX9hl4fEMpUcRORzu2hdzH-Y","lat":51.8341929,"lon":10.786640900000002,"name":"Brauhaus Wernigerode","city":"Wernigerode","category":"gastro","tags":["barrierefrei","google_entrance_accessible"],"hours":{"type":"unknown"}},{"id":"gplace_ChIJ7zNFPF8NpUcRYUux_0YbDQI","lat":51.8332561,"lon":10.7849645,"name":"Piazza Colombo","city":"Wernigerode","category":"gastro","tags":["google_has_restroom"],"hours":{"type":"unknown"}},{"id":"gplace_ChIJh0puHO4MpUcR85vw5Ctm9gg","lat":51.8343312,"lon":10.7874541,"name":"ICE Cafe Venezia","city":"Wernigerode","category":"gastro","tags":["google_has_restroom"],"hours":{"type":"unknown"}},{"id":"gplace_ChIJkV_xte8MpUcRnv-brzKyEC8","lat":51.83527780000001,"lon":10.7841667,"name":"Altstadt-Passagen","city":"Wernigerode","category":"other","tags":["barrierefrei","google_wc_accessible"],"hours":{"type":"unknown"}},{"id":"gplace_ChIJIa0N3PEMpUcRFexfG3Uigso","lat":51.833627799999995,"lon":10.786213199999999,"name":"Löwenbräu am Kohlmarkt","city":"Wernigerode","category":"gastro","tags":["google_has_restroom"],"hours":{"type":"unknown"}},{"id":"gplace_ChIJ95spcIQNpUcRumZd68D6EzM","lat":51.8335793,"lon":10.7885467,"name":"Das Luma'z | Café, Rösterei & Shop!","city":"Wernigerode","category":"gastro","tags":["barrierefrei","google_entrance_accessible"],"hours":{"type":"unknown"}},{"id":"gplace_ChIJAQBM4u4MpUcRKqQVgg95rLw","lat":51.8378448,"lon":10.7860937,"name":"Restaurant \"1835\" in Wernigerode","city":"Wernigerode","category":"gastro","tags":["barrierefrei","google_wc_accessible"],"hours":{"type":"unknown"}},{"id":"gplace_ChIJ7VATTPAMpUcR4YfI3V89HpQ","lat":51.832660999999995,"lon":10.783843,"name":"Restaurant Orchidea Huong","city":"Wernigerode","category":"gastro","tags":["google_has_restroom"],"hours":{"type":"unknown"}},{"id":"gplace_ChIJlc3qUg2FpUcRDci96Rn0FeM","lat":51.831280899999996,"lon":10.7811794,"name":"Volkslichtspiele Wernigerode","city":"Wernigerode","category":"gastro","tags":["barrierefrei","google_wc_accessible"],"hours":{"type":"unknown"}},{"id":"gplace_ChIJo3Um1_EMpUcR3v617rsOxmI","lat":51.8339376,"lon":10.785514500000001,"name":"Schlemmercafe Sachsen-Anhalt","city":"Wernigerode","category":"gastro","tags":["barrierefrei","google_entrance_accessible"],"hours":{"type":"unknown"}},{"id":"gplace_ChIJRb73SzRzpUcRqOFD0JHXhdU","lat":51.8379017,"lon":10.794818399999999,"name":"TotalEnergies Tankstelle","city":"Wernigerode","category":"gastro","tags":["barrierefrei","google_wc_accessible"],"hours":{"type":"unknown"}},{"id":"gplace_ChIJz2vIsu0MpUcRjGP75zu-NXk","lat":51.836395499999995,"lon":10.7917671,"name":"Restaurant Alte Brennerei Schnitzelhaus","city":"Wernigerode","category":"gastro","tags":["barrierefrei","google_wc_accessible"],"hours":{"type":"unknown"}},{"id":"gplace_ChIJyT-sIQANpUcRVNw5b5F8iAo","lat":51.835754099999996,"lon":10.790306099999999,"name":"Hoi An","city":"Wernigerode","category":"gastro","tags":["google_has_restroom"],"hours":{"type":"unknown"}},{"id":"gplace_ChIJ_-sdrTINpUcRHGZXobA3qHM","lat":51.835296,"lon":10.7890553,"name":"Restaurant Pietsch","city":"Wernigerode","category":"gastro","tags":["barrierefrei","google_entrance_accessible"],"hours":{"type":"unknown"}},{"id":"gplace_ChIJoQzK7-0MpUcRC6mx4UWYwuA","lat":51.8345677,"lon":10.789775299999999,"name":"Restaurant Santorini","city":"Wernigerode","category":"gastro","tags":["google_has_restroom"],"hours":{"type":"unknown"}},{"id":"gplace_ChIJUeTVN-3_pEcRFrpMp96f1nQ","lat":51.503453,"lon":10.794218599999999,"name":"Shopping mall Echte Nordhäuser","city":"Nordhausen","category":"other","tags":["barrierefrei","google_wc_accessible"],"hours":{"type":"unknown"}},{"id":"gplace_ChIJ74wW6un_pEcR31atUIX0JN8","lat":51.5105,"lon":10.7853,"name":"JET Tankstelle","city":"Nordhausen","category":"gastro","tags":["barrierefrei","google_wc_accessible"],"hours":{"type":"unknown"}},{"id":"gplace_ChIJtRAFV8b_pEcRrQNNfsvgf6U","lat":51.5074611,"lon":10.7738138,"name":"METRO GASTRO Nordhausen","city":"Nordhausen","category":"other","tags":["barrierefrei","google_wc_accessible"],"hours":{"type":"unknown"}},{"id":"gplace_ChIJq2DYzev_pEcRiqb5EOjK1ZY","lat":51.508553899999995,"lon":10.7864382,"name":"Subway","city":"Nordhausen","category":"gastro","tags":["barrierefrei","google_entrance_accessible"],"hours":{"type":"unknown"}},{"id":"gplace_ChIJE0db9un_pEcRqgk8VvBqNgI","lat":51.5089301,"lon":10.784434599999999,"name":"chinese restaurant PAVILLION","city":"Nordhausen","category":"gastro","tags":["barrierefrei","google_wc_accessible"],"hours":{"type":"unknown"}},{"id":"gplace_ChIJ7ffR2ez_pEcRTl2ZeU8A3QM","lat":51.503930999999994,"lon":10.7921918,"name":"Ristorante-Pizzeria Rustica","city":"Nordhausen","category":"gastro","tags":["google_has_restroom"],"hours":{"type":"unknown"}},{"id":"gplace_ChIJU2R36ez_pEcRYpUc-x-SCi0","lat":51.5047645,"lon":10.7914618,"name":"Restaurant Zum Socken","city":"Nordhausen","category":"gastro","tags":["google_has_restroom"],"hours":{"type":"unknown"}},{"id":"gplace_ChIJqWjJxpT_pEcRfTG2tfgN66w","lat":51.5027778,"lon":10.7861111,"name":"Akropolis","city":"Nordhausen","category":"gastro","tags":["barrierefrei","google_wc_accessible"],"hours":{"type":"unknown"}},{"id":"gplace_ChIJP6tnz5L_pEcRX_6XNdgAlp0","lat":51.5025864,"lon":10.792988099999999,"name":"Istanbul Kebap & Pizzahaus","city":"Nordhausen","category":"gastro","tags":["google_has_restroom"],"hours":{"type":"unknown"}},{"id":"gplace_ChIJs_nIXKP_pEcRK-4EB1gHjkA","lat":51.510780200000006,"lon":10.791319500000002,"name":"Waldschlösschen Nordhausen","city":"Nordhausen","category":"gastro","tags":["barrierefrei","google_wc_accessible"],"hours":{"type":"unknown"}},{"id":"gplace_ChIJoYrFZpX_pEcRnt6OlHPEqp4","lat":51.5026811,"lon":10.7817539,"name":"Dilan Kebab Haus","city":"Nordhausen","category":"gastro","tags":["google_has_restroom"],"hours":{"type":"unknown"}},{"id":"gplace_ChIJz6GLtXH_pEcROEEvtQf2krE","lat":51.5079658,"lon":10.786657,"name":"Ariella Restaurant","city":"Nordhausen","category":"gastro","tags":["google_has_restroom"],"hours":{"type":"unknown"}},{"id":"gplace_ChIJqwj8rJH_pEcRUBX2-Zc6RRw","lat":51.495378599999995,"lon":10.7901863,"name":"shopping gallery Südharz","city":"Nordhausen","category":"other","tags":["barrierefrei","google_wc_accessible"],"hours":{"type":"unknown"}},{"id":"gplace_ChIJ-SrCqmP_pEcRwNe4ECTaqbs","lat":51.4957499,"lon":10.7895495,"name":"REWE","city":"Nordhausen","category":"other","tags":["barrierefrei","google_wc_accessible"],"hours":{"type":"unknown"}},{"id":"gplace_ChIJrWg9DJL_pEcRkBi4uolmt3w","lat":51.496101499999995,"lon":10.7917174,"name":"Sadhu Restaurant","city":"Nordhausen","category":"gastro","tags":["google_has_restroom"],"hours":{"type":"unknown"}},{"id":"gplace_ChIJ48vxUI3_pEcRARhIK0VLtFY","lat":51.50235,"lon":10.79622,"name":"Café Central","city":"Nordhausen","category":"gastro","tags":["barrierefrei","google_entrance_accessible"],"hours":{"type":"unknown"}},{"id":"gplace_ChIJ_YOGHpL_pEcRMxim2ixQEmM","lat":51.4980206,"lon":10.7922626,"name":"Restaurant \"Due Angeli\"","city":"Nordhausen","category":"gastro","tags":["barrierefrei","google_wc_accessible"],"hours":{"type":"unknown"}},{"id":"gplace_ChIJHegDSZD_pEcRcXeUFLWv85E","lat":51.494723,"lon":10.7903159,"name":"ice cream parlor \"Verona\"","city":"Nordhausen","category":"gastro","tags":["barrierefrei","google_entrance_accessible"],"hours":{"type":"unknown"}},{"id":"gplace_ChIJYSe4Uvr_pEcRVxtb4f2hyKU","lat":51.515403899999995,"lon":10.8050269,"name":"Hofbräu Zur Schönen Aussicht","city":"Nordhausen","category":"gastro","tags":["barrierefrei","google_wc_accessible"],"hours":{"type":"unknown"}},{"id":"gplace_ChIJMYY9h5L_pEcRtQOiyHGj3kE","lat":51.50054,"lon":10.7941,"name":"WaffelWunder","city":"Nordhausen","category":"gastro","tags":["barrierefrei","google_entrance_accessible"],"hours":{"type":"unknown"}},{"id":"gplace_ChIJx3jGgOv_pEcRvYhXa00vKWE","lat":51.506437999999996,"lon":10.78965,"name":"Gaststätte „Alt Nordhausen“","city":"Nordhausen","category":"gastro","tags":["barrierefrei","google_wc_accessible"],"hours":{"type":"unknown"}},{"id":"gplace_ChIJAcuD1PL_pEcR1c09YgwbzHk","lat":51.503005300000005,"lon":10.798962,"name":"Namaste India Restaurant","city":"Nordhausen","category":"gastro","tags":["google_has_restroom"],"hours":{"type":"unknown"}},{"id":"gplace_ChIJG-o-C-X_pEcR-guAQRXBAYo","lat":51.514934499999995,"lon":10.8020476,"name":"Rosengarten Villa Italia II 🍽️","city":"Nordhausen","category":"gastro","tags":["barrierefrei","google_wc_accessible"],"hours":{"type":"unknown"}},{"id":"gplace_ChIJ5VTPd7CSpEcRQFI2NL53btY","lat":51.2059356,"lon":10.4508166,"name":"Logenhaus Mühlhausen","city":"Mühlhausen","category":"gastro","tags":["barrierefrei","google_wc_accessible"],"hours":{"type":"unknown"}},{"id":"gplace_ChIJ24mO_biSpEcRTuJnHaBE7FE","lat":51.2031529,"lon":10.4412048,"name":"REWE","city":"Mühlhausen","category":"other","tags":["barrierefrei","google_wc_accessible"],"hours":{"type":"unknown"}},{"id":"gplace_ChIJa4oVw2GTpEcRfVJN5AqTyWE","lat":51.2095025,"lon":10.4465037,"name":"Lillys Eis- und Frühstückscafé","city":"Mühlhausen","category":"gastro","tags":["google_has_restroom"],"hours":{"type":"unknown"}},{"id":"gplace_ChIJ8V3f9rmSpEcRihpMqzO2nNM","lat":51.205691699999996,"lon":10.445648799999999,"name":"EASYFITNESS.club Mühlhausen","city":"Mühlhausen","category":"other","tags":["barrierefrei","google_entrance_accessible"],"hours":{"type":"unknown"}},{"id":"gplace_ChIJSbqxnrGSpEcR1q79VRZ6KRo","lat":51.2098975,"lon":10.451661999999999,"name":"Antoniusmühle Wirtshaus","city":"Mühlhausen","category":"gastro","tags":["barrierefrei","google_entrance_accessible"],"hours":{"type":"unknown"}},{"id":"gplace_ChIJKVrOhEWTpEcRyZKnNEWchcw","lat":51.2056688,"lon":10.4561932,"name":"Restaurant \"Zur Quelle\"","city":"Mühlhausen","category":"gastro","tags":["barrierefrei","google_wc_accessible"],"hours":{"type":"unknown"}},{"id":"gplace_ChIJu9zD-LCSpEcRaOyg-5LwiFE","lat":51.2080975,"lon":10.450315000000002,"name":"Seipels Restaurant","city":"Mühlhausen","category":"gastro","tags":["google_has_restroom"],"hours":{"type":"unknown"}},{"id":"gplace_ChIJpQyy4caSpEcRMAL3fVirLd4","lat":51.2032051,"lon":10.434555999999999,"name":"Eiscafé am Schwanenteich","city":"Mühlhausen","category":"gastro","tags":["google_has_restroom"],"hours":{"type":"unknown"}},{"id":"gplace_ChIJ-8n3ApG-cUERegkJaK1JUQk","lat":51.2029785,"lon":10.4306404,"name":"Kulturstätte Schwanenteich","city":"Mühlhausen","category":"gastro","tags":["barrierefrei","google_wc_accessible"],"hours":{"type":"unknown"}},{"id":"gplace_ChIJ-0HkULuSpEcR37uJTnISBuA","lat":51.2009343,"lon":10.450696899999999,"name":"Luftbad","city":"Mühlhausen","category":"gastro","tags":["barrierefrei","google_wc_accessible"],"hours":{"type":"unknown"}},{"id":"gplace_ChIJIXIzPo-TpEcRqnfCClhI0bo","lat":51.209776399999996,"lon":10.4557103,"name":"SYRTAKI Mühlhausen","city":"Mühlhausen","category":"gastro","tags":["google_has_restroom"],"hours":{"type":"unknown"}},{"id":"gplace_ChIJMSqye6ySpEcRebDEzZVVVno","lat":51.212287499999995,"lon":10.462476299999999,"name":"Rewe","city":"Mühlhausen","category":"other","tags":["barrierefrei","google_wc_accessible"],"hours":{"type":"unknown"}},{"id":"gplace_ChIJv4htC7STpEcRP5csInD-qWA","lat":51.2114893,"lon":10.4608215,"name":"Burggalerie","city":"Mühlhausen","category":"other","tags":["barrierefrei","google_wc_accessible"],"hours":{"type":"unknown"}},{"id":"gplace_ChIJXbn7y0yTpEcRtB1c_OcoTCM","lat":51.209037699999996,"lon":10.4600851,"name":"Ganesha Indisches Restaurant","city":"Mühlhausen","category":"gastro","tags":["google_has_restroom"],"hours":{"type":"unknown"}},{"id":"gplace_ChIJvbWQQ1PtpEcRunYQr4pTzdY","lat":51.2163027,"lon":10.463585199999999,"name":"TotalEnergies Tankstelle","city":"Mühlhausen","category":"gastro","tags":["barrierefrei","google_wc_accessible"],"hours":{"type":"unknown"}},{"id":"gplace_ChIJXfqcH7OSpEcRDMLOi38AOC4","lat":51.214611299999994,"lon":10.4532923,"name":"Hotel und Speisegaststätte Ammerscher Bahnhof","city":"Mühlhausen","category":"gastro","tags":["google_has_restroom"],"hours":{"type":"unknown"}},{"id":"gplace_ChIJ28PwIBuTpEcR4sTKVwXh0a0","lat":51.2083999,"lon":10.4612337,"name":"Cafe Kasa","city":"Mühlhausen","category":"gastro","tags":["google_has_restroom"],"hours":{"type":"unknown"}},{"id":"gplace_ChIJTVt2OKmSpEcR7k_APIHiCWQ","lat":51.20878630000001,"lon":10.462441799999999,"name":"Pinocchio Pizza & Pasta","city":"Mühlhausen","category":"gastro","tags":["barrierefrei","google_wc_accessible"],"hours":{"type":"unknown"}},{"id":"gplace_ChIJo4nXTFaNpEcRhULAoQu-0wo","lat":51.20666670000001,"lon":10.4702778,"name":"Ristorante Paganini","city":"Mühlhausen","category":"gastro","tags":["google_has_restroom"],"hours":{"type":"unknown"}},{"id":"gplace_ChIJGVoZqq-SpEcRdoqE_MaIX5I","lat":51.207488999999995,"lon":10.4569946,"name":"Restaurant Brauhaus Zum Löwen Mühlhausen","city":"Mühlhausen","category":"gastro","tags":["barrierefrei","google_wc_accessible"],"hours":{"type":"unknown"}},{"id":"gplace_ChIJdZn72mKTpEcRHY4BYgYs9rI","lat":51.207017199999996,"lon":10.460021,"name":"Die Bürgermeisterei 1728","city":"Mühlhausen","category":"gastro","tags":["barrierefrei","google_wc_accessible"],"hours":{"type":"unknown"}},{"id":"gplace_ChIJh2FgURiTpEcRG6WLIbC7-Ik","lat":51.210201299999994,"lon":10.4606044,"name":"Hallo Sushi & Bubble Tea","city":"Mühlhausen","category":"gastro","tags":["google_has_restroom"],"hours":{"type":"unknown"}},{"id":"gplace_ChIJv_I47FWNpEcRES6QO61SlSI","lat":51.2091667,"lon":10.4683333,"name":"Chinarestaurant \"Pavillon\"","city":"Mühlhausen","category":"gastro","tags":["google_has_restroom"],"hours":{"type":"unknown"}}]