[{"id":"do_net_d9d84f75","lat":51.5199340908,"lon":7.4607139164,"name":"Auslandsgesellschaft","city":"Dortmund","category":"other","tags":["barrierefrei","nette-toilette"],"operator":"Auslandsgesellschaft"},{"id":"do_net_f2fbc64f","lat":51.5111634161,"lon":7.4679664266,"name":"Berswordt-Halle (Stadthaus)","city":"Dortmund","category":"other","tags":["barrierefrei","nette-toilette"],"operator":"Berswordt-Halle (Stadthaus)"},{"id":"do_net_f872829d","lat":51.4754409964,"lon":7.4397441951,"name":"Bezirksverwaltungsstelle","city":"Dortmund","category":"other","tags":["barrierefrei","nette-toilette"],"operator":"Bezirksverwaltungsstelle"},{"id":"do_net_b76828fc","lat":51.4878192589,"lon":7.5013427788,"name":"Bezirksverwaltungsstelle","city":"Dortmund","category":"other","tags":["barrierefrei","nette-toilette"],"operator":"Bezirksverwaltungsstelle"},{"id":"do_net_d1c23eae","lat":51.5161273176,"lon":7.4671850178,"name":"Café Bäumchen","city":"Dortmund","category":"other","tags":["barrierefrei","nette-toilette"],"operator":"Café Bäumchen"},{"id":"do_net_9a039ea7","lat":51.531205897,"lon":7.4137556811,"name":"Café täglich","city":"Dortmund","category":"other","tags":["barrierefrei","nette-toilette"],"operator":"Café täglich"},{"id":"do_net_8d0d24ae","lat":51.5794191124,"lon":7.4659211048,"name":"Evangelisches Familienzentrum","city":"Dortmund","category":"other","tags":["barrierefrei","nette-toilette"],"operator":"Evangelisches Familienzentrum"},{"id":"do_net_b3964536","lat":51.5099269016,"lon":7.3833947595,"name":"Gastronomiebetrieb \"Altes Brauhaus\"","city":"Dortmund","category":"other","tags":["barrierefrei","nette-toilette"],"operator":"Gastronomiebetrieb \"Altes Brauhaus\""},{"id":"do_net_0c515b3e","lat":51.4802109033,"lon":7.4900122333,"name":"Gaststätte - Im Justenkamp","city":"Dortmund","category":"other","tags":["barrierefrei","nette-toilette"],"operator":"Gaststätte - Im Justenkamp"},{"id":"do_net_829983b7","lat":51.562212749,"lon":7.4154490851,"name":"Gut Königsmühle (Stiftung help & hope)","city":"Dortmund","category":"other","tags":["barrierefrei","nette-toilette"],"operator":"Gut Königsmühle (Stiftung help & hope)"},{"id":"do_net_c2f4ed57","lat":51.5052999033,"lon":7.4484018663,"name":"House of Beauty","city":"Dortmund","category":"other","tags":["barrierefrei","nette-toilette"],"operator":"House of Beauty"},{"id":"do_net_2548c03b","lat":51.5765268156,"lon":7.5625032743,"name":"KGV Auf der Lauke","city":"Dortmund","category":"other","tags":["barrierefrei","nette-toilette"],"operator":"KGV Auf der Lauke"},{"id":"do_net_e15f4e5d","lat":51.5327219287,"lon":7.4531322044,"name":"Kulturort DEPOT","city":"Dortmund","category":"other","tags":["barrierefrei","nette-toilette"],"operator":"Kulturort DEPOT"},{"id":"do_net_f1e2a4b8","lat":51.5221881327,"lon":7.5448493577,"name":"Kulturzentrum balou e.V.","city":"Dortmund","category":"other","tags":["barrierefrei","nette-toilette"],"operator":"Kulturzentrum balou e.V."},{"id":"do_net_8e9b624c","lat":51.5166458176,"lon":7.4632454851,"name":"MKK - Museum für Kunst und Kulturgeschichte","city":"Dortmund","category":"other","tags":["barrierefrei","nette-toilette"],"operator":"MKK - Museum für Kunst und Kulturgeschichte"},{"id":"do_net_9abcd5fc","lat":51.5664562503,"lon":7.5785169255,"name":"Mowwe Restaurant & Café","city":"Dortmund","category":"other","tags":["barrierefrei","nette-toilette"],"operator":"Mowwe Restaurant & Café"},{"id":"do_net_87d70e7b","lat":51.5438784152,"lon":7.4698534186,"name":"Nordfriedhof","city":"Dortmund","category":"other","tags":["barrierefrei","nette-toilette"],"operator":"Nordfriedhof"},{"id":"do_net_393f743b","lat":51.5116893551,"lon":7.467443833,"name":"Ordnungsamt","city":"Dortmund","category":"other","tags":["barrierefrei","nette-toilette"],"operator":"Ordnungsamt"},{"id":"do_net_bf037eaf","lat":51.5116678685,"lon":7.4905386909,"name":"Ostfriedhof","city":"Dortmund","category":"other","tags":["barrierefrei","nette-toilette"],"operator":"Ostfriedhof"},{"id":"do_net_81575024","lat":51.5712708777,"lon":7.5680368021,"name":"Restaurant Schöne Aussicht","city":"Dortmund","category":"other","tags":["barrierefrei","nette-toilette"],"operator":"Restaurant Schöne Aussicht"},{"id":"do_net_8f3ad767","lat":51.4972504274,"lon":7.3993837428,"name":"Rewe Mankel","city":"Dortmund","category":"other","tags":["barrierefrei","nette-toilette"],"operator":"Rewe Mankel"},{"id":"do_net_d1c83195","lat":51.5708401884,"lon":7.3786229815,"name":"Städt. Begegnungszentrum Mengede","city":"Dortmund","category":"other","tags":["barrierefrei","nette-toilette"],"operator":"Städt. Begegnungszentrum Mengede"},{"id":"do_net_8a109575","lat":51.4889258648,"lon":7.4999727963,"name":"Stadtteilbibliothek Hörde","city":"Dortmund","category":"other","tags":["barrierefrei","nette-toilette"],"operator":"Stadtteilbibliothek Hörde"},{"id":"do_net_17a12e81","lat":51.4885479665,"lon":7.5010810613,"name":"Trattoria Torino","city":"Dortmund","category":"other","tags":["barrierefrei","nette-toilette"],"operator":"Trattoria Torino"},{"id":"do_net_8f491a4d","lat":51.579420711,"lon":7.4599549077,"name":"Turnverein Brechten 1913 e.V.","city":"Dortmund","category":"other","tags":["barrierefrei","nette-toilette"],"operator":"Turnverein Brechten 1913 e.V."},{"id":"do_net_2c61e530","lat":51.5076600806,"lon":7.4701524269,"name":"Wilhelm-Hansmann-Haus","city":"Dortmund","category":"other","tags":["barrierefrei","nette-toilette","eurokey"],"operator":"Wilhelm-Hansmann-Haus","opening_hours":"24/7"},{"id":"do_net_6bc055c2","lat":51.5594494291,"lon":7.5963866292,"name":"Bäckerei Vorwerk (im Gebäude \"Sacré Coeur\")","city":"Dortmund","category":"other","tags":["barrierefrei","nette-toilette"],"operator":"Bäckerei Vorwerk (im Gebäude \"Sacré Coeur\")"},{"id":"do_net_e9ba7cc6","lat":51.5098306268,"lon":7.3820409429,"name":"Bäckermeister Grobe","city":"Dortmund","category":"other","tags":["barrierefrei","nette-toilette"],"operator":"Bäckermeister Grobe"},{"id":"do_net_521b8d38","lat":51.5049941439,"lon":7.4638853226,"name":"Bäckermeister Grobe Saarlandstr.","city":"Dortmund","category":"other","tags":["barrierefrei","nette-toilette"],"operator":"Bäckermeister Grobe Saarlandstr."},{"id":"do_net_99e777a3","lat":51.5518072508,"lon":7.4534003394,"name":"BergAUF e.V.","city":"Dortmund","category":"other","tags":["barrierefrei","nette-toilette"],"operator":"BergAUF e.V."},{"id":"do_net_5d2397f4","lat":51.5711843838,"lon":7.3802143646,"name":"Bezirksverwaltungsstelle","city":"Dortmund","category":"other","tags":["barrierefrei","nette-toilette"],"operator":"Bezirksverwaltungsstelle"},{"id":"do_net_bb6cdb5c","lat":51.4863430239,"lon":7.5010531254,"name":"Bistro Kontrast","city":"Dortmund","category":"other","tags":["barrierefrei","nette-toilette"],"operator":"Bistro Kontrast"},{"id":"do_net_64a58b42","lat":51.5056020725,"lon":7.4514283699,"name":"Bürgermeister Lindemann","city":"Dortmund","category":"other","tags":["barrierefrei","nette-toilette"],"operator":"Bürgermeister Lindemann"},{"id":"do_net_26c84333","lat":51.5136939763,"lon":7.4754819037,"name":"Café Auszeit","city":"Dortmund","category":"other","tags":["barrierefrei","nette-toilette"],"operator":"Café Auszeit"},{"id":"do_net_e11e9ebe","lat":51.5120748251,"lon":7.4879037848,"name":"Café Rot","city":"Dortmund","category":"other","tags":["barrierefrei","nette-toilette"],"operator":"Café Rot"},{"id":"do_net_018496a8","lat":51.5319692515,"lon":7.4497731294,"name":"Café Zum Westerholz","city":"Dortmund","category":"other","tags":["barrierefrei","nette-toilette"],"operator":"Café Zum Westerholz"},{"id":"do_net_b26f83df","lat":51.4776776914,"lon":7.5997989971,"name":"Edeka Meierjohann","city":"Dortmund","category":"other","tags":["barrierefrei","nette-toilette"],"operator":"Edeka Meierjohann"},{"id":"do_net_37a84849","lat":51.4929188249,"lon":7.5863747452,"name":"Edeka Meierjohann","city":"Dortmund","category":"other","tags":["barrierefrei","nette-toilette"],"operator":"Edeka Meierjohann"},{"id":"do_net_b44b0eb0","lat":51.5531112152,"lon":7.4579621512,"name":"Ehemaliges Wohlfahrtsgebäude","city":"Dortmund","category":"other","tags":["barrierefrei","nette-toilette"],"operator":"Ehemaliges Wohlfahrtsgebäude"},{"id":"do_net_7c4bb52c","lat":51.5093203359,"lon":7.3825695649,"name":"Eiscafé Pieruz","city":"Dortmund","category":"other","tags":["barrierefrei","nette-toilette"],"operator":"Eiscafé Pieruz"},{"id":"do_net_ad58d270","lat":51.5055250146,"lon":7.4546721128,"name":"El Mundo","city":"Dortmund","category":"other","tags":["barrierefrei","nette-toilette"],"operator":"El Mundo"},{"id":"do_net_92a1502e","lat":51.573973492,"lon":7.4585633426,"name":"Ev. Kindergarten Brechtener Heide","city":"Dortmund","category":"other","tags":["barrierefrei","nette-toilette"],"operator":"Ev. Kindergarten Brechtener Heide"},{"id":"do_net_1ebcf833","lat":51.4859491507,"lon":7.4986488885,"name":"Ev. Kirchengemeinde Hörde","city":"Dortmund","category":"other","tags":["barrierefrei","nette-toilette"],"operator":"Ev. Kirchengemeinde Hörde"},{"id":"do_net_52bf3de9","lat":51.4999494209,"lon":7.5602171131,"name":"Flüchtlingshilfe e.V.","city":"Dortmund","category":"other","tags":["barrierefrei","nette-toilette"],"operator":"Flüchtlingshilfe e.V."},{"id":"do_net_c765225b","lat":51.5001672612,"lon":7.3373664389,"name":"Gaststätte Alte Post","city":"Dortmund","category":"other","tags":["barrierefrei","nette-toilette"],"operator":"Gaststätte Alte Post"},{"id":"do_net_3e0f3aa3","lat":51.5228436551,"lon":7.5359160559,"name":"Gaststätte Farbe bei Georg","city":"Dortmund","category":"other","tags":["barrierefrei","nette-toilette"],"operator":"Gaststätte Farbe bei Georg"},{"id":"do_net_daac355d","lat":51.5675202026,"lon":7.3715468409,"name":"Hasans Holzkohlegrill","city":"Dortmund","category":"other","tags":["barrierefrei","nette-toilette"],"operator":"Hasans Holzkohlegrill"},{"id":"do_net_7c93bf31","lat":51.4977481552,"lon":7.359097133,"name":"Imbissbetrieb Futterluke","city":"Dortmund","category":"other","tags":["barrierefrei","nette-toilette"],"operator":"Imbissbetrieb Futterluke"},{"id":"do_net_46bdb3af","lat":51.5404672966,"lon":7.3750051255,"name":"Im schönen Wiesengrund","city":"Dortmund","category":"other","tags":["barrierefrei","nette-toilette"],"operator":"Im schönen Wiesengrund"},{"id":"do_net_f8557bdc","lat":51.5802480406,"lon":7.4609268808,"name":"Kinder- und Jugendtreff Brechten","city":"Dortmund","category":"other","tags":["barrierefrei","nette-toilette"],"operator":"Kinder- und Jugendtreff Brechten"},{"id":"do_net_b4cacfaa","lat":51.5316760446,"lon":7.4146153641,"name":"Markt-Schänke","city":"Dortmund","category":"other","tags":["barrierefrei","nette-toilette"],"operator":"Markt-Schänke"},{"id":"do_net_d0e66483","lat":51.5141585528,"lon":7.4559247767,"name":"Mobile Toilettenanlage/WC-Container","city":"Dortmund","category":"public_24h","tags":["barrierefrei","nette-toilette"],"operator":"Mobile Toilettenanlage/WC-Container"},{"id":"do_net_7404fdf1","lat":51.5097109437,"lon":7.4199124158,"name":"Mütterzentrum","city":"Dortmund","category":"other","tags":["barrierefrei","nette-toilette"],"operator":"Mütterzentrum"},{"id":"do_net_e2d9d0ee","lat":51.5556856069,"lon":7.4827159231,"name":"Nachbarschaftstreff \"Mittendrin in der Märchensiedlung\"","city":"Dortmund","category":"other","tags":["barrierefrei","nette-toilette"],"operator":"Nachbarschaftstreff \"Mittendrin in der Märchensiedlung\""},{"id":"do_net_56437047","lat":51.5577657591,"lon":7.5446650089,"name":"Orient-Grill","city":"Dortmund","category":"other","tags":["barrierefrei","nette-toilette"],"operator":"Orient-Grill"},{"id":"do_net_6a107c01","lat":51.5113227841,"lon":7.4655137374,"name":"Rathaus","city":"Dortmund","category":"other","tags":["barrierefrei","nette-toilette"],"operator":"Rathaus"},{"id":"do_net_66505355","lat":51.5240865606,"lon":7.4669444545,"name":"\"Raum vor Ort\" der kefb","city":"Dortmund","category":"other","tags":["barrierefrei","nette-toilette"],"operator":"\"Raum vor Ort\" der kefb"},{"id":"do_net_f8d5abe7","lat":51.5520138414,"lon":7.3666279707,"name":"Restaurant Fachwerk","city":"Dortmund","category":"other","tags":["barrierefrei","nette-toilette"],"operator":"Restaurant Fachwerk"},{"id":"do_net_3e293c9d","lat":51.5572230534,"lon":7.3821168745,"name":"Restaurant Nette's bei Jelena","city":"Dortmund","category":"other","tags":["barrierefrei","nette-toilette"],"operator":"Restaurant Nette's bei Jelena"},{"id":"do_net_d8b0bae0","lat":51.4899680467,"lon":7.5012917493,"name":"Röstwerk","city":"Dortmund","category":"other","tags":["barrierefrei","nette-toilette"],"operator":"Röstwerk"},{"id":"do_net_395e45a7","lat":51.5584987931,"lon":7.4559431686,"name":"SG Phönix Eving 13/58 e.V.","city":"Dortmund","category":"other","tags":["barrierefrei","nette-toilette"],"operator":"SG Phönix Eving 13/58 e.V."},{"id":"do_net_c2850af4","lat":51.5637801879,"lon":7.383579993,"name":"Sportklause","city":"Dortmund","category":"other","tags":["barrierefrei","nette-toilette"],"operator":"Sportklause"},{"id":"do_net_1d58e2ae","lat":51.570612075,"lon":7.3843725735,"name":"Stadtteilbibliothek","city":"Dortmund","category":"other","tags":["barrierefrei","nette-toilette"],"operator":"Stadtteilbibliothek"},{"id":"do_net_291f20d9","lat":51.5756984622,"lon":7.5684700016,"name":"Steak Haus Alte Post","city":"Dortmund","category":"other","tags":["barrierefrei","nette-toilette"],"operator":"Steak Haus Alte Post"},{"id":"do_net_5407358b","lat":51.5126189146,"lon":7.3876810849,"name":"SV Arminia Marten","city":"Dortmund","category":"other","tags":["barrierefrei","nette-toilette"],"operator":"SV Arminia Marten"},{"id":"do_net_f6b4efeb","lat":51.5253420262,"lon":7.4608536228,"name":"Tortys Café","city":"Dortmund","category":"other","tags":["barrierefrei","nette-toilette"],"operator":"Tortys Café"},{"id":"do_net_676ef10b","lat":51.546891503,"lon":7.4290186533,"name":"TuS Freiheit Deusen 1910 e.V.","city":"Dortmund","category":"other","tags":["barrierefrei","nette-toilette"],"operator":"TuS Freiheit Deusen 1910 e.V."},{"id":"do_net_c66b7f89","lat":51.4756360074,"lon":7.4414926238,"name":"Zum Harkort","city":"Dortmund","category":"other","tags":["barrierefrei","nette-toilette"],"operator":"Zum Harkort"},{"id":"do_net_6800f0ff","lat":51.5007093629,"lon":7.5917579108,"name":"Zur Dorfschänke","city":"Dortmund","category":"other","tags":["barrierefrei","nette-toilette"],"operator":"Zur Dorfschänke"},{"id":"do_net_5a1231e2","lat":51.5168916963,"lon":7.501616072,"name":"Akzent Hotel Körner Hof","city":"Dortmund","category":"other","tags":["barrierefrei","nette-toilette"],"operator":"Akzent Hotel Körner Hof"},{"id":"do_net_9a22ec94","lat":51.4976857464,"lon":7.537936258,"name":"Bäckermeister Grobe","city":"Dortmund","category":"other","tags":["barrierefrei","nette-toilette"],"operator":"Bäckermeister Grobe"},{"id":"do_net_26ea11b1","lat":51.5282367769,"lon":7.5842391852,"name":"Bäckermeister Grobe","city":"Dortmund","category":"other","tags":["barrierefrei","nette-toilette"],"operator":"Bäckermeister Grobe"},{"id":"do_net_a74f291f","lat":51.4890680025,"lon":7.5010109977,"name":"Bäckermeister Grobe","city":"Dortmund","category":"other","tags":["barrierefrei","nette-toilette"],"operator":"Bäckermeister Grobe"},{"id":"do_net_d1b4a2e5","lat":51.4778986818,"lon":7.532574884,"name":"Bäckermeister Grobe","city":"Dortmund","category":"other","tags":["barrierefrei","nette-toilette"],"operator":"Bäckermeister Grobe"},{"id":"do_net_1bff94b7","lat":51.4998720733,"lon":7.3367603806,"name":"Bäckermeister Grobe","city":"Dortmund","category":"other","tags":["barrierefrei","nette-toilette"],"operator":"Bäckermeister Grobe"},{"id":"do_net_918dd83c","lat":51.5523263128,"lon":7.5444761437,"name":"Bezirksverwaltungsstelle","city":"Dortmund","category":"other","tags":["barrierefrei","nette-toilette"],"operator":"Bezirksverwaltungsstelle"},{"id":"do_net_e9884baf","lat":51.5493086943,"lon":7.4629026453,"name":"Bezirksverwaltungsstelle","city":"Dortmund","category":"other","tags":["barrierefrei","nette-toilette"],"operator":"Bezirksverwaltungsstelle"},{"id":"do_net_2550f36d","lat":51.5115366096,"lon":7.4476223648,"name":"Biercafé West im Eugen Krautscheid Haus","city":"Dortmund","category":"other","tags":["barrierefrei","nette-toilette"],"operator":"Biercafé West im Eugen Krautscheid Haus"},{"id":"do_net_5bc6ef3c","lat":51.513297818,"lon":7.4822387523,"name":"Brüderlich Restaurant","city":"Dortmund","category":"other","tags":["barrierefrei","nette-toilette"],"operator":"Brüderlich Restaurant"},{"id":"do_net_dbe48610","lat":51.493407322,"lon":7.5572124069,"name":"Café Allegretto","city":"Dortmund","category":"other","tags":["barrierefrei","nette-toilette"],"operator":"Café Allegretto"},{"id":"do_net_4577055f","lat":51.5215737794,"lon":7.4605639215,"name":"Dietrich Keuning Haus","city":"Dortmund","category":"other","tags":["barrierefrei","nette-toilette"],"operator":"Dietrich Keuning Haus"},{"id":"do_net_405280ad","lat":51.5150953858,"lon":7.4534147017,"name":"Dortmunder U","city":"Dortmund","category":"other","tags":["barrierefrei","nette-toilette"],"operator":"Dortmunder U"},{"id":"do_net_38d2e2f0","lat":51.5156572054,"lon":7.5064443134,"name":"Eiscafé San Remo","city":"Dortmund","category":"other","tags":["barrierefrei","nette-toilette"],"operator":"Eiscafé San Remo"},{"id":"do_net_4e3825cb","lat":51.5628282989,"lon":7.4833583919,"name":"Friedhof Kemminghausen","city":"Dortmund","category":"other","tags":["barrierefrei","nette-toilette"],"operator":"Friedhof Kemminghausen"},{"id":"do_net_2d6c891b","lat":51.4819317882,"lon":7.4894390362,"name":"Gartenverein - Am grünen Entenpoth","city":"Dortmund","category":"other","tags":["barrierefrei","nette-toilette"],"operator":"Gartenverein - Am grünen Entenpoth"},{"id":"do_net_dfcdaa1d","lat":51.5054944206,"lon":7.3299211367,"name":"Gastronomie \"Hopfen & Salz\"","city":"Dortmund","category":"other","tags":["barrierefrei","nette-toilette"],"operator":"Gastronomie \"Hopfen & Salz\""},{"id":"do_net_054c8a19","lat":51.5325635375,"lon":7.6142890941,"name":"Gaststätte Alter Hellweg","city":"Dortmund","category":"other","tags":["barrierefrei","nette-toilette"],"operator":"Gaststätte Alter Hellweg"},{"id":"do_net_8c01566a","lat":51.5547615047,"lon":7.4796461609,"name":"Gaststätte Zur Kanne","city":"Dortmund","category":"other","tags":["barrierefrei","nette-toilette"],"operator":"Gaststätte Zur Kanne"},{"id":"do_net_4bed4a2b","lat":51.5127920513,"lon":7.4573582399,"name":"Gesundheitsamt","city":"Dortmund","category":"other","tags":["barrierefrei","nette-toilette"],"operator":"Gesundheitsamt"},{"id":"do_net_4c882e6e","lat":51.4871495265,"lon":7.5005866444,"name":"Haus Kilp","city":"Dortmund","category":"other","tags":["barrierefrei","nette-toilette"],"operator":"Haus Kilp"},{"id":"do_net_0560d686","lat":51.5668787741,"lon":7.538236123,"name":"KIA Motors","city":"Dortmund","category":"other","tags":["barrierefrei","nette-toilette"],"operator":"KIA Motors"},{"id":"do_net_6e3792d5","lat":51.4898915208,"lon":7.4346385298,"name":"Kiosk An der Palmweide","city":"Dortmund","category":"other","tags":["barrierefrei","nette-toilette"],"operator":"Kiosk An der Palmweide"},{"id":"do_net_8af1fa1f","lat":51.5128012615,"lon":7.4831705474,"name":"Küchen-Wirtschaft Bismarck","city":"Dortmund","category":"other","tags":["barrierefrei","nette-toilette"],"operator":"Küchen-Wirtschaft Bismarck"},{"id":"do_net_aed7a05e","lat":51.5137070909,"lon":7.5076362728,"name":"Pizzeria Am Zehnthof","city":"Dortmund","category":"other","tags":["barrierefrei","nette-toilette"],"operator":"Pizzeria Am Zehnthof"},{"id":"do_net_e31788f5","lat":51.5025839334,"lon":7.4175528682,"name":"Pulsschlag - Dorstfelder Bürgerhaus","city":"Dortmund","category":"other","tags":["barrierefrei","nette-toilette"],"operator":"Pulsschlag - Dorstfelder Bürgerhaus"},{"id":"do_net_5bc97647","lat":51.5449637522,"lon":7.3737553356,"name":"Quartiersmanagement","city":"Dortmund","category":"other","tags":["barrierefrei","nette-toilette"],"operator":"Quartiersmanagement"},{"id":"do_net_a4638227","lat":51.4916341053,"lon":7.5549987457,"name":"Ratskeller","city":"Dortmund","category":"public_24h","tags":["barrierefrei","nette-toilette","eurokey"],"operator":"Ratskeller"},{"id":"do_net_e91f04a8","lat":51.5172690869,"lon":7.4596608667,"name":"Sanifair Dortmund HBF","city":"Dortmund","category":"public_24h","tags":["barrierefrei","nette-toilette"],"operator":"Sanifair Dortmund HBF"},{"id":"do_net_9534ecfd","lat":51.4969394774,"lon":7.5367203592,"name":"Schürener Backparadies","city":"Dortmund","category":"other","tags":["barrierefrei","nette-toilette"],"operator":"Schürener Backparadies"},{"id":"do_net_288da41c","lat":51.5699210505,"lon":7.3926183572,"name":"Seniorenhaus Hausemannstift","city":"Dortmund","category":"other","tags":["barrierefrei","nette-toilette"],"operator":"Seniorenhaus Hausemannstift"},{"id":"do_net_79af8065","lat":51.5725416595,"lon":7.3784156733,"name":"Seniorenpark Mengede","city":"Dortmund","category":"other","tags":["barrierefrei","nette-toilette"],"operator":"Seniorenpark Mengede"},{"id":"do_net_09b1cd6a","lat":51.5487368918,"lon":7.4596174504,"name":"Sonnenhof","city":"Dortmund","category":"other","tags":["barrierefrei","nette-toilette"],"operator":"Sonnenhof"},{"id":"do_net_896c303c","lat":51.5106433953,"lon":7.4588700868,"name":"Sozialamt","city":"Dortmund","category":"other","tags":["barrierefrei","nette-toilette"],"operator":"Sozialamt"},{"id":"do_net_61e937af","lat":51.5171089913,"lon":7.462685615,"name":"Städtische Immobilienwirtschaft","city":"Dortmund","category":"other","tags":["barrierefrei","nette-toilette"],"operator":"Städtische Immobilienwirtschaft"},{"id":"do_net_3109b4d2","lat":51.5165190113,"lon":7.4608508881,"name":"Stadt- und Landesbibliothek","city":"Dortmund","category":"other","tags":["barrierefrei","nette-toilette"],"operator":"Stadt- und Landesbibliothek"},{"id":"do_net_4bcbf8c9","lat":51.5658516369,"lon":7.3697652448,"name":"Tagespflege Am Königshalt","city":"Dortmund","category":"other","tags":["barrierefrei","nette-toilette"],"operator":"Tagespflege Am Königshalt"},{"id":"do_net_0996151c","lat":51.5523810758,"lon":7.5457233843,"name":"Zum Brunnen","city":"Dortmund","category":"other","tags":["barrierefrei","nette-toilette"],"operator":"Zum Brunnen"},{"id":"do_net_c57aed95","lat":51.5623183867,"lon":7.5184614428,"name":"Zweirad Frischmuth","city":"Dortmund","category":"other","tags":["barrierefrei","nette-toilette"],"operator":"Zweirad Frischmuth"},{"id":"do_net_e67c8f77","lat":51.5308339376,"lon":7.4142017594,"name":"Öffentliche Toilette","city":"Dortmund","category":"other","tags":["barrierefrei","nette-toilette"],"operator":null},{"id":"do_acc_c165f7cf","lat":51.5089750168,"lon":7.4468599364,"name":"Öffentliche Toilette","city":"Dortmund","category":"public_24h","tags":["barrierefrei","eurokey"],"operator":"Öffentliche Toilette"},{"id":"do_acc_cf82d5d8","lat":51.5239349081,"lon":7.5506250695,"name":"Öffentliche Toilette","city":"Dortmund","category":"public_24h","tags":["barrierefrei","eurokey"],"operator":"Öffentliche Toilette"},{"id":"do_acc_0ee9b3a7","lat":51.5092446499,"lon":7.3800047006,"name":"Öffentliche Toilette","city":"Dortmund","category":"public_24h","tags":["barrierefrei","eurokey"],"operator":"Öffentliche Toilette"},{"id":"do_acc_2acc127b","lat":51.5000248056,"lon":7.333426576,"name":"Öffentliche Toilette","city":"Dortmund","category":"public_24h","tags":["barrierefrei","eurokey"],"operator":"Öffentliche Toilette"},{"id":"do_acc_21f157fd","lat":51.4918938257,"lon":7.5081609138,"name":"Öffentliche Toilette","city":"Dortmund","category":"public_24h","tags":["barrierefrei","eurokey"],"operator":"Öffentliche Toilette"},{"id":"do_acc_78170285","lat":51.5129291871,"lon":7.4228998002,"name":"Öffentliche Toilette","city":"Dortmund","category":"public_24h","tags":["barrierefrei","eurokey"],"operator":"Öffentliche Toilette"},{"id":"do_acc_d90e8ea6","lat":51.5712040322,"lon":7.3814156195,"name":"Öffentliche Toilette","city":"Dortmund","category":"public_24h","tags":["barrierefrei","eurokey"],"operator":"Öffentliche Toilette"},{"id":"do_acc_70abb0f6","lat":51.5139912372,"lon":7.4725738075,"name":"Öffentliche Toilette","city":"Dortmund","category":"public_24h","tags":["barrierefrei","eurokey"],"operator":"Öffentliche Toilette"},{"id":"do_acc_c936b3a2","lat":51.5131339583,"lon":7.4851048108,"name":"Öffentliche Toilette","city":"Dortmund","category":"public_24h","tags":["barrierefrei","eurokey"],"operator":"Öffentliche Toilette"},{"id":"do_acc_dccc1305","lat":51.555052638,"lon":7.4734866914,"name":"Öffentliche Toilette","city":"Dortmund","category":"public_24h","tags":["barrierefrei","eurokey"],"operator":"Öffentliche Toilette"},{"id":"do_acc_5c3c4ba2","lat":51.4968465045,"lon":7.4587196178,"name":"Öffentliche Toilette","city":"Dortmund","category":"public_24h","tags":["barrierefrei","eurokey"],"operator":"Öffentliche Toilette"},{"id":"do_acc_fa52c381","lat":51.4893391843,"lon":7.5025496176,"name":"Öffentliche Toilette","city":"Dortmund","category":"public_24h","tags":["barrierefrei","eurokey"],"operator":"Öffentliche Toilette"},{"id":"do_acc_7d35fa18","lat":51.5307232871,"lon":7.4133089704,"name":"Öffentliche Toilette","city":"Dortmund","category":"public_24h","tags":["barrierefrei","eurokey"],"operator":"Öffentliche Toilette"},{"id":"do_acc_1dc50e47","lat":51.5122647562,"lon":7.4671420925,"name":"Öffentliche Toilette","city":"Dortmund","category":"public_24h","tags":["barrierefrei","eurokey"],"operator":"Öffentliche Toilette"},{"id":"do_acc_eae8c2e1","lat":51.5525188124,"lon":7.5415831463,"name":"Öffentliche Toilette","city":"Dortmund","category":"public_24h","tags":["barrierefrei","eurokey"],"operator":"Öffentliche Toilette"},{"id":"do_acc_4644f2b9","lat":51.5213011604,"lon":7.450442354,"name":"Öffentliche Toilette","city":"Dortmund","category":"public_24h","tags":["barrierefrei","eurokey"],"operator":"Öffentliche Toilette"},{"id":"do_acc_a8e3b7af","lat":51.488710258,"lon":7.5132130444,"name":"Öffentliche Toilette","city":"Dortmund","category":"public_24h","tags":["barrierefrei","eurokey"],"operator":"Öffentliche Toilette"},{"id":"do_acc_dc923331","lat":51.4761941262,"lon":7.4378747569,"name":"Öffentliche Toilette","city":"Dortmund","category":"public_24h","tags":["barrierefrei","eurokey"],"operator":"Öffentliche Toilette"},{"id":"do_hbf_sanifair","lat":51.5178,"lon":7.4593,"name":"Dortmund Hauptbahnhof (SANIFAIR)","city":"Dortmund","category":"station","tags":["barrierefrei","eurokey","wickeltisch"],"opening_hours":"04:30-01:00","operator":"SANIFAIR","fee":"yes"},{"id":"do_wall_ecn","lat":51.5141,"lon":7.4645,"name":"Wall ECN Toilette","city":"Dortmund","category":"public_24h","tags":["barrierefrei","eurokey"],"opening_hours":"24/7","operator":"Stadt Dortmund"},{"id":"do_hansaplatz","lat":51.5125,"lon":7.4615,"name":"Hansaplatz WC-Anlage","city":"Dortmund","category":"public_24h","tags":["barrierefrei","eurokey"],"opening_hours":"06:00-23:00","operator":"Stadt Dortmund"},{"id":"do_signal_iduna","lat":51.4926,"lon":7.4518,"name":"Signal Iduna Park (BVB Stadion)","city":"Dortmund","category":"other","tags":["barrierefrei","eurokey"],"opening_hours":"match days / events","operator":"BVB"},{"id":"do_shell_city","lat":51.5145,"lon":7.455,"name":"Shell (Ruhrallee / City)","city":"Dortmund","category":"station","tags":["barrierefrei"],"opening_hours":"24/7","operator":"Shell"},{"id":"do_aral_westfalenhallen","lat":51.493,"lon":7.46,"name":"Aral (Westfalenhallen)","city":"Dortmund","category":"station","tags":["barrierefrei"],"opening_hours":"24/7","operator":"Aral"},{"id":"do_jet_hoerde","lat":51.485,"lon":7.501,"name":"JET Tankstelle (Hörde)","city":"Dortmund","category":"station","tags":["barrierefrei"],"opening_hours":"24/7","operator":"JET"},{"id":"do_total_mengede","lat":51.572,"lon":7.386,"name":"TotalEnergies (Mengede)","city":"Dortmund","category":"station","tags":["barrierefrei"],"opening_hours":"24/7","operator":"TotalEnergies"},{"id":"do_shell_a45","lat":51.475,"lon":7.52,"name":"Shell (A45 Raststätte Dortmund-Süd)","city":"Dortmund","category":"station","tags":["barrierefrei","eurokey"],"opening_hours":"24/7","operator":"Shell"},{"id":"do_aral_a2","lat":51.536,"lon":7.425,"name":"Aral (A2 Raststätte Dortmund-Nord)","city":"Dortmund","category":"station","tags":["barrierefrei","eurokey"],"opening_hours":"24/7","operator":"Aral"},{"id":"do_mcdonalds_westenhellweg","lat":51.513,"lon":7.465,"name":"McDonald's (Westenhellweg)","city":"Dortmund","category":"gastro","tags":["barrierefrei"],"opening_hours":"24/7","operator":"McDonald's"},{"id":"do_mcdonalds_hoerde","lat":51.48,"lon":7.505,"name":"McDonald's (Hörde)","city":"Dortmund","category":"gastro","tags":["barrierefrei"],"opening_hours":"24/7","operator":"McDonald's"},{"id":"do_mcdonalds_a40","lat":51.515,"lon":7.38,"name":"McDonald's (A40 Autobahn)","city":"Dortmund","category":"gastro","tags":["barrierefrei"],"opening_hours":"24/7","operator":"McDonald's"},{"id":"do_klinikum_mitte","lat":51.4953,"lon":7.4055,"name":"Klinikum Dortmund (Mitte)","city":"Dortmund","category":"other","tags":["barrierefrei","eurokey"],"opening_hours":"24/7","operator":"Klinikum Dortmund"},{"id":"do_klinikum_west","lat":51.5118,"lon":7.4365,"name":"Klinikum Dortmund (West)","city":"Dortmund","category":"other","tags":["barrierefrei","eurokey"],"opening_hours":"24/7","operator":"Klinikum Dortmund"},{"id":"do_polizei_hbf","lat":51.518,"lon":7.46,"name":"Polizeiinspektion (Hauptbahnhof)","city":"Dortmund","category":"gastro","tags":["barrierefrei"],"opening_hours":"24/7","operator":"Polizei","fee":"no"},{"id":"do_nightrooms","lat":51.515,"lon":7.465,"name":"Nightrooms (Club)","city":"Dortmund","category":"gastro","tags":["barrierefrei"],"opening_hours":"Fr-Sa 23:00-06:00","operator":"Nightrooms"},{"id":"do_prisma","lat":51.513,"lon":7.468,"name":"Prisma (Club)","city":"Dortmund","category":"gastro","tags":["barrierefrei"],"opening_hours":"Fr-Sa 23:00-06:00","operator":"Prisma"},{"id":"do_fzw","lat":51.498,"lon":7.45,"name":"FZW (Club & Kulturzentrum)","city":"Dortmund","category":"gastro","tags":["barrierefrei"],"opening_hours":"Fr-Sa 22:00-05:00","operator":"FZW Dortmund"},{"id":"do_ringlokschuppen","lat":51.495,"lon":7.455,"name":"Ringlokschuppen (Biergarten & Club)","city":"Dortmund","category":"gastro","tags":["barrierefrei"],"opening_hours":"Fr-Sa 20:00-04:00","operator":"Ringlokschuppen"},{"id":"do_sonic","lat":51.515,"lon":7.468,"name":"Sonic (Club)","city":"Dortmund","category":"gastro","tags":["barrierefrei"],"opening_hours":"Fr-Sa 23:00-06:00","operator":"Sonic Club"},{"id":"do_mogli","lat":51.513,"lon":7.467,"name":"Mogli (Bar)","city":"Dortmund","category":"gastro","tags":["barrierefrei"],"opening_hours":"Mo-Sa 18:00-03:00","operator":"Mogli"},{"id":"do_bierermann","lat":51.513,"lon":7.466,"name":"Biere-Mann (Kneipe)","city":"Dortmund","category":"gastro","tags":["barrierefrei"],"opening_hours":"Mo-Sa 17:00-02:00","operator":"Biere-Mann"},{"id":"do_hovels","lat":51.515,"lon":7.463,"name":"Hövels Hausbrauerei","city":"Dortmund","category":"gastro","tags":["barrierefrei"],"opening_hours":"Mo-Sa 17:00-01:00","operator":"Hövels"},{"id":"do_pantheon","lat":51.495,"lon":7.45,"name":"Pantheon (Club - Strobelallee)","city":"Dortmund","category":"gastro","tags":["barrierefrei"],"opening_hours":"Fr-Sa 22:00-05:00","operator":"Pantheon"},{"id":"do_bullwinkel","lat":51.487,"lon":7.505,"name":"Bullwinkel (Hörde - Bar)","city":"Dortmund","category":"gastro","tags":["barrierefrei"],"opening_hours":"Mo-Sa 18:00-03:00","operator":"Bullwinkel"},{"id":"do_subrosa","lat":51.512,"lon":7.468,"name":"Subrosa (Bar)","city":"Dortmund","category":"gastro","tags":["barrierefrei"],"opening_hours":"Mo-Sa 19:00-03:00","operator":"Subrosa"},{"id":"do_pilgrim","lat":51.514,"lon":7.469,"name":"Pilgrim (Bar & Club)","city":"Dortmund","category":"gastro","tags":["barrierefrei"],"opening_hours":"Fr-Sa 22:00-05:00","operator":"Pilgrim"},{"id":"do_maximal","lat":51.495,"lon":7.452,"name":"Maximal (Club)","city":"Dortmund","category":"gastro","tags":["barrierefrei"],"opening_hours":"Fr-Sa 23:00-06:00","operator":"Maximal"},{"id":"fuel_25419330","lat":51.6222148,"lon":7.5156783,"name":"BFT","city":"","category":"other","tags":[],"opening_hours":"Mo-Fr 06:00-23:00; Sa 07:00-23:00; Su 08:00-23:00","operator":"bft"},{"id":"fuel_27432384","lat":51.5640905,"lon":7.0848869,"name":"Markant","city":"Gelsenkirchen","category":"other","tags":[],"operator":"Markant"},{"id":"fuel_27432402","lat":51.457755,"lon":7.0043625,"name":"Jet","city":"","category":"other","tags":[],"opening_hours":"Mo-Su,PH 00:00-24:00","operator":"JET"},{"id":"fuel_27432404","lat":51.4472216,"lon":7.0458433,"name":"ARAL","city":"Essen","category":"other","tags":[],"opening_hours":"24/7","operator":"Aral"},{"id":"fuel_27432414","lat":51.4464371,"lon":7.0829241,"name":"Shell","city":"Essen","category":"other","tags":[],"operator":"Shell"},{"id":"fuel_27448780","lat":51.4369868,"lon":7.1078578,"name":"OIL","city":"Essen","category":"other","tags":[],"opening_hours":"Mo-Sa 06:00-22:00, Su, PH 08:00-22:00","operator":"OIL"},{"id":"fuel_27448924","lat":51.4370971,"lon":7.0430603,"name":"Esso","city":"Essen","category":"other","tags":[],"opening_hours":"Mo-Sa 06:00-22:00; Su 08:00-22:00","operator":"Esso"},{"id":"fuel_28335850","lat":51.6068877,"lon":7.5256077,"name":"Shell","city":"","category":"other","tags":[],"operator":"Shell"},{"id":"fuel_30186291","lat":51.5621546,"lon":7.0877708,"name":"ARAL","city":"","category":"other","tags":[],"operator":"Aral"},{"id":"fuel_30186540","lat":51.5366291,"lon":7.110725,"name":"Star","city":"Gelsenkirchen","category":"other","tags":[],"operator":"Star"},{"id":"fuel_30315254","lat":51.4923178,"lon":7.0100591,"name":"ARAL","city":"Essen","category":"other","tags":[],"opening_hours":"24/7","operator":"Aral"},{"id":"fuel_30790684","lat":51.6339565,"lon":7.2735433,"name":"Shell","city":"","category":"other","tags":[],"operator":"Shell"},{"id":"fuel_30912009","lat":51.5735288,"lon":7.0480431,"name":"Total","city":"Gelsenkirchen","category":"other","tags":[],"operator":"Total"},{"id":"fuel_31076733","lat":51.4252831,"lon":7.1584139,"name":"Esso","city":"Bochum","category":"other","tags":[],"operator":"Esso"},{"id":"fuel_34548644","lat":51.3668718,"lon":7.2527493,"name":"Aral","city":"Sprockhövel","category":"other","tags":[],"operator":"Aral"},{"id":"fuel_54349326","lat":51.9737409,"lon":7.4157188,"name":"Tankstelle","city":"","category":"other","tags":[],"operator":"Fa. Markfort"},{"id":"fuel_60074629","lat":51.7212608,"lon":7.0135606,"name":"Aral","city":"Dorsten","category":"other","tags":[],"opening_hours":"Mo-Fr 05:30-22:00; Sa 07:00-22:00; Su 08:00-22:00","operator":"Pludra Tankstellen-Abrechnungs GmbH&Co.KG"},{"id":"fuel_60721340","lat":51.5928791,"lon":7.4400139,"name":"Aral","city":"Lünen","category":"other","tags":[],"operator":"Aral"},{"id":"fuel_62894042","lat":51.6008635,"lon":7.4556943,"name":"Tankcenter Brambauer","city":"","category":"other","tags":[]},{"id":"fuel_75810479","lat":51.2323534,"lon":7.1937536,"name":"Shell","city":"","category":"other","tags":[],"operator":"Shell"},{"id":"fuel_85874086","lat":51.1181483,"lon":7.1251351,"name":"Aral","city":"Leichlingen (Rheinland)","category":"other","tags":[],"opening_hours":"Mo-Fr 05:00-22:00, Sa,Su 07:00-22:00","operator":"Karl Heinz Buntenbach"},{"id":"fuel_85944198","lat":51.2507944,"lon":7.1037323,"name":"Esso","city":"Wuppertal","category":"other","tags":[],"operator":"Esso"},{"id":"fuel_93005928","lat":51.5481741,"lon":7.4886866,"name":"SB-Tank","city":"","category":"other","tags":[],"operator":"SB Tank"},{"id":"fuel_93031891","lat":51.5028203,"lon":7.4164937,"name":"Star","city":"","category":"other","tags":[],"operator":"star"},{"id":"fuel_93031929","lat":51.5304738,"lon":7.4206213,"name":"Esso","city":"","category":"other","tags":[],"operator":"Esso"},{"id":"fuel_93072161","lat":51.6005506,"lon":7.4373446,"name":"Freie Tankstelle Schröder","city":"","category":"other","tags":[],"opening_hours":"24/7"},{"id":"fuel_93072201","lat":51.6266726,"lon":7.4957042,"name":"SB Tank","city":"","category":"other","tags":[],"operator":"N. Jeworutzken-Quick"},{"id":"fuel_102915068","lat":51.5312553,"lon":7.6712965,"name":"Shell","city":"Unna","category":"other","tags":[],"operator":"Shell"},{"id":"fuel_130152613","lat":51.5375052,"lon":7.6272098,"name":"Tankstelle","city":"","category":"other","tags":[]},{"id":"fuel_160471422","lat":51.0032239,"lon":7.5760155,"name":"Aral","city":"Gummersbach","category":"other","tags":[],"opening_hours":"24/7","operator":"Bellersheim Tankstellen GmbH & Co. KG"},{"id":"fuel_166867155","lat":51.9690189,"lon":7.6557007,"name":"Westfalen-Tankstelle","city":"Münster","category":"other","tags":[],"opening_hours":"24/7","operator":"Westfalen AG;Alfred Thiele"},{"id":"fuel_220452144","lat":51.8317982,"lon":7.040185,"name":"Avia","city":"Reken","category":"other","tags":[],"opening_hours":"Mo-Fr 06:30-20:00; Sa 07:30-20:00; Su 09:00-14:00","operator":"Petra Niewerth"},{"id":"fuel_243824497","lat":51.5078098,"lon":7.4214284,"name":"Shell","city":"Dortmund","category":"other","tags":[],"opening_hours":"24/7","operator":"Shell"},{"id":"fuel_246466812","lat":51.3293068,"lon":7.0096882,"name":"JET","city":"Heiligenhaus","category":"other","tags":[],"opening_hours":"Mo-Fr 04:30-22:00; Sa 06:00-22:00; Su 07:00-22:00","operator":"ConocoPhillips Germany GmbH"},{"id":"fuel_249722201","lat":51.4433563,"lon":7.0194415,"name":"Star","city":"Essen","category":"other","tags":[],"opening_hours":"Mo-Fr 06:00-22:00, Sa 07:00-22:00, Su 08:00-22:00","operator":"Mustafa Erdogan"},{"id":"fuel_251187882","lat":51.4941443,"lon":7.3738576,"name":"Metro","city":"","category":"other","tags":[],"operator":"METRO"},{"id":"fuel_251612271","lat":51.5841172,"lon":7.2126171,"name":"Markant","city":"","category":"other","tags":[],"operator":"Markant"},{"id":"fuel_251612272","lat":51.5828603,"lon":7.2130561,"name":"Bavaria Petrol","city":"Recklinghausen","category":"other","tags":[],"opening_hours":"24/7"},{"id":"fuel_251741961","lat":51.4962953,"lon":7.3727134,"name":"Supermarkt-Tankstelle am Kaufland","city":"Dortmund","category":"other","tags":[],"opening_hours":"Mo-Sa 08:00-22:00"},{"id":"fuel_252585517","lat":51.7379103,"lon":7.1873042,"name":"Tankstelle","city":"","category":"other","tags":[]},{"id":"fuel_253707003","lat":51.3323161,"lon":7.0488775,"name":"Shell","city":"","category":"other","tags":[],"opening_hours":"24/7","operator":"Patrick Gohr"},{"id":"fuel_254137073","lat":51.3349503,"lon":7.0489747,"name":"TotalEnergies","city":"","category":"other","tags":[],"opening_hours":"Mo-Fr 06:00-22:00; Sa 07:00-22:00; PH,Su 08:00-22:00","operator":"TotalEnergies"},{"id":"fuel_254325072","lat":51.7660746,"lon":7.4256462,"name":"Shell","city":"Lüdinghausen","category":"other","tags":[],"opening_hours":"24/7","operator":"Shell"},{"id":"fuel_254658099","lat":51.9316212,"lon":7.6272933,"name":"Aral","city":"Münster","category":"other","tags":[],"opening_hours":"24/7","operator":"Aral"},{"id":"fuel_254769872","lat":51.4206972,"lon":7.0916185,"name":"Star","city":"Essen","category":"other","tags":[],"opening_hours":"Mo-Fr 06:00-23:00; Sa 07:00-23:00; Su 08:00-23:00","operator":"Star"},{"id":"fuel_254769874","lat":51.4216176,"lon":7.0891259,"name":"QPT","city":"Essen","category":"other","tags":[],"opening_hours":"Mo-Fr 06:00-22:00; Sa 07:00-22:00; Su 08:00-22:00"},{"id":"fuel_255119893","lat":51.5868233,"lon":7.0551183,"name":"OIL!","city":"Gelsenkirchen","category":"other","tags":[],"opening_hours":"Mo-Sa 06:00-22:00; Su 07:00-22:00","operator":"OIL!"},{"id":"fuel_255761702","lat":51.405804,"lon":7.1392077,"name":"Total","city":"","category":"other","tags":[],"operator":"Total"},{"id":"fuel_255830080","lat":51.3317749,"lon":7.0381987,"name":"Aral","city":"","category":"other","tags":[],"opening_hours":"24/7","operator":"Dirk Schyra"},{"id":"fuel_256161115","lat":51.7924635,"lon":7.6285431,"name":"Westfalen","city":"","category":"other","tags":[],"operator":"Westfalen"},{"id":"fuel_256607127","lat":51.3318895,"lon":7.0203428,"name":"Esso","city":"","category":"other","tags":[],"opening_hours":"Mo-Sa 05:00-22:00; Su 06:00-22:00","operator":"Exxonmobil"},{"id":"fuel_257139155","lat":51.6547162,"lon":7.1104597,"name":"Esso","city":"Marl","category":"other","tags":[],"operator":"Esso"},{"id":"fuel_258132034","lat":51.655905,"lon":7.1009393,"name":"SB-Tankstelle","city":"Marl","category":"other","tags":[]},{"id":"fuel_259995309","lat":51.9463039,"lon":7.5479567,"name":"Esso Münsterland West","city":"Münster","category":"other","tags":[],"opening_hours":"24/7","operator":"Esso"},{"id":"fuel_264052069","lat":51.7049486,"lon":7.5519464,"name":"Raiffeisen","city":"Nordkirchen","category":"other","tags":[],"opening_hours":"24/7"},{"id":"fuel_264733782","lat":51.3840662,"lon":7.1198628,"name":"Tramin Tankcenter Hattingen","city":"","category":"other","tags":[],"opening_hours":"Mo-Sa 06:00-20:00; Su 08:00-20:00","operator":"Tramin"},{"id":"fuel_265779183","lat":51.4221587,"lon":7.0286511,"name":"Total","city":"","category":"other","tags":[],"opening_hours":"Mo-Fr 06:00-22:00; Sa 07:00-22:00; Su 08:00-22:00","operator":"Total"},{"id":"fuel_266501637","lat":51.4501245,"lon":7.0972498,"name":"Tankstelle","city":"Essen","category":"other","tags":[]},{"id":"fuel_266593005","lat":51.2092045,"lon":7.032334,"name":"Shell","city":"Haan","category":"other","tags":[],"operator":"Shell"},{"id":"fuel_267414047","lat":51.6720703,"lon":7.8147238,"name":"ARAL","city":"","category":"other","tags":[],"opening_hours":"24/7","operator":"Aral"},{"id":"fuel_267824899","lat":51.3819137,"lon":7.0217942,"name":"Star","city":"Essen","category":"other","tags":[],"opening_hours":"Mo-Fr 06:00-22:00;Sa 07:00-22:00;Su 08:00-22:00","operator":"Christopher Kilian"},{"id":"fuel_268090179","lat":51.6915009,"lon":7.8671797,"name":"Oil","city":"","category":"other","tags":[],"opening_hours":"Mo-Sa 06:00-22:00; Su,PH 07:00-22:00","operator":"Oil!"},{"id":"fuel_268101471","lat":51.1970809,"lon":7.3820277,"name":"tankpool24","city":"Radevormwald","category":"other","tags":[],"operator":"tankpool24"},{"id":"fuel_268745694","lat":51.2371212,"lon":7.0898131,"name":"Freie Tankstelle","city":"","category":"other","tags":[],"operator":"Freie Tankstelle"},{"id":"fuel_268762456","lat":51.0911591,"lon":7.1869645,"name":"Aral","city":"Wermelskirchen","category":"other","tags":[],"operator":"Aral"},{"id":"fuel_269184095","lat":51.7787369,"lon":7.1620673,"name":"Avia","city":"Haltern am See","category":"other","tags":[],"opening_hours":"Mo-Fr 05:00-21:00; Sa,Su,PH 07:00-20:00","operator":"Werner Gülker"},{"id":"fuel_269751037","lat":51.0243952,"lon":7.8445982,"name":"Aral","city":"Olpe","category":"other","tags":[],"operator":"Aral"},{"id":"fuel_269751040","lat":51.0191466,"lon":7.841508,"name":"Star","city":"Olpe","category":"other","tags":[],"opening_hours":"Mo-Fr 05:30-22:00; Sa 07:00-22:00; Su,PH 08:00-22:30","operator":"Star"},{"id":"fuel_269773623","lat":51.3184214,"lon":7.0624911,"name":"SVG","city":"","category":"other","tags":[],"opening_hours":"Mo-Fr 06:00-22:00; Sa 07:00-21:00; Su 08:00-21:00","operator":"Independent"},{"id":"fuel_269774049","lat":51.3313298,"lon":7.0403342,"name":"bft","city":"","category":"other","tags":[],"opening_hours":"Mo-Fr 06:00-21:00;Sa 07:00-21:00;Su 08:00-21:00;PH off","operator":"Wilhelm F. Croll"},{"id":"fuel_269774432","lat":51.3079257,"lon":7.0875344,"name":"Aral","city":"","category":"other","tags":[],"opening_hours":"Mo-Sa 06:00-22:00; Su,PH 08:00-22:00","operator":"Günther Bremer"},{"id":"fuel_270101066","lat":51.4428755,"lon":7.0671356,"name":"HEM","city":"Essen","category":"other","tags":[],"opening_hours":"Mo-Sa 06:00-22:00; Su, PH 08:00-22:00","operator":"HEM"},{"id":"fuel_270252805","lat":51.0313881,"lon":7.1112302,"name":"Aral","city":"","category":"other","tags":[],"operator":"Aral"},{"id":"fuel_270308510","lat":51.2030447,"lon":7.3288855,"name":"Krämer GmbH","city":"Radevormwald","category":"other","tags":[],"opening_hours":"Mo-Fr 05:30-22:00; Sa 06:00-22:00; Su,PH 08:00-21:00","operator":"Krämer GmbH"},{"id":"fuel_270688687","lat":51.550534,"lon":7.2992809,"name":"HEM","city":"Castrop-Rauxel","category":"other","tags":[],"operator":"HEM"},{"id":"fuel_271473143","lat":51.5317543,"lon":7.6712325,"name":"TotalEnergies","city":"Unna","category":"other","tags":[],"opening_hours":"Mo-Fr 05:00-23:00; Sa 08:00-22:00; Su 09:00-22:00","operator":"total"},{"id":"fuel_272435669","lat":51.4966173,"lon":7.4902504,"name":"Esso","city":"","category":"other","tags":[],"operator":"Esso"},{"id":"fuel_272673578","lat":51.2736587,"lon":7.1790639,"name":"Budget Oil","city":"Wuppertal","category":"other","tags":[],"opening_hours":"24/7","operator":"Budget Oil"},{"id":"fuel_272768355","lat":51.0060881,"lon":7.6116298,"name":"Trinkhalle B55","city":"","category":"other","tags":[],"operator":"Clevergas"},{"id":"fuel_272768356","lat":51.004298,"lon":7.5956832,"name":"Markant","city":"","category":"other","tags":[],"opening_hours":"Mo-Fr 06:00-22:00;Sa 07:00-22:00;Su 08:00-22:00","operator":"Markant"},{"id":"fuel_274230188","lat":51.5434639,"lon":7.3168794,"name":"Aral","city":"Castrop-Rauxel","category":"other","tags":[],"operator":"Aral"},{"id":"fuel_274541626","lat":51.7873935,"lon":7.0384734,"name":"Avia","city":"Reken","category":"other","tags":[],"opening_hours":"Mo-Sa 05:30-21:00; Su 07:30-21:00","operator":"AVIA Station Anja Schleking e. K."},{"id":"fuel_274805137","lat":51.2851282,"lon":7.0468804,"name":"Aral","city":"","category":"other","tags":[],"operator":"Aral"},{"id":"fuel_275396844","lat":51.8351329,"lon":7.2731166,"name":"bft","city":"","category":"other","tags":[],"operator":"bft"},{"id":"fuel_276109082","lat":51.9346531,"lon":7.1687192,"name":"Von Bronk","city":"","category":"other","tags":[]},{"id":"fuel_276170556","lat":51.505227,"lon":7.5736212,"name":"AVIA XPress","city":"","category":"other","tags":[],"opening_hours":"24/7","operator":"Avia"},{"id":"fuel_276971124","lat":51.1925312,"lon":7.505546,"name":"star","city":"","category":"other","tags":[],"operator":"Star"},{"id":"fuel_277113501","lat":51.0230186,"lon":7.0037568,"name":"Aral","city":"","category":"other","tags":[],"operator":"Aral"},{"id":"fuel_277379648","lat":51.5445662,"lon":7.6819523,"name":"BFT Tankstelle","city":"","category":"other","tags":[],"operator":"BFT"},{"id":"fuel_277379825","lat":51.5344382,"lon":7.6926431,"name":"Tankstelle am Hellweg Center","city":"Unna","category":"other","tags":[],"operator":"Freie Tankstelle"},{"id":"fuel_277845595","lat":51.5290633,"lon":7.2194411,"name":"HEM Tankstelle","city":"Herne","category":"other","tags":[],"operator":"HEM"},{"id":"fuel_277845735","lat":51.5186396,"lon":7.2128109,"name":"Shell","city":"","category":"other","tags":[],"operator":"Shell"},{"id":"fuel_278045220","lat":51.9115207,"lon":7.4833182,"name":"bft","city":"Senden","category":"other","tags":[],"operator":"BFT"},{"id":"fuel_278340004","lat":51.0175955,"lon":7.3721793,"name":"Aral","city":"Lindlar","category":"other","tags":[],"operator":"Roswitha Gehrmann"},{"id":"fuel_278340011","lat":51.0184785,"lon":7.3737776,"name":"Esso","city":"Lindlar","category":"other","tags":[],"operator":"Esso"},{"id":"fuel_278340315","lat":51.0232506,"lon":7.3704897,"name":"Total","city":"","category":"other","tags":[],"operator":"Total"},{"id":"fuel_278819955","lat":51.4620774,"lon":7.0789323,"name":"Aral","city":"","category":"other","tags":[],"operator":"Aral"},{"id":"fuel_278921824","lat":51.5333159,"lon":7.8635927,"name":"Aral am Haarstrang Nord","city":"","category":"other","tags":[],"opening_hours":"24/7","operator":"Aral"},{"id":"fuel_278922226","lat":51.5325823,"lon":7.8609048,"name":"Aral am Haarstrang Süd","city":"","category":"other","tags":[],"opening_hours":"24/7","operator":"Shell"},{"id":"fuel_279028802","lat":51.2212381,"lon":7.1997266,"name":"Esso","city":"","category":"other","tags":[],"operator":"Esso"},{"id":"fuel_279311936","lat":51.4698416,"lon":7.0713838,"name":"Tank & Wasch","city":"","category":"other","tags":[]},{"id":"fuel_280285876","lat":51.9659792,"lon":7.8694171,"name":"Avia Express","city":"Telgte","category":"other","tags":[],"opening_hours":"24/7","operator":"Avia"},{"id":"fuel_280685105","lat":51.4283801,"lon":7.2440524,"name":"Aral","city":"Bochum","category":"other","tags":[],"opening_hours":"Mo-Fr 06:00-23:00; Sa 07:00-23:00; Su 08:00-23:00","operator":"Bühren GmbH"},{"id":"fuel_281154272","lat":51.3739032,"lon":7.9799699,"name":"Oktan Sundern","city":"","category":"other","tags":[],"operator":"Oktan Tankstellen GmbH"},{"id":"fuel_281154281","lat":51.3733404,"lon":7.9796854,"name":"Freie Tankstelle","city":"","category":"other","tags":[],"operator":"Freie Tankstelle"},{"id":"fuel_282342360","lat":51.9546188,"lon":7.9743555,"name":"OIL!","city":"","category":"other","tags":[],"operator":"OIL!"},{"id":"fuel_282482244","lat":51.1077589,"lon":7.8485661,"name":"Raiffeisen-Markt Tankstelle Listerscheid","city":"Attendorn","category":"other","tags":[],"operator":"Raiffeisen Attendorn"},{"id":"fuel_283156703","lat":51.4143796,"lon":7.2002318,"name":"OIL! Tankstelle","city":"Hattingen","category":"other","tags":[],"opening_hours":"Mo-Sa 06:30-22:00; PH,Su 07:30-21:00","operator":"OIL!"},{"id":"fuel_283648297","lat":51.9715814,"lon":7.4168479,"name":"BFT","city":"Havixbeck","category":"other","tags":[],"operator":"Fa. Schulze-Schleithoff"},{"id":"fuel_284754338","lat":51.7080417,"lon":7.8342033,"name":"SB Tankstelle","city":"","category":"other","tags":[],"opening_hours":"Mo-Sa 08:00-20:00; Su 10:00-20:00","operator":"SB Tank"},{"id":"fuel_286503103","lat":51.9915861,"lon":7.1324875,"name":"bft","city":"Rosendahl","category":"other","tags":[],"opening_hours":"Mo-Fr 06:00-20:00; Sa 07:00-19:00; Su 09:00-19:00","operator":"Heinrich Dieter Uesbeck"},{"id":"fuel_286581412","lat":51.5967044,"lon":7.7435454,"name":"Esso","city":"","category":"other","tags":[],"opening_hours":"Mo-Fr 07:00-21:00; Sa 07:00-20:00; Su 08:00-20:00","operator":"Atik Helebi"},{"id":"fuel_286801117","lat":51.1140141,"lon":7.9535095,"name":"Raiffeisen Tankstelle Helden","city":"Attendorn","category":"other","tags":[],"operator":"Raiffeisen"},{"id":"fuel_287010684","lat":51.4753135,"lon":7.5433576,"name":"Shell","city":"Dortmund","category":"other","tags":[],"operator":"Iris Strauss"},{"id":"fuel_287965840","lat":51.4494118,"lon":7.093502,"name":"Star","city":"Essen","category":"other","tags":[],"operator":"Star"},{"id":"fuel_287965842","lat":51.4471613,"lon":7.0931745,"name":"Star","city":"Essen","category":"other","tags":[],"operator":"Star"},{"id":"fuel_288693444","lat":51.8396941,"lon":7.264968,"name":"Westfalen","city":"Dülmen","category":"other","tags":[],"opening_hours":"Mo-Fr 06:00-22:00; Sa 07:00-22:00; Su 08:00-22:00","operator":"Westfalen"},{"id":"fuel_289348653","lat":51.2022501,"lon":7.3257791,"name":"Westfalen Tankstelle","city":"Radevormwald","category":"other","tags":[],"opening_hours":"Mo-Sa 05:00-24:00; Su 08:00-24:00","operator":"Westfalia"},{"id":"fuel_290299711","lat":51.4271887,"lon":7.0468299,"name":"SB Tank Goldmann","city":"","category":"other","tags":[],"opening_hours":"Mo-Fr 06:00-22:00, Sa 07:00-22:00, Su,PH 09:00-22:00","operator":"Freie Tankstelle"},{"id":"fuel_290299763","lat":51.4286379,"lon":7.0002682,"name":"Aral","city":"Essen","category":"other","tags":[],"opening_hours":"24/7","operator":"Kathrin Hansen"},{"id":"fuel_290556338","lat":51.1795547,"lon":7.2539778,"name":"Esso","city":"Remscheid","category":"other","tags":[],"opening_hours":"24/7","operator":"Esso"},{"id":"fuel_290809346","lat":51.5566849,"lon":7.68377,"name":"Jet","city":"","category":"other","tags":[],"operator":"JET"},{"id":"fuel_291232241","lat":51.7352405,"lon":7.6628646,"name":"Aral","city":"Ascheberg","category":"other","tags":[],"opening_hours":"Mo-Fr 06:00-22:00; Sa 07:00-22:00; Su 08:00-22:00","operator":"Classic Tankstellen GmbH & Co. KG"},{"id":"fuel_291254277","lat":51.2793101,"lon":7.07344,"name":"Star","city":"Wülfrath","category":"other","tags":[],"opening_hours":"Mo-Fr 06:00-22:00;Sa 07:00-22:00;Su 08:00-22:00","operator":"ORLEN Deutschland GmbH"},{"id":"fuel_291399266","lat":51.1349307,"lon":7.1998472,"name":"Rewe","city":"Wermelskirchen","category":"other","tags":[],"opening_hours":"Mo-Sa 08:00-22:00","operator":"Rewe"},{"id":"fuel_291775464","lat":51.1948394,"lon":7.0148882,"name":"OIL !","city":"Haan","category":"other","tags":[],"operator":"Ellen Fischer-Pfeifer"},{"id":"fuel_292209949","lat":51.6594951,"lon":7.7805694,"name":"Jet","city":"Hamm","category":"other","tags":[],"opening_hours":"Mo-Su 06:00-22:00"},{"id":"fuel_292395507","lat":51.9821985,"lon":7.775416,"name":"Shell","city":"Telgte","category":"other","tags":[],"opening_hours":"Mo-Fr 05:30-22:30; Sa 07:00-23:00; 08:00-23:00","operator":"Shell"},{"id":"fuel_293007260","lat":51.6001506,"lon":7.779095,"name":"Star","city":"Bönen","category":"other","tags":[],"operator":"star"},{"id":"fuel_294690497","lat":51.1684307,"lon":7.9775181,"name":"Aral Bernd Böhland","city":"Finnentrop","category":"other","tags":[],"opening_hours":"Mo-Fr 05:00-22:00; Sa 07:00-22:30; Su 07:00-22:00","operator":"Bellersheim Tankstellen GmbH & Co. KG"},{"id":"fuel_295144727","lat":51.119842,"lon":7.8838405,"name":"Raiffeisen","city":"","category":"other","tags":[],"operator":"Raiffeisen"},{"id":"fuel_296332960","lat":51.3146764,"lon":7.8750203,"name":"Aral","city":"Balve","category":"other","tags":[],"operator":"Aral"},{"id":"fuel_296333255","lat":51.333023,"lon":7.8659745,"name":"Schneider","city":"Balve","category":"other","tags":[],"operator":"Shell"},{"id":"fuel_296413049","lat":51.8362705,"lon":7.2838756,"name":"Star","city":"Dülmen","category":"other","tags":[],"opening_hours":"Mo-Fr 05:00-00:00; Sa-Su 00:00-24:00","operator":"Star"},{"id":"fuel_296413078","lat":51.2705831,"lon":7.6731482,"name":"bft","city":"Altena","category":"other","tags":[],"opening_hours":"Mo-Fr 07:00-22:00; Sa 08:00-22:00; Su 06:00-22:00","operator":"D'Addario"},{"id":"fuel_296416155","lat":51.8432897,"lon":7.2945181,"name":"Westfalen","city":"Dülmen","category":"other","tags":[],"opening_hours":"24/7","operator":"Westfalen"},{"id":"fuel_297330700","lat":51.9040244,"lon":7.4886201,"name":"TotalEnergies Autohof Senden","city":"","category":"other","tags":[],"operator":"TotalEnergies"},{"id":"fuel_297586444","lat":51.5506193,"lon":7.0875957,"name":"Holmann SB-Station","city":"Gelsenkirchen","category":"other","tags":[],"opening_hours":"Mo-Sa 07:00-20:30"},{"id":"fuel_299312711","lat":51.9366232,"lon":7.1678092,"name":"Westfalen","city":"Coesfeld","category":"other","tags":[],"opening_hours":"Mo-Fr 05:00-23:00; Sa 06:00-23:00; Su 07:00-23:00","operator":"Westfalen"},{"id":"fuel_299312712","lat":51.9374499,"lon":7.1678612,"name":"Star","city":"Coesfeld","category":"other","tags":[],"opening_hours":"Mo-Th 05:00-22:00; Fr,Sa 05:00-23:00; Su 07:00-22:00","operator":"star"},{"id":"fuel_299693132","lat":51.3967203,"lon":7.0854151,"name":"Aral","city":"","category":"other","tags":[],"operator":"Aral"},{"id":"fuel_299811699","lat":51.9529337,"lon":7.1639341,"name":"Westfalen","city":"Coesfeld","category":"other","tags":[],"opening_hours":"Mo-Sa 06:00-22:00; Su 07:00-22:00","operator":"Westfalen"},{"id":"fuel_300121518","lat":51.8255256,"lon":7.2723062,"name":"Markant","city":"Dülmen","category":"other","tags":[],"opening_hours":"Mo-Fr 06:00-22:00; Sa 07:00-22:00; Su 08:00-22:00","operator":"Wilhelm Hölker"},{"id":"fuel_300122518","lat":51.8238014,"lon":7.2692503,"name":"Tankcenter","city":"Dülmen","category":"other","tags":[],"operator":"TOTAL Deutschland GmbH"},{"id":"fuel_300320697","lat":51.0851588,"lon":7.5305988,"name":"ORLEN","city":"Marienheide","category":"other","tags":[],"operator":"Orlen"},{"id":"fuel_300331139","lat":51.0700645,"lon":7.5593295,"name":"Tankstelle","city":"","category":"other","tags":[],"operator":"Autohaus Kaiser GmbH"},{"id":"fuel_301665114","lat":51.6297888,"lon":7.8712875,"name":"Esso","city":"","category":"other","tags":[],"operator":"Esso"},{"id":"fuel_301808107","lat":51.0429854,"lon":7.0720856,"name":"Total","city":"Leverkusen","category":"other","tags":[],"operator":"Total"},{"id":"fuel_302547449","lat":51.5752816,"lon":7.1162505,"name":"ARAL","city":"Gelsenkirchen","category":"other","tags":[],"opening_hours":"Mo-Fr 06:00-21:30; Sa 07:00-21:30; Su 09:00-21:30","operator":"Aral"},{"id":"fuel_302715148","lat":51.5321122,"lon":7.7010378,"name":"Aral","city":"","category":"other","tags":[],"operator":"Aral"},{"id":"fuel_302723908","lat":51.0422543,"lon":7.3756195,"name":"ESSO Scheurer","city":"Lindlar","category":"other","tags":[],"operator":"Achim Scheurer"},{"id":"fuel_303876107","lat":51.1030217,"lon":7.2192273,"name":"Star","city":"Wermelskirchen","category":"other","tags":[],"opening_hours":"Mo-Fr 06:00-20:30; Sa 07:30-20:30; Su,PH 07:30-20:00","operator":"Vanessa Braun"},{"id":"fuel_304689066","lat":51.1128081,"lon":7.3883616,"name":"bft Station Kuhn","city":"Wipperfürth","category":"other","tags":[],"opening_hours":"Mo-Fr 06:00-22:00; Sa,Su,PH 07:00-22:00","operator":"Daniel Kuhn"},{"id":"fuel_304689202","lat":51.1251051,"lon":7.358455,"name":"Jaeger","city":"Wipperfürth","category":"other","tags":[]},{"id":"fuel_305109227","lat":51.4569573,"lon":7.9520757,"name":"Calpam","city":"Arnsberg","category":"other","tags":[]},{"id":"fuel_305748176","lat":51.4150862,"lon":7.1059998,"name":"SB-Tank","city":"Essen","category":"other","tags":[],"opening_hours":"Mo-Fr 06:00-22:00, Sa 07:00-22:00, Su 08:00-22:00","operator":"SB-Tank"},{"id":"fuel_306608334","lat":51.7420332,"lon":7.5169157,"name":"Aral Nordkirchen","city":"","category":"other","tags":[],"opening_hours":"Mo-Fr 06:00-20:00;Sa 08:00-20:00; Su 09:00-20:00","operator":"Aral"},{"id":"fuel_306696563","lat":51.4886858,"lon":7.084115,"name":"Star","city":"Gelsenkirchen","category":"other","tags":[],"operator":"star"},{"id":"fuel_307150669","lat":51.9035605,"lon":7.1873626,"name":"Aral","city":"Coesfeld","category":"other","tags":[],"opening_hours":"Mo-Th 07:30-20:00; Fr 06:30-21:00; Sa 08:00-21:00; Su 10:00-21:00","operator":"Paul Uckelmann"},{"id":"fuel_307665829","lat":51.4201325,"lon":7.9900658,"name":"Raiffeisen Tankstelle","city":"","category":"other","tags":[],"operator":"Raiffeisen"},{"id":"fuel_307997069","lat":51.4506156,"lon":7.5625099,"name":"Shell","city":"Schwerte","category":"other","tags":[],"opening_hours":"24/7","operator":"Shell"},{"id":"fuel_308060588","lat":51.9376398,"lon":7.6044969,"name":"Shell","city":"Münster","category":"other","tags":[],"opening_hours":"24/7","operator":"Shell"},{"id":"fuel_308302684","lat":51.9351145,"lon":7.1521585,"name":"R. Decker","city":"","category":"other","tags":[],"opening_hours":"Mo-Fr 06:00-21:00; Sa 07:30-21:00; Su 08:30-21:00; PH 08:30-21:00","operator":"Q1"},{"id":"fuel_309353495","lat":51.5195466,"lon":7.0817375,"name":"Aral","city":"Gelsenkirchen","category":"other","tags":[],"opening_hours":"24/7","operator":"Helmut RATHMANN"},{"id":"fuel_309361529","lat":51.5328986,"lon":7.0775626,"name":"Aral","city":"Gelsenkirchen","category":"other","tags":[],"opening_hours":"24/7","operator":"Aral"},{"id":"fuel_309368745","lat":51.5742515,"lon":7.0594257,"name":"ARAL","city":"Gelsenkirchen","category":"other","tags":[],"operator":"Aral"},{"id":"fuel_309477589","lat":51.5436324,"lon":7.029497,"name":"Jet","city":"","category":"other","tags":[],"opening_hours":"24/7","operator":"Jet"},{"id":"fuel_309520910","lat":51.5614637,"lon":7.0466713,"name":"Markant","city":"Gelsenkirchen","category":"other","tags":[],"operator":"Markant"},{"id":"fuel_309525493","lat":51.5804433,"lon":7.0423204,"name":"Rohsiepe Tank- und Waschcenter","city":"Gelsenkirchen","category":"other","tags":[],"opening_hours":"24/7 \"mit EC-Karte\"","operator":"Independent"},{"id":"fuel_313054858","lat":51.4529671,"lon":7.0239462,"name":"Sb Tank","city":"Essen","category":"other","tags":[],"opening_hours":"Mo-Fr 06:00-22:00; Sa 07:00-22:00; Su 08:00-22:00","operator":"SB Tank"},{"id":"fuel_315983130","lat":51.1619813,"lon":7.0133387,"name":"tankpoint Solingen","city":"Solingen","category":"other","tags":[],"operator":"Helmut Wegener"},{"id":"fuel_317574168","lat":51.760359,"lon":7.000327,"name":"Westfalen","city":"Dorsten","category":"other","tags":[],"opening_hours":"Mo-Fr 06:00-22:00; Sa 07:00-21:00; Su 08:00-20:00","operator":"Sabine Vehlken"},{"id":"fuel_319798321","lat":51.1770371,"lon":7.2183819,"name":"Shell","city":"Remscheid","category":"other","tags":[],"operator":"Shell"},{"id":"fuel_320673244","lat":51.7709601,"lon":7.1766634,"name":"Hohe Mark Ost","city":"Haltern am See","category":"other","tags":[],"opening_hours":"24/7","operator":"Shell"},{"id":"fuel_322174538","lat":51.1593007,"lon":7.2653462,"name":"Kula","city":"","category":"other","tags":[]},{"id":"fuel_325239752","lat":51.3002601,"lon":7.0621163,"name":"Shell","city":"","category":"other","tags":[],"opening_hours":"Mo-Su 06:00-22:00","operator":"Patrick Gohr"},{"id":"fuel_327518607","lat":51.9564504,"lon":7.5320402,"name":"OS","city":"Münster","category":"other","tags":[],"opening_hours":"Mo-Fr 06:30-22:00; Sa 07:00-22:00; Su 08:30-22:00","operator":"Olaf Schlagheck"},{"id":"fuel_328961978","lat":51.4774907,"lon":7.5376885,"name":"bft","city":"","category":"other","tags":[],"opening_hours":"Mo-Sa 07:00-22:00; PH,Su 07:00-20:00","operator":"bft"},{"id":"fuel_330838122","lat":51.1518097,"lon":7.0572262,"name":"Shell","city":"","category":"other","tags":[],"operator":"Shell"},{"id":"fuel_332091473","lat":51.0233405,"lon":7.000983,"name":"Shell","city":"Leverkusen","category":"other","tags":[],"operator":"Shell","opening_hours":"06:00-22:00"},{"id":"fuel_334873821","lat":51.9572133,"lon":7.001048,"name":"Schweers-Pennekamp","city":"Gescher","category":"other","tags":[],"operator":"Westfalen AG"},{"id":"fuel_335727999","lat":51.6857355,"lon":7.8345816,"name":"Westfalen Tankstelle","city":"","category":"other","tags":[],"opening_hours":"Mo-Sa 06:00-23:00; Su 07:00-23:00","operator":"Westfalen"},{"id":"fuel_337617593","lat":51.1926447,"lon":7.8068978,"name":"Shell","city":"","category":"other","tags":[],"operator":"Shell"},{"id":"fuel_338426965","lat":51.5031007,"lon":7.0490885,"name":"Shell","city":"Essen","category":"other","tags":[],"operator":"Shell"},{"id":"fuel_340079442","lat":51.4347793,"lon":7.0340079,"name":"Aral","city":"Essen","category":"other","tags":[],"operator":"Aral"},{"id":"fuel_341333885","lat":51.8483225,"lon":7.1943725,"name":"Westfalen","city":"Dülmen","category":"other","tags":[],"opening_hours":"Mo-Fr 06:00-21:00; Sa 07:00-20:00; Su 08:00-20:00","operator":"Mark Hölker"},{"id":"fuel_342334109","lat":51.6557233,"lon":7.3517319,"name":"ARAL","city":"","category":"other","tags":[],"operator":"Aral"},{"id":"fuel_343429605","lat":51.5243406,"lon":7.5108689,"name":"Total","city":"","category":"other","tags":[],"opening_hours":"Mo-Fr 05:00-22:00; Sa 06:00-22:00; PH,Su 08:00-22:00","operator":"Total Deutschland GmbH"},{"id":"fuel_344393480","lat":51.479562,"lon":7.0397636,"name":"Shell","city":"","category":"other","tags":[],"operator":"Shell"},{"id":"fuel_355245329","lat":51.5470409,"lon":7.8888712,"name":"Shell","city":"Werl","category":"other","tags":[],"opening_hours":"24/7","operator":"Shell"},{"id":"fuel_358149448","lat":51.4383456,"lon":7.7593541,"name":"Tankstelle","city":"","category":"other","tags":[]},{"id":"fuel_359956516","lat":51.467953,"lon":7.4822903,"name":"Shell","city":"Dortmund","category":"other","tags":[],"opening_hours":"24/7","operator":"Tankwerk GmbH"},{"id":"fuel_360816054","lat":51.5193183,"lon":7.4879078,"name":"Jet","city":"Dortmund","category":"other","tags":[],"opening_hours":"24/7","operator":"JET Tankstellen Deutschland GmbH"},{"id":"fuel_367675360","lat":51.6634811,"lon":7.3489234,"name":"Esso","city":"","category":"other","tags":[],"operator":"Esso"},{"id":"fuel_369544848","lat":51.5574571,"lon":7.6825216,"name":"HEM Tankstelle","city":"","category":"other","tags":[],"operator":"HEM"},{"id":"fuel_374398751","lat":51.6647893,"lon":7.4760528,"name":"Autopro KFZ-Vernekohl","city":"","category":"other","tags":[]},{"id":"fuel_379910586","lat":51.278549,"lon":7.1633204,"name":"Star","city":"Wuppertal","category":"other","tags":[],"opening_hours":"Mo-Fr 05:00-23:00; Sa-Su 06:00-23:00","operator":"Ingo Kruse"},{"id":"fuel_379910592","lat":51.2677627,"lon":7.1601504,"name":"Car Life","city":"Wuppertal","category":"other","tags":[]},{"id":"fuel_383241733","lat":51.7771052,"lon":7.4478765,"name":"Shell","city":"Lüdinghausen","category":"other","tags":[],"opening_hours":"Mo-Th 05:00-23:00;Fr 05:00-24:00;Sa 07:00-24:00;Su 07:00-23:00","operator":"Shell"},{"id":"fuel_386010784","lat":51.1302904,"lon":7.2013216,"name":"Werkstankstelle RVK","city":"","category":"other","tags":[],"opening_hours":"\"kein öffentlicher Zugang\"","operator":"Regionalverkehr Köln GmbH"},{"id":"fuel_386854157","lat":51.6733323,"lon":7.6940179,"name":"D-Tank","city":"","category":"other","tags":[],"operator":"Dieckmann"},{"id":"fuel_388218057","lat":51.6718254,"lon":7.6876048,"name":"Esso","city":"","category":"other","tags":[],"operator":"Esso"},{"id":"fuel_388399223","lat":51.0518412,"lon":7.2652593,"name":"Esso","city":"Kürten","category":"other","tags":[],"opening_hours":"Mo-Su 06:00-21:00","operator":"Braun"},{"id":"fuel_391435911","lat":51.6458963,"lon":7.8427848,"name":"Total","city":"","category":"other","tags":[],"opening_hours":"Mo-Fr 06:00-22:00; Sa 07:00-22:00; Su 08:00-22:00","operator":"Total"},{"id":"fuel_391717746","lat":51.5198153,"lon":7.4701724,"name":"Markant","city":"","category":"other","tags":[],"opening_hours":"24/7","operator":"Westfalen AG"},{"id":"fuel_393384214","lat":51.1778608,"lon":7.2103273,"name":"Star","city":"","category":"other","tags":[],"operator":"star"},{"id":"fuel_393901398","lat":51.4907105,"lon":7.5384761,"name":"AVEX","city":"","category":"other","tags":[],"opening_hours":"Mo-Fr 06:00-22:00; Sa,Su 07:00-22:00"},{"id":"fuel_395492068","lat":51.2543187,"lon":7.6351043,"name":"Total","city":"Lüdenscheid","category":"other","tags":[],"opening_hours":"Mo-Fr 05:00-23:00; Sa 06:00-23:00; Su,PH 06:00-22:00","operator":"Total"},{"id":"fuel_410322428","lat":51.8470397,"lon":7.4845715,"name":"Tankstelle","city":"","category":"other","tags":[],"operator":"Aral"},{"id":"fuel_412288309","lat":51.8552591,"lon":7.4919034,"name":"TotalEnergies","city":"","category":"other","tags":[],"operator":"TotalEnergies"},{"id":"fuel_413594878","lat":51.0442314,"lon":7.2141452,"name":"Shell","city":"Kürten","category":"other","tags":[],"opening_hours":"Mo-Fr 06:30-20:00; Sa 08:00-20:00; Su 08:30-19:00","operator":"Shell"},{"id":"fuel_415395590","lat":51.8957991,"lon":7.275285,"name":"bft","city":"Dülmen","category":"other","tags":[],"operator":"bft"},{"id":"fuel_416034659","lat":51.2196024,"lon":7.2411456,"name":"Aral","city":"","category":"other","tags":[],"opening_hours":"Mo-Fr 06:00-22:00; Sa 07:00-22:00; Su,PH 08:00-22:00","operator":"Aral"},{"id":"fuel_417329983","lat":51.5862327,"lon":7.2297477,"name":"Pfennings","city":"","category":"other","tags":[]},{"id":"fuel_417407100","lat":51.0415875,"lon":7.426933,"name":"bft","city":"Lindlar","category":"other","tags":[],"opening_hours":"Mo-Fr 06:30-19:00, Sa 07:00-19:00, Su 08:00-19:00","operator":"Ruth Krist"},{"id":"fuel_419018289","lat":51.4681346,"lon":7.4927174,"name":"Total","city":"Dortmund","category":"other","tags":[],"opening_hours":"Mo-Su 06:00-21:00","operator":"Total"},{"id":"fuel_420790777","lat":51.1066425,"lon":7.6531138,"name":"Shell","city":"Meinerzhagen","category":"other","tags":[],"opening_hours":"24/7","operator":"Shell"},{"id":"fuel_420800240","lat":51.8042091,"lon":7.0515268,"name":"Tank- u. Rasthof Reken","city":"Reken","category":"other","tags":[],"opening_hours":"Mo-Sa 05:30-22:30; Su 07:30-22:30","operator":"Raiffeisen Hohe Mark Hamaland eG"},{"id":"fuel_430172857","lat":51.0354248,"lon":7.8554808,"name":"Arndt","city":"","category":"other","tags":[]},{"id":"fuel_435646288","lat":51.8171082,"lon":7.594732,"name":"BFT","city":"","category":"other","tags":[],"opening_hours":"24/7","operator":"BFT"},{"id":"fuel_436634281","lat":51.9583749,"lon":7.9896921,"name":"bft","city":"Warendorf","category":"other","tags":[],"operator":"Büscher GmbH & Co. KG"},{"id":"fuel_440641375","lat":51.1210963,"lon":7.3777833,"name":"SB Tank","city":"Wipperfürth","category":"other","tags":[],"operator":"SB Tank"},{"id":"fuel_443809747","lat":51.2573481,"lon":7.4692565,"name":"Aral Tankstelle Breckerfeld","city":"Breckerfeld","category":"other","tags":[],"operator":"Aral"},{"id":"fuel_443822382","lat":51.501691,"lon":7.2127102,"name":"Aral","city":"","category":"other","tags":[],"operator":"Aral"},{"id":"fuel_450885302","lat":51.2795975,"lon":7.7754857,"name":"Shell Tankstelle","city":"Neuenrade","category":"other","tags":[],"operator":"Shell"},{"id":"fuel_453543072","lat":51.8431498,"lon":7.8145662,"name":"Westfalen","city":"","category":"other","tags":[],"opening_hours":"Mo-Fr 05:30-22:00; Sa 07:00-22:30; Su 08:00-22:30","operator":"Westfalen"},{"id":"fuel_466364797","lat":51.4895055,"lon":7.2079017,"name":"Aral","city":"Bochum","category":"other","tags":[],"opening_hours":"24/7","operator":"Stefan Blömke"},{"id":"fuel_469132416","lat":51.4561515,"lon":7.1760812,"name":"Markant","city":"","category":"other","tags":[],"operator":"Markant"},{"id":"fuel_471639259","lat":51.8715836,"lon":7.7360411,"name":"Raiffeisen Albersloh-Everswinkel e.G.","city":"Sendenhorst","category":"other","tags":[],"opening_hours":"Mo-Sa 08:00-21:00; Su,PH 10:00-20:00"},{"id":"fuel_474494337","lat":51.2268706,"lon":7.0691422,"name":"Esso","city":"Wuppertal","category":"other","tags":[],"operator":"Esso"},{"id":"fuel_475288999","lat":51.9302602,"lon":7.6660484,"name":"Shell","city":"Münster","category":"other","tags":[],"opening_hours":"Mo-Fr 05:00-23:00;Sa 06:00-00:00;Su 08:00-23:00"},{"id":"fuel_482708134","lat":51.3726045,"lon":7.7166682,"name":"bft","city":"","category":"other","tags":[],"opening_hours":"Mo-Sa 06:00-22:30; Su,PH 07:00-22:30","operator":"bft"},{"id":"fuel_500214464","lat":51.9583196,"lon":7.6195081,"name":"Deim","city":"Münster","category":"other","tags":[],"opening_hours":"Mo-Fr 07:00-22:00;Sa 08:00-22:00;Su 10:00-22:00","operator":"Freie Tankstelle"},{"id":"fuel_503426851","lat":51.5942844,"lon":7.5529556,"name":"BFT","city":"","category":"other","tags":[],"operator":"BFT"},{"id":"fuel_504014930","lat":51.1143178,"lon":7.4066597,"name":"Erdgastankstelle","city":"Wipperfürth","category":"other","tags":[],"opening_hours":"24/7","operator":"Bergische Energie und Wasser GmbH"},{"id":"fuel_508037622","lat":51.2590729,"lon":7.1512946,"name":"ELAN Xpress","city":"Wuppertal","category":"other","tags":[],"opening_hours":"24/7","operator":"Elan"},{"id":"fuel_519472268","lat":51.9404205,"lon":7.6350594,"name":"Raiffeisen","city":"Münster","category":"other","tags":[],"opening_hours":"24/7","operator":"Raiffeisen"},{"id":"fuel_528156006","lat":51.5893566,"lon":7.640322,"name":"JET","city":"","category":"other","tags":[],"operator":"JET"},{"id":"fuel_530641412","lat":51.032365,"lon":7.8633503,"name":"Tankstelle Zeppenfeld","city":"Olpe","category":"other","tags":[],"opening_hours":"Mo-Fr 05:30-22:00; Sa 07:00-22:00; Su,PH 08:00-22:00"},{"id":"fuel_537531905","lat":51.49127,"lon":7.8666205,"name":"Shell","city":"Wickede (Ruhr)","category":"other","tags":[],"operator":"Shell Station Ludger Droste GmbH"},{"id":"fuel_537531910","lat":51.5007638,"lon":7.870411,"name":"Esso","city":"Wickede (Ruhr)","category":"other","tags":[],"opening_hours":"Mo-Sa 06:00-24:00, Su,PH 08:00-24:00","operator":"Esso"},{"id":"fuel_538027673","lat":51.6581933,"lon":7.0025745,"name":"Hoyer","city":"","category":"other","tags":[],"operator":"Hoyer"},{"id":"fuel_540448164","lat":51.511303,"lon":7.190674,"name":"tankpoint","city":"","category":"other","tags":[],"opening_hours":"Mo-Fr 05:00-22:00; Sa 07:00-22:00; PH,Su 08:00-22:00","operator":"Avia"},{"id":"fuel_552295805","lat":51.253108,"lon":7.1386923,"name":"Freie Tankstelle","city":"Wuppertal","category":"other","tags":[],"operator":"Freie Tankstelle"},{"id":"fuel_552415332","lat":51.8688161,"lon":7.3772593,"name":"BFT SB Tank Deim","city":"Dülmen","category":"other","tags":[],"opening_hours":"Mo-Fr 07:00-19:00","operator":"BFT"},{"id":"fuel_560396849","lat":51.0619882,"lon":7.0047713,"name":"bft","city":"","category":"other","tags":[],"operator":"Unitol"},{"id":"fuel_569054135","lat":51.2761319,"lon":7.1553592,"name":"Aral","city":"Wuppertal","category":"other","tags":[],"operator":"Aral"},{"id":"fuel_597837682","lat":51.6762965,"lon":7.821291,"name":"SB","city":"Hamm","category":"other","tags":[],"opening_hours":"06:00-22:00"},{"id":"fuel_600196668","lat":51.9277915,"lon":7.3535002,"name":"Westfalen","city":"","category":"other","tags":[],"operator":"Westfalen-Tankstelle"},{"id":"fuel_615907081","lat":51.6223785,"lon":7.9601888,"name":"Avia","city":"","category":"other","tags":[],"opening_hours":"Mo-Fr 06:00-22:00, Sa 07:00-22:00, Su 09:00-22:00","operator":"Avia"},{"id":"fuel_618380324","lat":51.1362008,"lon":7.2016365,"name":"Jet","city":"Wermelskirchen","category":"other","tags":[],"opening_hours":"Mo-Fr 06:00-22:00; Sa 07:00-22:00; PH off","operator":"Rilana Gebhart-Bachmann"},{"id":"fuel_621118070","lat":51.2511546,"lon":7.1287653,"name":"Markant","city":"Wuppertal","category":"other","tags":[],"operator":"Markant"},{"id":"fuel_633159884","lat":51.9072997,"lon":7.6333433,"name":"Westfalen Tankstelle","city":"","category":"other","tags":[],"opening_hours":"24/7","operator":"Westfalen AG"},{"id":"fuel_634133665","lat":51.9489738,"lon":7.0159228,"name":"Pludra","city":"","category":"other","tags":[],"operator":"Pludra"},{"id":"fuel_635978492","lat":51.9247121,"lon":7.5588288,"name":"EC-Tank","city":"","category":"other","tags":[],"opening_hours":"Mo-Fr 06:45-20:30, Sa 07:15-19:00, Su 09:00-17:00","operator":"L. Stroetmann Großmärkte"},{"id":"fuel_648862900","lat":51.0480414,"lon":7.0606336,"name":"Aral","city":"","category":"other","tags":[],"operator":"Aral"},{"id":"fuel_656367280","lat":51.0171579,"lon":7.6396849,"name":"Markant","city":"","category":"other","tags":[],"operator":"Markant"},{"id":"fuel_660195779","lat":51.4612851,"lon":7.0330797,"name":"OIL!","city":"Essen","category":"other","tags":[],"opening_hours":"Mo-Fr 06:00-22:00;Sa 07:00-22:00;Su 08:00-22:00","operator":"OIL!"},{"id":"fuel_662252199","lat":51.4859555,"lon":7.0643296,"name":"STAR","city":"","category":"other","tags":[],"operator":"star"},{"id":"fuel_662529893","lat":51.4680954,"lon":7.0454654,"name":"Aral","city":"Essen","category":"other","tags":[],"opening_hours":"24/7","operator":"Aral"},{"id":"fuel_663216757","lat":51.111166,"lon":7.5072423,"name":"BFT","city":"Kierspe","category":"other","tags":[],"operator":"Sevda Köse"},{"id":"fuel_663875458","lat":51.4553406,"lon":7.2504321,"name":"Total","city":"","category":"other","tags":[],"opening_hours":"Mo-Fr 06:00-22:00; Sa 07:00-22:00; PH,Su 08:00-22:00","operator":"TOTAL"},{"id":"fuel_664742764","lat":51.3928847,"lon":7.6937364,"name":"Bft Tankstelle","city":"Iserlohn","category":"other","tags":[],"opening_hours":"Mo-Fr 05:00-23:00; PH,Su 06:00-23:00","operator":"bft"},{"id":"fuel_666068085","lat":51.3374069,"lon":7.0193725,"name":"Esso","city":"","category":"other","tags":[],"opening_hours":"Mo-Fr 06:00-22:00; Sa 07:00-21:00; Su,PH 08:00-20:00","operator":"Francesco Sparacio"},{"id":"fuel_669872573","lat":51.9432194,"lon":7.6108318,"name":"Westfalen-Tankstelle Jörg Binding","city":"Münster","category":"other","tags":[],"opening_hours":"24/7","operator":"Westfalen AG"},{"id":"fuel_670005335","lat":51.9230179,"lon":7.3725347,"name":"Tankstelle","city":"Nottuln","category":"other","tags":[],"operator":"H. Kellermann GmbH"},{"id":"fuel_670239240","lat":51.6413851,"lon":7.6407168,"name":"Tankstelle Marina Rünthe Diesel / Super","city":"","category":"other","tags":[],"opening_hours":"\"nach Vereinbarung mit Hafenmeister\""},{"id":"fuel_676044533","lat":51.5117899,"lon":7.4304216,"name":"Shell","city":"","category":"other","tags":[],"operator":"Sondram & Taoka GmbH"},{"id":"fuel_676737476","lat":51.0790518,"lon":7.1178805,"name":"Tankstelle","city":"","category":"other","tags":[]},{"id":"fuel_679478620","lat":51.1047116,"lon":7.3736853,"name":"LPG Tankstelle Malz","city":"Wipperfürth","category":"other","tags":[],"operator":"Automobiltechnik Malz"},{"id":"fuel_685542548","lat":51.2518479,"lon":7.0631887,"name":"Q1","city":"","category":"other","tags":[],"opening_hours":"Mo-Fr 07:00-20:00, Sa 08:00-18:00, Su 10:00-18:00","operator":"Q1"},{"id":"fuel_687693221","lat":51.0271456,"lon":7.0423896,"name":"BFT","city":"Leverkusen","category":"other","tags":[],"operator":"BFT"},{"id":"fuel_690777791","lat":51.541698,"lon":7.2672916,"name":"Autogas","city":"","category":"other","tags":[],"operator":"Auto Becker GmbH"},{"id":"fuel_695190284","lat":51.1549823,"lon":7.0241363,"name":"Otto Kirschbaum GmbH & Co. KG","city":"Solingen","category":"other","tags":[],"opening_hours":"Mo-Fr 07:00-18:00; Sa 07:30-13:00"},{"id":"fuel_698362007","lat":51.2496898,"lon":7.1129346,"name":"bft","city":"Wuppertal","category":"other","tags":[],"operator":"bft"},{"id":"fuel_699655103","lat":51.3493324,"lon":7.7471078,"name":"Tankstelle","city":"","category":"other","tags":[],"operator":"STAR"},{"id":"fuel_705938200","lat":51.0570981,"lon":7.7682899,"name":"Theile-Schürholz","city":"Drolshagen","category":"other","tags":[]},{"id":"fuel_705938310","lat":51.3406981,"lon":7.5110399,"name":"Lange Mineralöl GmbH & Co. KG Tankautomat","city":"Hagen","category":"other","tags":[]},{"id":"fuel_717645644","lat":51.7601231,"lon":7.4274384,"name":"Raiffeisen","city":"Lüdinghausen","category":"other","tags":[],"operator":"Raiffeisen"},{"id":"fuel_720900010","lat":51.3780726,"lon":7.7283031,"name":"Tankstelle","city":"Iserlohn","category":"other","tags":[],"operator":"Aral AG"},{"id":"fuel_732711840","lat":51.5658,"lon":7.8907,"name":"Lehnert OHG","city":"","category":"other","tags":[],"opening_hours":"Mo-Fr 07:30-18:30; Sa 10:00-13:00"},{"id":"fuel_732711905","lat":51.3825863,"lon":7.8014729,"name":"Freie T","city":"","category":"other","tags":[],"opening_hours":"Mo-Fr 08:00-18:30; Sa 08:30-14:00"},{"id":"fuel_732712036","lat":51.9218099,"lon":7.6744668,"name":"Westfalen-Tankstelle Jürgen Roesmann","city":"Münster","category":"other","tags":[],"opening_hours":"Mo-Sa 06:00-00:00; Su 08:00-00:00","operator":"Westfalen AG"},{"id":"fuel_732712209","lat":51.6989917,"lon":7.7706256,"name":"Avia","city":"Hamm","category":"other","tags":[],"opening_hours":"Mo-Fr 06:00-21:00; Sa 07:00-20:00; Su 08:00-20:00"},{"id":"fuel_732712340","lat":51.6072216,"lon":7.1239855,"name":"Total","city":"Herten","category":"other","tags":[],"opening_hours":"Mo-Fr 05:30-22:00; Sa 06:00-22:00; Su 07:00-22:00","operator":"Total"},{"id":"fuel_732712470","lat":51.3462284,"lon":7.0432822,"name":"Autogas Thon","city":"Velbert","category":"other","tags":[],"opening_hours":"Mo-Th 08:00-13:00,14:00-18:00; Fr 08:00-15:00; PH off"},{"id":"fuel_732712550","lat":51.5604892,"lon":7.2467167,"name":"p.a.c. Gasservice GmbH","city":"Herne","category":"other","tags":[],"opening_hours":"Mo-Fr 08:00-16:30, Sa 09:00-13:00; PH off"},{"id":"fuel_732712684","lat":51.6479184,"lon":7.0860414,"name":"Star","city":"Marl","category":"other","tags":[],"opening_hours":"Mo-Sa 06:00-22:00; Su 08:00-22:00","operator":"star"},{"id":"fuel_732712874","lat":51.2891291,"lon":7.3212291,"name":"Raiffeisen","city":"Ennepetal","category":"other","tags":[],"operator":"Raiffeisen","opening_hours":"Mo-Sa 06:00-22:00; Su,PH off"},{"id":"fuel_732712884","lat":51.5272846,"lon":7.1872504,"name":"Total","city":"Herne","category":"other","tags":[],"opening_hours":"Mo-Fr 06:00-21:00; Sa,Su 08:00-21:00","operator":"Total"},{"id":"fuel_732712933","lat":51.6403367,"lon":7.3333259,"name":"Freie Tankstelle","city":"Datteln","category":"other","tags":[],"opening_hours":"24/7","operator":"Freie Tankstelle"},{"id":"fuel_732713688","lat":51.2764309,"lon":7.2586155,"name":"Nowak-Autogasequipment","city":"Wuppertal","category":"other","tags":[]},{"id":"fuel_732713787","lat":51.2053451,"lon":7.8690306,"name":"CLASSIC","city":"Plettenberg","category":"other","tags":[],"opening_hours":"Mo-Fr 05:00-22:00; Sa 07:30-22:00; Su 07:30-22:00","operator":"CLASSIC"},{"id":"fuel_732713817","lat":51.4820748,"lon":7.0186464,"name":"Betriebshof","city":"Essen","category":"other","tags":[],"opening_hours":"24/7"},{"id":"fuel_732714147","lat":51.2943915,"lon":7.8292542,"name":"Muckhoff GmbH","city":"Neuenrade","category":"other","tags":[],"opening_hours":"Mo-Fr 07:30-17:00"},{"id":"fuel_732714233","lat":51.6463531,"lon":7.2892644,"name":"Autohaus D. Hacke GmbH","city":"Oer-Erkenschwick","category":"other","tags":[],"opening_hours":"Mo-Fr 08:00-17:30; Sa 08:30-12:30"},{"id":"fuel_732714426","lat":51.6960775,"lon":7.9665964,"name":"Total Autohof Lippetal","city":"Lippetal","category":"other","tags":[],"opening_hours":"24/7","operator":"Euro Rast Park Lippetal, Löseke GmbH & Co KG"},{"id":"fuel_732714431","lat":51.284965,"lon":7.9544613,"name":"Aral","city":"Sundern (Sauerland)","category":"other","tags":[],"opening_hours":"Mo-Fr 07:00-21:00; Sa 07:00-20:00; Su 09:00-20:00","operator":"Aral"},{"id":"fuel_732714586","lat":51.0343429,"lon":7.1180718,"name":"Esso","city":"Odenthal","category":"other","tags":[],"opening_hours":"Mo-Fr 06:00-22:00; Sa 08:00-22:00; Su 09:00-22:00","operator":"Esso"},{"id":"fuel_732714616","lat":51.893577,"lon":7.5812833,"name":"Wiesmann GmbH","city":"Münster","category":"other","tags":[],"opening_hours":"Mo-Fr 07:30-18:30; Sa 08:00-13:00","operator":"Wiesmann"},{"id":"fuel_732715388","lat":51.5947227,"lon":7.1293642,"name":"Markant","city":"Herten","category":"other","tags":[],"opening_hours":"24/7","operator":"Markant"},{"id":"fuel_732715482","lat":51.0575442,"lon":7.0171296,"name":"Münch Anhängerreparatur","city":"","category":"other","tags":[],"opening_hours":"Mo-Fr 07:00-18:00"},{"id":"fuel_732715574","lat":51.1829319,"lon":7.2309857,"name":"Alternoil GmbH","city":"Remscheid","category":"other","tags":[],"opening_hours":"24/7"},{"id":"fuel_732715668","lat":51.23506,"lon":7.83794,"name":"BfT","city":"Plettenberg","category":"other","tags":[],"opening_hours":"Mo-Fr 06:00-23:00; Sa 07:30-22:00; Su 08:00-22:00","operator":"bft"},{"id":"fuel_732715792","lat":51.518503,"lon":7.5000166,"name":"AMS Richter","city":"","category":"other","tags":[],"opening_hours":"Mo-Fr 08:00-18:00"},{"id":"fuel_732715828","lat":51.6102668,"lon":7.2729004,"name":"G. Mühlenbrock","city":"Recklinghausen","category":"other","tags":[]},{"id":"fuel_732715902","lat":51.62778,"lon":7.42056,"name":"GASETEAM GmbH & Co. KG","city":"","category":"other","tags":[],"opening_hours":"Mo-Th 08:00-16:00; Fr 08:00-14:00; Sa 09:00-12:00"},{"id":"fuel_732716025","lat":51.9416842,"lon":7.1482222,"name":"B & S Petroleum GbR","city":"Coesfeld","category":"other","tags":[],"opening_hours":"24/7"},{"id":"fuel_732716058","lat":51.2167704,"lon":7.5933909,"name":"Tankstelle Pöckelmann","city":"Lüdenscheid","category":"other","tags":[],"opening_hours":"Mo-Fr 05:00-19:00; Sa 07:00-18:00; Su 08:00-14:00","operator":"Freie Tankstelle"},{"id":"fuel_732716308","lat":51.62241,"lon":7.42266,"name":"Stellfeld & Ernst GmbH","city":"","category":"other","tags":[]},{"id":"fuel_732716590","lat":51.18944,"lon":7.16306,"name":"Tankhof","city":"","category":"other","tags":[],"opening_hours":"24/7"},{"id":"fuel_732716623","lat":51.6422444,"lon":7.3351382,"name":"GaseTeam","city":"","category":"other","tags":[],"opening_hours":"Mo-Th 09:00-16:00; Fr 09:00-14:00"},{"id":"fuel_732716667","lat":51.8337425,"lon":7.0503791,"name":"Shell","city":"Reken","category":"other","tags":[],"opening_hours":"Mo-Fr 05:00-22:00; Sa 06:00-22:00; Su 08:00-22:00","operator":"Shell"},{"id":"fuel_732716762","lat":51.01752,"lon":7.24265,"name":"Esso","city":"Kürten","category":"other","tags":[],"opening_hours":"Mo-Fr 06:00-22:00; Sa 07:00-21:00; Su 08:00-20:00","operator":"Esso"},{"id":"fuel_732716848","lat":51.18103,"lon":7.17423,"name":"Total","city":"Remscheid","category":"other","tags":[],"opening_hours":"24/7","operator":"Total"},{"id":"fuel_732716870","lat":51.0878,"lon":7.08563,"name":"Muhr GmbH","city":"Burscheid","category":"other","tags":[],"opening_hours":"Mo-Fr 06:30-18:30; Sa 10:00-14:00"},{"id":"fuel_732716947","lat":51.8970105,"lon":7.0050663,"name":"Autohaus Bücker + Funke","city":"Velen","category":"other","tags":[],"opening_hours":"Mo-Fr 08:00-18:00; Sa 09:00-17:00"},{"id":"fuel_732717112","lat":51.5585265,"lon":7.909922,"name":"Theodor Rubart Mineralöle und Schmierstoffe GmbH & Co.","city":"Werl","category":"other","tags":[],"opening_hours":"Mo-Su 05:00-22:00"},{"id":"fuel_732717159","lat":51.41815,"lon":7.52233,"name":"SB-Tank Alcan","city":"Schwerte","category":"other","tags":[],"opening_hours":"Mo-Fr 06:00-22:00; Sa-Su 08:00-21:00","operator":"Star"},{"id":"fuel_732717290","lat":51.2674275,"lon":7.4589419,"name":"RWG Märkisches-Sauerland...","city":"Breckerfeld","category":"other","tags":[]},{"id":"fuel_732717305","lat":51.4118702,"lon":7.1860381,"name":"GGAutogas","city":"Hattingen","category":"other","tags":[],"opening_hours":"24/7"},{"id":"fuel_732717327","lat":51.3991146,"lon":7.2137078,"name":"Autohaus Hantke GmbH","city":"Hattingen","category":"other","tags":[],"opening_hours":"Mo-Fr 08:00-18:00; Sa 09:00-12:00"},{"id":"fuel_732717491","lat":51.5464991,"lon":7.4501819,"name":"HEM","city":"Dortmund","category":"other","tags":[],"opening_hours":"Mo-Fr 05:00-22:00; Sa 08:00-22:00; Su 09:00-22:00","operator":"HEM"},{"id":"fuel_732717685","lat":51.3778846,"lon":7.7642515,"name":"BfT","city":"Hemer","category":"other","tags":[],"opening_hours":"Mo-Su 05:00-22:00","operator":"bft"},{"id":"fuel_732717753","lat":51.9504296,"lon":7.9668046,"name":"Klargas OHG","city":"","category":"other","tags":[],"opening_hours":"Mo-Fr 08:00-17:00"},{"id":"fuel_732717772","lat":51.5373585,"lon":7.430857,"name":"Q1","city":"","category":"other","tags":[],"opening_hours":"Mo-Fr 06:30-19:30; Sa 07:30-15:30","operator":"Q1"},{"id":"fuel_787365016","lat":51.8828467,"lon":7.6065332,"name":"Westfalen","city":"","category":"other","tags":[],"operator":"Westfalen AG"},{"id":"fuel_787911121","lat":51.2250721,"lon":7.0569787,"name":"Saab, Subaru","city":"","category":"other","tags":[],"operator":"Bioethanol E85 geschlossen"},{"id":"fuel_825897501","lat":51.101132,"lon":7.6383711,"name":"bft","city":"","category":"other","tags":[],"operator":"bft"},{"id":"fuel_833219077","lat":51.5619673,"lon":7.9023306,"name":"Star","city":"","category":"other","tags":[],"operator":"Star"},{"id":"fuel_838125969","lat":51.4374269,"lon":7.7610877,"name":"Aral","city":"","category":"other","tags":[],"operator":"Aral"},{"id":"fuel_838128912","lat":51.4478903,"lon":7.7867178,"name":"Total","city":"Menden (Sauerland)","category":"other","tags":[],"opening_hours":"24/7","operator":"Total"},{"id":"fuel_838733791","lat":51.5537373,"lon":7.2941835,"name":"Autogas","city":"","category":"other","tags":[],"opening_hours":"24/7"},{"id":"fuel_843137600","lat":51.3838766,"lon":7.6769795,"name":"Stellfeld & Ernst GmbH","city":"","category":"other","tags":[],"opening_hours":"24/7"},{"id":"fuel_875686354","lat":51.6655822,"lon":7.1504002,"name":"Aral","city":"Marl","category":"other","tags":[],"operator":"Aral"},{"id":"fuel_892461076","lat":51.95601,"lon":7.6769318,"name":"Westfalen-Tankstelle Helmut Schattauer","city":"Münster","category":"other","tags":[],"opening_hours":"Mo-Sa 07:00-21:00; Su 09:00-21:00","operator":"Westfalen AG"},{"id":"fuel_898985544","lat":51.9409912,"lon":7.0291266,"name":"Tankstelle","city":"","category":"other","tags":[],"opening_hours":"24/7"},{"id":"fuel_920582426","lat":51.6404333,"lon":7.2552272,"name":"Aral","city":"","category":"other","tags":[],"operator":"Aral"},{"id":"fuel_965831657","lat":51.54891,"lon":7.0884147,"name":"Matena","city":"Gelsenkirchen","category":"other","tags":[]},{"id":"fuel_969030822","lat":51.4497894,"lon":7.7803406,"name":"JET Tankstelle Menden","city":"","category":"other","tags":[],"operator":"Jet"},{"id":"fuel_977432628","lat":51.5122387,"lon":7.1109109,"name":"Total","city":"Gelsenkirchen","category":"other","tags":[],"opening_hours":"Mo-Fr 06:00-22:00; Sa 07:00-22:00; Su 09:00-22:00","operator":"Total"},{"id":"fuel_977457209","lat":51.5330322,"lon":7.1107647,"name":"Aral","city":"Gelsenkirchen","category":"other","tags":[],"opening_hours":"24/7","operator":"Jernej URANKAR"},{"id":"fuel_977673834","lat":51.521241,"lon":7.07422,"name":"Shell","city":"Gelsenkirchen","category":"other","tags":[],"opening_hours":"24/7","operator":"R. M. Schwegler GmbH"},{"id":"fuel_977678038","lat":51.5203684,"lon":7.0786532,"name":"Total","city":"Gelsenkirchen","category":"other","tags":[],"opening_hours":"Mo-Fr 05:00-22:00; Sa,Su 06:00-22:00","operator":"Total"},{"id":"fuel_977683431","lat":51.5170519,"lon":7.0908791,"name":"Star","city":"Gelsenkirchen","category":"other","tags":[],"opening_hours":"Mo-Fr 06:00-22:00; Sa 07:00-22:00; Su 09:00-21:00","operator":"Star"},{"id":"fuel_979108507","lat":51.293503,"lon":7.2895527,"name":"Esso","city":"Schwelm","category":"other","tags":[],"operator":"Esso"},{"id":"fuel_1051714819","lat":51.6921097,"lon":7.1191189,"name":"Markant-Automaten-Tankstelle","city":"","category":"other","tags":[]},{"id":"fuel_1107832253","lat":51.6648364,"lon":7.123593,"name":"Star","city":"Marl","category":"other","tags":[],"opening_hours":"Mo-Sa 06:00-22:00, Su 08:00-22:00","operator":"Sascha Rösmann"},{"id":"fuel_1111514175","lat":51.6060952,"lon":7.6186274,"name":"Markant Tankstelle","city":"","category":"other","tags":[],"opening_hours":"Mo-Fr 06:00-22:00; Sa 07:00-22:00; Su 08:00-22:00"},{"id":"fuel_1113612633","lat":51.3312082,"lon":7.3721243,"name":"SB Tank","city":"Gevelsberg","category":"other","tags":[],"operator":"Fatih Ergin"},{"id":"fuel_1127923426","lat":51.3520695,"lon":7.0350363,"name":"Tankshop","city":"","category":"other","tags":[],"opening_hours":"Mo-Fr 07:00-20:00; Sa 08:00-19:00; Su,PH off","operator":"Karl-Heinz Schuckel"},{"id":"fuel_1158806882","lat":51.6512481,"lon":7.6628726,"name":"ARAL Tankstelle","city":"Bergkamen","category":"other","tags":[],"opening_hours":"Mo-Su,PH 05:00-24:00","operator":"Regina Werschnitzky"},{"id":"fuel_1217175832","lat":51.19122,"lon":7.170763,"name":"Total","city":"","category":"other","tags":[],"operator":"Total"},{"id":"fuel_1261656663","lat":51.6504586,"lon":7.3284037,"name":"HEM","city":"","category":"other","tags":[],"opening_hours":"Mo-Fr 06:00-22:00; Sa 07:00-22:00; Su 08:00-22:00","operator":"HEM"},{"id":"fuel_1273187240","lat":51.0245589,"lon":7.7885581,"name":"Raiffeisen WG","city":"Drolshagen","category":"other","tags":[]},{"id":"fuel_1274143651","lat":51.578625,"lon":7.3868811,"name":"Shell","city":"","category":"other","tags":[],"operator":"Shell"},{"id":"fuel_1287837715","lat":51.9543901,"lon":7.6293807,"name":"Freie Tankstelle Deim","city":"Münster","category":"other","tags":[],"opening_hours":"Mo-Fr 07:00-22:00; Sa 08:00-22:00; Su,PH 09:00-22:00"},{"id":"fuel_1341614098","lat":51.8218229,"lon":7.3144402,"name":"freie Tankstelle","city":"Dülmen","category":"other","tags":[],"operator":"Freie Tankstelle"},{"id":"fuel_1341614113","lat":51.8250728,"lon":7.3193421,"name":"Raiffeisen Tankstelle","city":"Dülmen","category":"other","tags":[],"opening_hours":"24/7","operator":"Raiffeisen Steverland eG"},{"id":"fuel_1374268365","lat":51.6188176,"lon":7.6311085,"name":"HEM","city":"Bergkamen","category":"other","tags":[],"operator":"HEM"},{"id":"fuel_1398850037","lat":51.5645853,"lon":7.8953484,"name":"Jet","city":"Werl","category":"other","tags":[],"operator":"Jet"},{"id":"fuel_1412841338","lat":51.469048,"lon":7.0044916,"name":"Autogas Tankstelle (Automat)","city":"","category":"other","tags":[],"operator":"freie Tankstelle"},{"id":"fuel_1428111199","lat":51.8336328,"lon":7.4019519,"name":"Ross","city":"","category":"other","tags":[]},{"id":"fuel_1454132382","lat":51.5609114,"lon":7.2308552,"name":"Total","city":"","category":"other","tags":[],"operator":"Total"},{"id":"fuel_1473007698","lat":51.3670108,"lon":7.550569,"name":"Orosol","city":"","category":"other","tags":[],"opening_hours":"24/7","operator":"Orosol Mineraloelvertreib"},{"id":"fuel_1477765096","lat":51.6035674,"lon":7.158914,"name":"LPG","city":"","category":"other","tags":[]},{"id":"fuel_1513396633","lat":51.09705,"lon":7.2053681,"name":"Independent","city":"","category":"other","tags":[],"operator":"Independent"},{"id":"fuel_1520173711","lat":51.6244266,"lon":7.1930957,"name":"Total","city":"","category":"other","tags":[],"opening_hours":"Mo-Fr 06:00-22:00; Sa 07:00-22:00; Su 08:00-22:00","operator":"Total"},{"id":"fuel_1566581729","lat":51.4696698,"lon":7.026382,"name":"Autogas LPG","city":"","category":"other","tags":[],"operator":"Celos"},{"id":"fuel_1573841627","lat":51.0230731,"lon":7.045051,"name":"Avia","city":"","category":"other","tags":[],"operator":"Avia"},{"id":"fuel_1585792883","lat":51.4759972,"lon":7.1526668,"name":"Shell","city":"Bochum","category":"other","tags":[],"opening_hours":"24/7","operator":"Shell"},{"id":"fuel_1585963317","lat":51.5708328,"lon":7.1026433,"name":"Westfalen-Tankstelle BAT Resser Mark Nord","city":"Gelsenkirchen","category":"other","tags":[],"opening_hours":"24/7","operator":"Westfalen"},{"id":"fuel_1587559548","lat":51.5217865,"lon":7.0729901,"name":"Jet","city":"","category":"other","tags":[],"opening_hours":"Mo-Fr 04:30-24:00; Sa 06:00-24:00; Su 07:00-24:00","operator":"Jet"},{"id":"fuel_1597384158","lat":51.5037655,"lon":7.091704,"name":"bft","city":"Gelsenkirchen","category":"other","tags":[],"opening_hours":"Mo-Fr 07:00-19:30; Sa 07:00-15:30","operator":"bft"},{"id":"fuel_1597727503","lat":51.4962415,"lon":7.1146103,"name":"Aral","city":"","category":"other","tags":[],"opening_hours":"Mo-Fr 06:00-22:00; Sa 07:00-22:00; Su 09:00-22:00","operator":"Aral"},{"id":"fuel_1597727585","lat":51.492555,"lon":7.1231201,"name":"SB-Tankstelle","city":"","category":"other","tags":[]},{"id":"fuel_1602142859","lat":51.590083,"lon":7.0512434,"name":"Markant","city":"Gelsenkirchen","category":"other","tags":[],"opening_hours":"24/7","operator":"Markant"},{"id":"fuel_1602143057","lat":51.5901307,"lon":7.0504943,"name":"SB Tank","city":"Gelsenkirchen","category":"other","tags":[],"operator":"SB Tank"},{"id":"fuel_1602159256","lat":51.5981562,"lon":7.0513278,"name":"ARAL","city":"Gelsenkirchen","category":"other","tags":[],"operator":"Aral"},{"id":"fuel_1602159401","lat":51.6064038,"lon":7.0490993,"name":"Westfalen","city":"Gelsenkirchen","category":"other","tags":[],"opening_hours":"24/7"},{"id":"fuel_1604781288","lat":51.9462151,"lon":7.5329613,"name":"Weihermann Mineralölhandel","city":"","category":"other","tags":[],"opening_hours":"24/7","operator":"Aral"},{"id":"fuel_1619237176","lat":51.9671765,"lon":7.6433798,"name":"Westfalen Tankstelle","city":"Münster","category":"other","tags":[],"operator":"Westfalen AG"},{"id":"fuel_1624399894","lat":51.4972977,"lon":7.0824558,"name":"Jet","city":"","category":"other","tags":[],"operator":"JET"},{"id":"fuel_1624553993","lat":51.5181711,"lon":7.1227137,"name":"SB-Tankstelle","city":"","category":"other","tags":[]},{"id":"fuel_1636969054","lat":51.6226977,"lon":7.2291054,"name":"Markant","city":"","category":"other","tags":[],"operator":"bft"},{"id":"fuel_1672139472","lat":51.1711426,"lon":7.206859,"name":"Jet","city":"Remscheid","category":"other","tags":[],"operator":"JET"},{"id":"fuel_1679100609","lat":51.5491354,"lon":7.5385789,"name":"Tankstelle","city":"","category":"other","tags":[]},{"id":"fuel_1681441537","lat":51.6172326,"lon":7.3179514,"name":"Flus","city":"","category":"other","tags":[],"opening_hours":"Mo-Fr 00:00-00:00, Sa 00:00-22:00, Su 06:00-24:00"},{"id":"fuel_1693111595","lat":51.6578284,"lon":7.6288181,"name":"Aral","city":"","category":"other","tags":[],"operator":"Aral"},{"id":"fuel_1709552468","lat":51.3068629,"lon":7.6193867,"name":"Avia","city":"","category":"other","tags":[],"operator":"Avia"},{"id":"fuel_1779484859","lat":51.6767137,"lon":7.7754318,"name":"Aral ADS - Automatic Diesel Station","city":"","category":"other","tags":[],"opening_hours":"24/7"},{"id":"fuel_1780386250","lat":51.3215135,"lon":7.3378315,"name":"Westfalen Tankstelle","city":"","category":"other","tags":[],"operator":"Westfalen"},{"id":"fuel_1796817469","lat":51.371127,"lon":7.137452,"name":"Star","city":"","category":"other","tags":[],"opening_hours":"Mo-Sa 06:00-22:00;Su 08:00-22:00","operator":"Igor Korzhov"},{"id":"fuel_1796817470","lat":51.3463327,"lon":7.125501,"name":"Tankstelle Streibelt GmbH","city":"Velbert","category":"other","tags":[],"opening_hours":"Mo-Fr 06:30-21:00;Sa 07:30-20:00;Su 08:00-20:00","operator":"Streibelt GmbH"},{"id":"fuel_1809757894","lat":51.5231656,"lon":7.1786769,"name":"SB-Tank","city":"Herne","category":"other","tags":[],"operator":"SB Tank"},{"id":"fuel_1809757927","lat":51.5221708,"lon":7.1596279,"name":"Total","city":"Herne","category":"other","tags":[],"operator":"Total"},{"id":"fuel_1814304389","lat":51.4992724,"lon":7.2765766,"name":"TotalEnergies","city":"Bochum","category":"other","tags":[],"operator":"TotalEnergies"},{"id":"fuel_1834359671","lat":51.3740406,"lon":7.142795,"name":"OIL!","city":"Velbert","category":"other","tags":[],"opening_hours":"Mo-Fr 06:00-21:00; Sa 07:00-21:00; Su 08:00-21:00","operator":"Petra Hesse"},{"id":"fuel_1841778455","lat":51.9142509,"lon":7.9767756,"name":"RaiffeisenTankstelle","city":"","category":"other","tags":[]},{"id":"fuel_1901887434","lat":51.1854696,"lon":7.1792783,"name":"bft","city":"","category":"other","tags":[],"operator":"bft"},{"id":"fuel_1921769824","lat":51.1576691,"lon":7.0715805,"name":"Autogas","city":"","category":"other","tags":[],"opening_hours":"PH,Mo-Su 00:00-24:00","operator":"Autogas"},{"id":"fuel_1922111467","lat":51.5772086,"lon":7.2123679,"name":"KFZ Kurt","city":"","category":"other","tags":[]},{"id":"fuel_1955658537","lat":51.2957519,"lon":7.9840316,"name":"Schulte","city":"","category":"other","tags":[]},{"id":"fuel_1956158388","lat":51.4001457,"lon":7.6969905,"name":"Aral","city":"Iserlohn","category":"other","tags":[],"operator":"Aral"},{"id":"fuel_1957398397","lat":51.3753673,"lon":7.7457573,"name":"Jet","city":"","category":"other","tags":[],"operator":"Jet"},{"id":"fuel_1997280392","lat":51.2247456,"lon":7.8714527,"name":"Esso Plettenberg","city":"","category":"other","tags":[],"operator":"ESSO"},{"id":"fuel_1999145137","lat":51.2570536,"lon":7.7575188,"name":"Westfalen","city":"","category":"other","tags":[],"operator":"Westfalen"},{"id":"fuel_2001931984","lat":51.9105492,"lon":7.3997768,"name":"Aral","city":"Nottuln","category":"other","tags":[],"operator":"Aral"},{"id":"fuel_2015008137","lat":51.4273783,"lon":7.7997527,"name":"Esso","city":"Menden (Sauerland)","category":"other","tags":[],"opening_hours":"00:00-24:00","operator":"Christof Keuchen"},{"id":"fuel_2127415960","lat":51.6495821,"lon":7.0873582,"name":"Tankstelle","city":"","category":"other","tags":[]},{"id":"fuel_2140339269","lat":51.8201136,"lon":7.2946305,"name":"Rüsch (LPG)","city":"","category":"other","tags":[]},{"id":"fuel_2361896756","lat":51.46228,"lon":7.0300249,"name":"Aral","city":"","category":"other","tags":[],"operator":"Aral"},{"id":"fuel_2366256376","lat":51.6042076,"lon":7.2734479,"name":"Westfalia","city":"","category":"other","tags":[],"operator":"Westfalia"},{"id":"fuel_2382012574","lat":51.2687297,"lon":7.1269173,"name":"ARAL","city":"","category":"other","tags":[],"operator":"Aral"},