[{"id":"station_node_29056915","lat":48.1659478,"lon":14.0265101,"name":"Wels Hauptbahnhof","city":"","category":"station","tags":["bahnhof","barrierefrei"],"operator":"ÖBB-Infrastruktur AG","hours":{"type":"unknown"}},{"id":"station_node_215682892","lat":48.2902408,"lon":14.2918619,"name":"Linz Hauptbahnhof","city":"","category":"station","tags":["bahnhof","barrierefrei"],"operator":"ÖBB-Infrastruktur AG","hours":{"type":"unknown"}},{"id":"gplace_ChIJM1XM0A6Xc0cRiNbOoGkP2u8","lat":48.2833294,"lon":14.265680699999999,"name":"Die Buschenschank","city":"Linz","category":"gastro","tags":["barrierefrei","google_wc_accessible"],"hours":{"type":"unknown"}},{"id":"gplace_ChIJIU6xo0GUdkcRRVda4K502eU","lat":48.2858561,"lon":14.255112800000001,"name":"EUROSPAR","city":"Linz","category":"other","tags":["barrierefrei","google_wc_accessible"],"hours":{"type":"unknown"}},{"id":"gplace_ChIJNVw8jmyXc0cRp8TW0RkZWYA","lat":48.2948496,"lon":14.2543677,"name":"Guest House NiederBerger","city":"Linz","category":"gastro","tags":["barrierefrei","google_wc_accessible"],"hours":{"type":"unknown"}},{"id":"gplace_ChIJramcuhWXc0cRMwgJCsAGr2A","lat":48.2921577,"lon":14.2478029,"name":"Mostschänke Lohwiesen","city":"Linz","category":"gastro","tags":["barrierefrei","google_wc_accessible"],"hours":{"type":"unknown"}},{"id":"gplace_ChIJ5_p2pQqXc0cRq5M5qay1WDc","lat":48.2918066,"lon":14.272293,"name":"Café Froschberg","city":"Linz","category":"gastro","tags":["barrierefrei","google_wc_accessible"],"hours":{"type":"unknown"}},{"id":"gplace_ChIJRdZNGQuXc0cRNMRO_zYWLTQ","lat":48.2915352,"lon":14.2690481,"name":"Café CARLA","city":"Linz","category":"gastro","tags":["barrierefrei","google_entrance_accessible"],"hours":{"type":"unknown"}},{"id":"gplace_ChIJoZm5552Xc0cRUV7gsYZpAlA","lat":48.2914538,"lon":14.2667006,"name":"Bergdiele","city":"Linz","category":"gastro","tags":["google_has_restroom"],"hours":{"type":"unknown"}},{"id":"gplace_ChIJT90NLTiXc0cRi9XMu6jIhGg","lat":48.2864177,"lon":14.254220199999999,"name":"Funtastic Fitness Leonding - Alles für deine Gesundheit","city":"Linz","category":"other","tags":["google_has_restroom"],"hours":{"type":"unknown"}},{"id":"gplace_ChIJja2HS9h7ckcRUUX42635VZg","lat":48.3070494,"lon":14.2586224,"name":"Gasthof Rothmayr","city":"Linz","category":"gastro","tags":["google_has_restroom"],"hours":{"type":"unknown"}},{"id":"gplace_ChIJQ2YbYnyXc0cRujy1jaRnK9k","lat":48.3087124,"lon":14.2711445,"name":"Eventgasthaus Spatzenbauer Linz","city":"Linz","category":"gastro","tags":["barrierefrei","google_entrance_accessible"],"hours":{"type":"unknown"}},{"id":"gplace_ChIJmyUH1pCXc0cRJ68DeRjcwaE","lat":48.307297299999995,"lon":14.256503499999999,"name":"Limanz Restaurant","city":"Linz","category":"gastro","tags":["barrierefrei","google_entrance_accessible"],"hours":{"type":"unknown"}},{"id":"gplace_ChIJBectLX2Xc0cR-6wsHWPgbXo","lat":48.3110293,"lon":14.269296599999999,"name":"Bistro Frédéric","city":"Linz","category":"gastro","tags":["barrierefrei","google_entrance_accessible"],"hours":{"type":"unknown"}},{"id":"gplace_ChIJm_gKyueZc0cRSuXfy-rBzIU","lat":48.323315699999995,"lon":14.2578515,"name":"Pöstlingberg Schlössl","city":"Linz","category":"gastro","tags":["barrierefrei","google_wc_accessible"],"hours":{"type":"unknown"}},{"id":"gplace_ChIJiZrpw-eZc0cRF1PYrW-8vQo","lat":48.323551099999996,"lon":14.259231699999999,"name":"Jindrak Café Pöstlingberg","city":"Linz","category":"gastro","tags":["barrierefrei","google_wc_accessible"],"hours":{"type":"unknown"}},{"id":"gplace_ChIJB3su1eeZc0cRakv6GB3kNlM","lat":48.3246002,"lon":14.258292299999999,"name":"Kirchenwirt am Pöstlingberg Haudum/Ruetz OG","city":"Linz","category":"gastro","tags":["barrierefrei","google_entrance_accessible"],"hours":{"type":"unknown"}},{"id":"gplace_ChIJMZg2UgCZc0cRbwGAlmL6Yf4","lat":48.3201416,"lon":14.2750805,"name":"Buffet Obelix","city":"Linz","category":"gastro","tags":["google_has_restroom"],"hours":{"type":"unknown"}},{"id":"gplace_ChIJlXlWvZuXc0cRSpV95L6zArU","lat":48.2977732,"lon":14.284584100000002,"name":"Pizzeria & Trattoria I Fratelli","city":"Linz","category":"gastro","tags":["google_has_restroom"],"hours":{"type":"unknown"}},{"id":"gplace_ChIJOXx5hJuXc0cRVRTglIdd9NM","lat":48.298179999999995,"lon":14.2837,"name":"Hofer Linz","city":"Linz","category":"other","tags":["barrierefrei","google_wc_accessible"],"hours":{"type":"unknown"}},{"id":"gplace_ChIJRUDRzpyXc0cRNnRIDVqb-28","lat":48.300719799999996,"lon":14.2820526,"name":"KV KAPU","city":"Linz","category":"gastro","tags":["barrierefrei","google_wc_accessible"],"hours":{"type":"unknown"}},{"id":"gplace_ChIJ9XMOsHeXc0cRxHzgQh2666o","lat":48.3002159,"lon":14.274589899999999,"name":"ARIS Taverna.Ouserie","city":"Linz","category":"gastro","tags":["barrierefrei","google_entrance_accessible"],"hours":{"type":"unknown"}},{"id":"gplace_ChIJ_cpe7qGXc0cRpKjOjUw55Ic","lat":48.290762799999996,"lon":14.278173,"name":"Ristorante-Pizzeria FORTUNA","city":"Linz","category":"gastro","tags":["barrierefrei","google_entrance_accessible","google_wc_accessible"],"hours":{"type":"unknown"}},{"id":"gplace_ChIJTxIFP5qXc0cRUKTb2OI9ssY","lat":48.2968056,"lon":14.2871659,"name":"Honeder Naturbackstube","city":"Linz","category":"gastro","tags":["barrierefrei","google_entrance_accessible"],"hours":{"type":"unknown"}},{"id":"gplace_ChIJ_fKeEb6Xc0cRSbm-m3L-dPA","lat":48.2933649,"lon":14.2772264,"name":"Dunkelschwarz Restaurant","city":"Linz","category":"gastro","tags":["barrierefrei","google_wc_accessible"],"hours":{"type":"unknown"}},{"id":"gplace_ChIJb2ZmgCKXc0cRdJ3oMajFm-Y","lat":48.2914482,"lon":14.2782951,"name":"Terrasse am Froschberg Linz","city":"Linz","category":"gastro","tags":["barrierefrei","google_wc_accessible"],"hours":{"type":"unknown"}},{"id":"gplace_ChIJT_Gg7ZmXc0cRBUD975bSvAI","lat":48.2948908,"lon":14.2868186,"name":"Tramway im Stockhof","city":"Linz","category":"gastro","tags":["google_has_restroom"],"hours":{"type":"unknown"}},{"id":"gplace_ChIJb8UlHJqXc0cRzfoEH0gAqkY","lat":48.2956511,"lon":14.287393799999998,"name":"MUNDWERKSTATT","city":"Linz","category":"gastro","tags":["barrierefrei","google_entrance_accessible"],"hours":{"type":"unknown"}},{"id":"gplace_ChIJi4Mi-JyXc0cRDXFGgX-9usw","lat":48.2990211,"lon":14.2806748,"name":"Agathon | Restaurant","city":"Linz","category":"gastro","tags":["google_has_restroom"],"hours":{"type":"unknown"}},{"id":"gplace_ChIJ_TFte4OXc0cRH_7XjWM08Rs","lat":48.3027411,"lon":14.285052499999999,"name":"Glorious Bastards","city":"Linz","category":"gastro","tags":["barrierefrei","google_wc_accessible"],"hours":{"type":"unknown"}},{"id":"gplace_ChIJYUn7CoSXc0cRR344XsSxo14","lat":48.3044544,"lon":14.286692899999998,"name":"L'Osteria Linz","city":"Linz","category":"gastro","tags":["barrierefrei","google_wc_accessible"],"hours":{"type":"unknown"}},{"id":"gplace_ChIJiXXVIbeXc0cRBNqCmjt-TGw","lat":48.304677,"lon":14.2846742,"name":"Miyako Ramen","city":"Linz","category":"gastro","tags":["barrierefrei","google_wc_accessible"],"hours":{"type":"unknown"}},{"id":"gplace_ChIJS_yxR4SXc0cR6AcGNLIzq_4","lat":48.304142,"lon":14.2884769,"name":"McDonald's","city":"Linz","category":"gastro","tags":["barrierefrei","google_wc_accessible"],"hours":{"type":"unknown"}},{"id":"gplace_ChIJMxpxsoaXc0cR-qOb7Bdvctk","lat":48.306379899999996,"lon":14.2876552,"name":"Wirtshaus Keintzel","city":"Linz","category":"gastro","tags":["barrierefrei","google_entrance_accessible"],"hours":{"type":"unknown"}},{"id":"gplace_ChIJW5-CxoSXc0cRZBqDZnX3Rn8","lat":48.3015039,"lon":14.286919399999999,"name":"Konditorei Jindrak | Headquarters & Art Café","city":"Linz","category":"gastro","tags":["google_has_restroom"],"hours":{"type":"unknown"}},{"id":"gplace_ChIJ4-ppQFqXc0cRMZmuq6vejsw","lat":48.303385,"lon":14.288038600000002,"name":"Barista Brunch Linz","city":"Linz","category":"gastro","tags":["barrierefrei","google_entrance_accessible"],"hours":{"type":"unknown"}},{"id":"gplace_ChIJ0_6TEYSXc0cRFSNszf6y7xk","lat":48.3047598,"lon":14.2874892,"name":"VAPIANO Linz","city":"Linz","category":"gastro","tags":["barrierefrei","google_wc_accessible"],"hours":{"type":"unknown"}},{"id":"gplace_ChIJYS7oE3-Xc0cRwnhcbqap5Jk","lat":48.308348699999996,"lon":14.2792294,"name":"Wirtshaus Gretzl - ehemals die Donauwirtinnen","city":"Linz","category":"gastro","tags":["barrierefrei","google_entrance_accessible"],"hours":{"type":"unknown"}},{"id":"gplace_ChIJScqx8NaXc0cRL5wtyhBDVXk","lat":48.302744,"lon":14.287956,"name":"HOFER","city":"Linz","category":"other","tags":["barrierefrei","google_wc_accessible"],"hours":{"type":"unknown"}},{"id":"gplace_ChIJeSm_0YKXc0cRzf4_t6HgJpA","lat":48.3018758,"lon":14.2807107,"name":"GN Antica Locanda Gastro GmbH","city":"Linz","category":"gastro","tags":["google_has_restroom"],"hours":{"type":"unknown"}},{"id":"gplace_ChIJsbbv_HGXc0cRs9gFDAlDHAs","lat":48.305489099999996,"lon":14.2883373,"name":"Zaffran indian cuisine","city":"Linz","category":"gastro","tags":["google_has_restroom"],"hours":{"type":"unknown"}},{"id":"gplace_ChIJf3vWLYKXc0cRtVWQgsnTqHk","lat":48.3056517,"lon":14.282019,"name":"Schlosscafe Linz","city":"Linz","category":"gastro","tags":["google_has_restroom"],"hours":{"type":"unknown"}},{"id":"gplace_ChIJ6Un2FoOXc0cRr_nKbeIWkmY","lat":48.302738399999996,"lon":14.283000399999999,"name":"DAO","city":"Linz","category":"gastro","tags":["barrierefrei","google_entrance_accessible"],"hours":{"type":"unknown"}},{"id":"gplace_ChIJ6xpAGYWWc0cR0lbVHRjKbys","lat":48.314715899999996,"lon":14.2831165,"name":"LentiaCity","city":"Linz","category":"gastro","tags":["barrierefrei","google_wc_accessible"],"hours":{"type":"unknown"}},{"id":"gplace_ChIJ4ZhLUc-Zc0cR7kS77ggnP10","lat":48.3269375,"lon":14.2773767,"name":"Wia z'haus Lehner","city":"Linz","category":"gastro","tags":["barrierefrei","google_wc_accessible"],"hours":{"type":"unknown"}},{"id":"gplace_ChIJuwlpcKiZc0cRjJ8yOjskVGA","lat":48.317723,"lon":14.2838611,"name":"Ebisu Sushi","city":"Linz","category":"gastro","tags":["google_has_restroom"],"hours":{"type":"unknown"}},{"id":"gplace_ChIJDwhhF9WZc0cRymRsTvSf7Zc","lat":48.313368600000004,"lon":14.281830099999999,"name":"Beenie.all day","city":"Linz","category":"gastro","tags":["barrierefrei","google_wc_accessible"],"hours":{"type":"unknown"}},{"id":"gplace_ChIJW7LnPiuYc0cRZvbXOU8qP0U","lat":48.314577299999996,"lon":14.285913299999999,"name":"bp","city":"Linz","category":"gastro","tags":["barrierefrei","google_wc_accessible"],"hours":{"type":"unknown"}},{"id":"gplace_ChIJQZlRLi2Yc0cRsVQaXTRRq5Q","lat":48.3188538,"lon":14.287185599999999,"name":"Phở Hà Nội","city":"Linz","category":"gastro","tags":["barrierefrei","google_wc_accessible"],"hours":{"type":"unknown"}},{"id":"gplace_ChIJmZPP29SZc0cRXb7sBuc4IlQ","lat":48.3142681,"lon":14.282204,"name":"McDonald's","city":"Linz","category":"gastro","tags":["barrierefrei","google_wc_accessible"],"hours":{"type":"unknown"}},{"id":"gplace_ChIJYwn3ZVyZc0cR7Mc7c_niXW0","lat":48.3140448,"lon":14.281526,"name":"Le Burger Linz Lentia City","city":"Linz","category":"gastro","tags":["barrierefrei","google_wc_accessible","google_has_restroom"],"hours":{"type":"unknown"}},{"id":"gplace_ChIJgxV7OdWZc0cRLnHvxuahDv8","lat":48.3130253,"lon":14.282720099999999,"name":"Golden Pub","city":"Linz","category":"gastro","tags":["google_has_restroom"],"hours":{"type":"unknown"}},{"id":"gplace_ChIJJ2Px2dSZc0cR-UZ5NFQb5rA","lat":48.31437,"lon":14.28425,"name":"HOFER","city":"Linz","category":"other","tags":["barrierefrei","google_wc_accessible"],"hours":{"type":"unknown"}},{"id":"gplace_ChIJJQiKfjOZc0cRp_T0jAuUhaQ","lat":48.316168,"lon":14.280439399999999,"name":"Trattoria Scollo","city":"Linz","category":"gastro","tags":["barrierefrei","google_entrance_accessible"],"hours":{"type":"unknown"}},{"id":"gplace_ChIJMXNfUNWZc0cR8qUEXNIhYaI","lat":48.3119478,"lon":14.2823215,"name":"Konditorei Jindrak | Filiale Hauptstraße","city":"Linz","category":"gastro","tags":["barrierefrei","google_entrance_accessible"],"hours":{"type":"unknown"}},{"id":"gplace_ChIJa23wBsuXc0cRLM5JXBonVM4","lat":48.271201999999995,"lon":14.294621999999999,"name":"Shell","city":"Linz","category":"gastro","tags":["barrierefrei","google_wc_accessible"],"hours":{"type":"unknown"}},{"id":"gplace_ChIJR9Z8QriXc0cR15JfIYm0Jqg","lat":48.2812887,"lon":14.2935653,"name":"Gasthaus zum Schiefen Apfelbaum","city":"Linz","category":"gastro","tags":["barrierefrei","google_wc_accessible"],"hours":{"type":"unknown"}},{"id":"gplace_ChIJXdB7m0OXc0cRSilEfRGnbqU","lat":48.2785261,"lon":14.273043099999999,"name":"Nussböckgut - Familie Velechovsky","city":"Linz","category":"gastro","tags":["barrierefrei","google_wc_accessible"],"hours":{"type":"unknown"}},{"id":"gplace_ChIJ5dQSuKeXc0cR2EUDNW_g8W8","lat":48.27593400000001,"lon":14.275231999999999,"name":"HOFER","city":"Linz","category":"other","tags":["barrierefrei","google_wc_accessible"],"hours":{"type":"unknown"}},{"id":"gplace_ChIJVQkVL7mXc0cRhs9JMs_sufQ","lat":48.2841123,"lon":14.2924286,"name":"Turmöl","city":"Linz","category":"gastro","tags":["google_has_restroom"],"hours":{"type":"unknown"}},{"id":"gplace_ChIJaXEfVLKXc0cRIMmtMYBzD64","lat":48.273809,"lon":14.280699799999999,"name":"China Court","city":"Linz","category":"gastro","tags":["google_has_restroom"],"hours":{"type":"unknown"}},{"id":"gplace_ChIJZ3KX6lyXc0cRXkGhqaTnWuo","lat":48.286694399999995,"lon":14.294817499999999,"name":"Spice Club","city":"Linz","category":"gastro","tags":["google_has_restroom"],"hours":{"type":"unknown"}},{"id":"gplace_ChIJ_WCJRr-Xc0cRBvsxoJLadpk","lat":48.285146399999995,"lon":14.2959289,"name":"Breitwieserhof","city":"Linz","category":"gastro","tags":["barrierefrei","google_wc_accessible"],"hours":{"type":"unknown"}},{"id":"gplace_ChIJ9WuHP7OXc0cRwrOzWeCA7Qo","lat":48.2719193,"lon":14.2816713,"name":"SOCAR Tankstelle","city":"Linz","category":"tankstelle","tags":["barrierefrei","google_wc_accessible"],"hours":{"type":"unknown"}},{"id":"gplace_ChIJUzrI_LyXc0cRkxmwTsuIp80","lat":48.2876377,"lon":14.287263,"name":"Maleewan Thai Imbiss","city":"Linz","category":"gastro","tags":["google_has_restroom"],"hours":{"type":"unknown"}},{"id":"gplace_ChIJGZFAZ6yXc0cRbv8O6uwXXbw","lat":48.2748152,"lon":14.2726659,"name":"Eni","city":"Linz","category":"tankstelle","tags":["barrierefrei","google_wc_accessible"],"hours":{"type":"unknown"}},{"id":"gplace_ChIJk1NadIWXc0cRKiCtqbbQBTg","lat":48.302236,"lon":14.2902112,"name":"stadtliebe","city":"Linz","category":"gastro","tags":["barrierefrei","google_wc_accessible"],"hours":{"type":"unknown"}},{"id":"gplace_ChIJhZ_3D4WXc0cRjdtq97Y8SuA","lat":48.3021904,"lon":14.289349399999999,"name":"Stiegl-Klosterhof","city":"Linz","category":"gastro","tags":["barrierefrei","google_wc_accessible"],"hours":{"type":"unknown"}},{"id":"gplace_ChIJFeNgBJCXc0cR_-c_UKI7t7A","lat":48.2997112,"lon":14.291395399999999,"name":"Josef","city":"Linz","category":"gastro","tags":["barrierefrei","google_wc_accessible"],"hours":{"type":"unknown"}},{"id":"gplace_ChIJtd1kRZeXc0cRRL2G4KrpzXw","lat":48.2946735,"lon":14.2893893,"name":"CUCINA","city":"Linz","category":"gastro","tags":["barrierefrei","google_wc_accessible"],"hours":{"type":"unknown"}},{"id":"gplace_ChIJNzWgSwCXc0cRHFq4Ep7MMJw","lat":48.296264099999995,"lon":14.291738299999999,"name":"Linza Döner","city":"Linz","category":"gastro","tags":["barrierefrei","google_entrance_accessible"],"hours":{"type":"unknown"}},{"id":"gplace_ChIJgeF0MZGXc0cRAqo9Y5qN5Dc","lat":48.295231699999995,"lon":14.293108000000002,"name":"tiktak café","city":"Linz","category":"gastro","tags":["barrierefrei","google_wc_accessible"],"hours":{"type":"unknown"}},{"id":"gplace_ChIJLzwiQIWXc0cRn9ekU9qwy0c","lat":48.3014156,"lon":14.2896076,"name":"Café Central","city":"Linz","category":"gastro","tags":["barrierefrei","google_wc_accessible"],"hours":{"type":"unknown"}},{"id":"gplace_ChIJ_fshKZuXc0cRY-O-6j-7rL0","lat":48.300272199999995,"lon":14.2872255,"name":"PAULS steak & veggi Linz","city":"Linz","category":"gastro","tags":["barrierefrei","google_wc_accessible"],"hours":{"type":"unknown"}},{"id":"gplace_ChIJj67qa22Xc0cRhXX7a6bkkqA","lat":48.299135,"lon":14.290462199999999,"name":"La Madrina","city":"Linz","category":"gastro","tags":["barrierefrei","google_entrance_accessible"],"hours":{"type":"unknown"}},{"id":"gplace_ChIJk0vHbMCXc0cRwMlQO84gras","lat":48.287517199999996,"lon":14.299810599999999,"name":"Die Bohne- Unser Cafe","city":"Linz","category":"gastro","tags":["google_has_restroom"],"hours":{"type":"unknown"}},{"id":"gplace_ChIJZXmiJQCXc0cRMTu3U_zDrPY","lat":48.298614699999995,"lon":14.2908405,"name":"Berlinzer Döner","city":"Linz","category":"gastro","tags":["barrierefrei","google_entrance_accessible"],"hours":{"type":"unknown"}},{"id":"gplace_ChIJiyhFKneXc0cR_uDg8Xb_qcQ","lat":48.288730199999996,"lon":14.298689099999999,"name":"Sultan Grill Restaurant","city":"Linz","category":"gastro","tags":["barrierefrei","google_entrance_accessible"],"hours":{"type":"unknown"}},{"id":"gplace_ChIJ1dBz20GXc0cRmI0-0zM7fj8","lat":48.3007834,"lon":14.2888887,"name":"Station183","city":"Linz","category":"gastro","tags":["google_has_restroom"],"hours":{"type":"unknown"}},{"id":"gplace_ChIJ1c_HqIWXc0cRk2EM3-JEi9I","lat":48.3032824,"lon":14.289876699999999,"name":"Passage Linz","city":"Linz","category":"other","tags":["barrierefrei","google_wc_accessible"],"hours":{"type":"unknown"}},{"id":"gplace_ChIJNx_c-G2Zc0cR6WDxVTfWqpo","lat":48.3162787,"lon":14.2981492,"name":"Tante Kaethe","city":"Linz","category":"gastro","tags":["barrierefrei","google_entrance_accessible"],"hours":{"type":"unknown"}},{"id":"gplace_ChIJb-cJ1ymYc0cR1ydGPsATqlc","lat":48.3102349,"lon":14.2919623,"name":"SANDBURG","city":"Linz","category":"gastro","tags":["barrierefrei","google_wc_accessible"],"hours":{"type":"unknown"}},{"id":"gplace_ChIJ1TQ3WSqYc0cRPeLEGGJmwQU","lat":48.3124524,"lon":14.2871604,"name":"Ristorante La Ruffa - Donaulände (ehemals Amici)","city":"Linz","category":"gastro","tags":["barrierefrei","google_wc_accessible"],"hours":{"type":"unknown"}},{"id":"gplace_ChIJdx7wEiqYc0cRAK0G0kAluWc","lat":48.311422699999994,"lon":14.288256200000001,"name":"Salonschiff Fräulein Florentine","city":"Linz","category":"gastro","tags":["barrierefrei","google_entrance_accessible"],"hours":{"type":"unknown"}},{"id":"gplace_ChIJF_R_CyaYc0cRfUl9uabos-Q","lat":48.3140616,"lon":14.2995617,"name":"John Harris Fitness Donaupark Linz","city":"Linz","category":"other","tags":["barrierefrei","google_wc_accessible"],"hours":{"type":"unknown"}},{"id":"gplace_ChIJCVrEYy2Yc0cReCMoOP7jegI","lat":48.32076,"lon":14.28939,"name":"HOFER","city":"Linz","category":"other","tags":["barrierefrei","google_wc_accessible"],"hours":{"type":"unknown"}},{"id":"gplace_ChIJK3f_LICXc0cRflIr3odrAt8","lat":48.3090433,"lon":14.2822652,"name":"Fischerhäusl Linz","city":"Linz","category":"gastro","tags":["barrierefrei","google_wc_accessible"],"hours":{"type":"unknown"}},{"id":"gplace_ChIJcwF4SSiYc0cROTqlyK7wQ1w","lat":48.3115283,"lon":14.293779299999999,"name":"uferei","city":"Linz","category":"gastro","tags":["barrierefrei","google_wc_accessible"],"hours":{"type":"unknown"}},{"id":"gplace_ChIJL3SX2WWZc0cR4oHvU9HG-vI","lat":48.3335443,"lon":14.300719899999999,"name":"Ristorante La Ruffa - St. Magdalena","city":"Linz","category":"gastro","tags":["barrierefrei","google_wc_accessible","google_entrance_accessible"],"hours":{"type":"unknown"}},{"id":"gplace_ChIJr5G69K2Zc0cRiCZbpRle6aU","lat":48.340866,"lon":14.292698999999999,"name":"Restaurant Athéne","city":"Linz","category":"gastro","tags":["barrierefrei","google_wc_accessible"],"hours":{"type":"unknown"}},{"id":"gplace_ChIJ0T2uCc-Zc0cRGeMR90Ce4N0","lat":48.3247649,"lon":14.278079499999999,"name":"Seidlgart'l","city":"Linz","category":"gastro","tags":["barrierefrei","google_wc_accessible"],"hours":{"type":"unknown"}},{"id":"gplace_ChIJBweHKuKZc0cRn32CV7r19n4","lat":48.332775999999996,"lon":14.292175799999999,"name":"Pizzeria Di Napoli","city":"Linz","category":"gastro","tags":["google_has_restroom"],"hours":{"type":"unknown"}},{"id":"gplace_ChIJ79EZc7OZc0cRCir4_-86M2c","lat":48.3366404,"lon":14.293024599999999,"name":"Bakery Karl Eichler","city":"Linz","category":"gastro","tags":["barrierefrei","google_entrance_accessible"],"hours":{"type":"unknown"}},{"id":"gplace_ChIJnRXDUsqZc0cRWE_SjYr5kcQ","lat":48.3278849,"lon":14.286325399999999,"name":"Residenz-Cafe","city":"Linz","category":"gastro","tags":["barrierefrei","google_entrance_accessible"],"hours":{"type":"unknown"}},{"id":"gplace_ChIJ_TaekUuYc0cRRl1A5O6JtbI","lat":48.3339126,"lon":14.299068199999999,"name":"Mühlviertler Landbäckerei","city":"Linz","category":"gastro","tags":["barrierefrei","google_entrance_accessible"],"hours":{"type":"unknown"}},{"id":"gplace_ChIJ71VHd8qZc0cRY62l2yFikdc","lat":48.3306677,"lon":14.2880875,"name":"Carpe Diem Auer","city":"Linz","category":"gastro","tags":["barrierefrei","google_wc_accessible"],"hours":{"type":"unknown"}},{"id":"gplace_ChIJt3htizCXc0cRYeJaWyj8ThQ","lat":48.2922337,"lon":14.3045545,"name":"JOHN REED Fitness Linz","city":"Linz","category":"other","tags":["barrierefrei","google_wc_accessible"],"hours":{"type":"unknown"}},{"id":"gplace_ChIJT7p2DY6Xc0cRttqeid5YFC8","lat":48.300432099999995,"lon":14.2974289,"name":"Turmöl","city":"Linz","category":"gastro","tags":["barrierefrei","google_wc_accessible"],"hours":{"type":"unknown"}},{"id":"gplace_ChIJGf5oaJCXc0cRqtdgKRvPdI0","lat":48.2982835,"lon":14.2916683,"name":"McDonald's","city":"Linz","category":"gastro","tags":["barrierefrei","google_wc_accessible"],"hours":{"type":"unknown"}},{"id":"gplace_ChIJM6VavYCXc0cRhpfcBlNYahc","lat":48.2937557,"lon":14.290400400000001,"name":"Fika Linz","city":"Linz","category":"gastro","tags":["barrierefrei","google_wc_accessible"],"hours":{"type":"unknown"}},{"id":"gplace_ChIJXYS_IpaXc0cRxvVonxE9HFo","lat":48.291010899999996,"lon":14.291530199999999,"name":"McDonald's Linz","city":"Linz","category":"gastro","tags":["barrierefrei","google_wc_accessible"],"hours":{"type":"unknown"}},{"id":"gplace_ChIJv-10mYWXc0cRpod6T3TDtxs","lat":48.3029371,"lon":14.290822400000001,"name":"Gelbes Krokodil","city":"Linz","category":"gastro","tags":["barrierefrei","google_wc_accessible"],"hours":{"type":"unknown"}},{"id":"gplace_ChIJufw_tiWYc0cROcOgr7owNHo","lat":48.315311699999995,"lon":14.3014669,"name":"OMV","city":"Linz","category":"gastro","tags":["barrierefrei","google_wc_accessible"],"hours":{"type":"unknown"}},{"id":"gplace_ChIJidVHJkSZc0cRVHiS2hQNWPQ","lat":48.3119042,"lon":14.2985638,"name":"Zur Liesl","city":"Linz","category":"gastro","tags":["barrierefrei","google_wc_accessible"],"hours":{"type":"unknown"}},{"id":"gplace_ChIJyUEzQyGYc0cRWk4mfyURa3U","lat":48.311244599999995,"lon":14.3041766,"name":"HOFER Linz","city":"Linz","category":"other","tags":["barrierefrei","google_wc_accessible"],"hours":{"type":"unknown"}},{"id":"gplace_ChIJgbhmxiWYc0cRgqrYpEdMl5I","lat":48.314873999999996,"lon":14.301700499999999,"name":"Gościnna Chata","city":"Linz","category":"gastro","tags":["barrierefrei","google_wc_accessible"],"hours":{"type":"unknown"}},{"id":"gplace_ChIJrc_yfTiYc0cRBnN7vGtb8YU","lat":48.327639999999995,"lon":14.308449999999999,"name":"HOFER","city":"Linz","category":"other","tags":["barrierefrei","google_wc_accessible"],"hours":{"type":"unknown"}},{"id":"gplace_ChIJ-V7XVyaYc0cRvWHfZO7pBSk","lat":48.312141999999994,"lon":14.3006111,"name":"Hofkneipe","city":"Linz","category":"gastro","tags":["barrierefrei","google_wc_accessible"],"hours":{"type":"unknown"}},{"id":"gplace_ChIJN2ZE_36Zc0cRxMcvapFSBXA","lat":48.310346599999995,"lon":14.299069699999999,"name":"Mr.Ji Sushi-Wok-Mongole BBQ","city":"Linz","category":"gastro","tags":["barrierefrei","google_wc_accessible"],"hours":{"type":"unknown"}},{"id":"gplace_ChIJQ2_xdvqXc0cRZqrFJZKnRAE","lat":48.300304399999995,"lon":14.319074599999999,"name":"INTERSPAR","city":"Linz","category":"other","tags":["barrierefrei","google_wc_accessible"],"hours":{"type":"unknown"}},{"id":"gplace_ChIJr3Dsa-uXc0cRB-xZxOjSuZw","lat":48.292683499999995,"lon":14.303404899999999,"name":"HOFER","city":"Linz","category":"other","tags":["barrierefrei","google_wc_accessible"],"hours":{"type":"unknown"}},{"id":"gplace_ChIJ2UZtxPOXc0cRJg-yDVftkM8","lat":48.3016667,"lon":14.310833299999999,"name":"HAUBIS bakery & cafe Linz - Garnisonstraße","city":"Linz","category":"gastro","tags":["barrierefrei","google_wc_accessible"],"hours":{"type":"unknown"}},{"id":"gplace_ChIJqUHFoMGXc0cRB9ROQkyQ1wo","lat":48.2859268,"lon":14.302476899999998,"name":"OMV","city":"Linz","category":"gastro","tags":["barrierefrei","google_wc_accessible"],"hours":{"type":"unknown"}},{"id":"gplace_ChIJYfXlqJSXc0cRPlmZZIDVpTk","lat":48.293712299999996,"lon":14.301087299999999,"name":"JET Tankstelle","city":"Linz","category":"tankstelle","tags":["barrierefrei","google_wc_accessible"],"hours":{"type":"unknown"}},{"id":"gplace_ChIJzZOzrOiXc0cRth0C14BDAFs","lat":48.292114,"lon":14.3142084,"name":"Pizza Solo Linz Halal","city":"Linz","category":"gastro","tags":["google_has_restroom"],"hours":{"type":"unknown"}},{"id":"gplace_ChIJUb_OO-KXc0cR7wMhPTXGInY","lat":48.293694099999996,"lon":14.3128332,"name":"Rizzma Linz","city":"Linz","category":"gastro","tags":["google_has_restroom"],"hours":{"type":"unknown"}},{"id":"gplace_ChIJGwKo5RuXc0cRuP_L6WRig9Q","lat":48.291825499999995,"lon":14.302734899999999,"name":"Lenaupark City","city":"Linz","category":"other","tags":["barrierefrei","google_wc_accessible"],"hours":{"type":"unknown"}},{"id":"gplace_ChIJg6MjAPOXc0cRsv5id4ahSKw","lat":48.300559199999995,"lon":14.3083657,"name":"Turmöl","city":"Linz","category":"gastro","tags":["barrierefrei","google_wc_accessible"],"hours":{"type":"unknown"}},{"id":"gplace_ChIJZ9zYM8KXc0cRajPdMBy2lic","lat":48.2860273,"lon":14.305807699999999,"name":"Restaurant \"B\" Kod Himze","city":"Linz","category":"gastro","tags":["barrierefrei","google_entrance_accessible"],"hours":{"type":"unknown"}},{"id":"gplace_ChIJGzJjDB6Yc0cRv23m8Yvd7KU","lat":48.308375,"lon":14.3156497,"name":"Burger King.","city":"Linz","category":"gastro","tags":["barrierefrei","google_wc_accessible"],"hours":{"type":"unknown"}},{"id":"gplace_ChIJgzchoI6Xc0cRTiu46C6yUAw","lat":48.3028778,"lon":14.2992593,"name":"Gasthaus \"Zur Eisernen Hand\"","city":"Linz","category":"gastro","tags":["google_has_restroom"],"hours":{"type":"unknown"}},{"id":"gplace_ChIJyR1h8g-Xc0cRhcmYnQZfQ4k","lat":48.3031812,"lon":14.298152,"name":"Cooking Li","city":"Linz","category":"gastro","tags":["barrierefrei","google_wc_accessible"],"hours":{"type":"unknown"}},{"id":"gplace_ChIJU42i-h-Yc0cRjpeqgfAiDvU","lat":48.30847000000001,"lon":14.310049999999999,"name":"Hofer","city":"Linz","category":"other","tags":["barrierefrei","google_wc_accessible"],"hours":{"type":"unknown"}},{"id":"gplace_ChIJBzG0BvaXc0cReuCDu5QuBhE","lat":48.306511699999994,"lon":14.3161429,"name":"Washplex Linz-Hafen 365 Tage 8h-19h","city":"Linz","category":"tankstelle","tags":["google_has_restroom"],"hours":{"type":"unknown"}},{"id":"gplace_ChIJHco3ufeXc0cR7zIRZYiS_6A","lat":48.3052767,"lon":14.319164599999999,"name":"Das Landhof","city":"Linz","category":"gastro","tags":["barrierefrei","google_wc_accessible"],"hours":{"type":"unknown"}},{"id":"gplace_ChIJdzHJx_OXc0cRDm58KVBb1EA","lat":48.300863,"lon":14.3107148,"name":"Stefan's Stubm","city":"Linz","category":"gastro","tags":["google_has_restroom"],"hours":{"type":"unknown"}},{"id":"gplace_ChIJY_0XAomXc0cRHBeWGLCg5Wo","lat":48.306525,"lon":14.2980965,"name":"Osteria Il Pescatore","city":"Linz","category":"gastro","tags":["google_has_restroom"],"hours":{"type":"unknown"}},{"id":"gplace_ChIJxbKggpKXc0cRGcdDgMpVBiw","lat":48.29963120000001,"lon":14.301105,"name":"Die Börserie","city":"Linz","category":"gastro","tags":["barrierefrei","google_wc_accessible"],"hours":{"type":"unknown"}},{"id":"gplace_ChIJge5QSUeYc0cRriF2uq7JmE8","lat":48.3290943,"lon":14.312344000000001,"name":"McDonald's","city":"Linz","category":"gastro","tags":["barrierefrei","google_wc_accessible"],"hours":{"type":"unknown"}},{"id":"gplace_ChIJbS7mlv0GbUcReJZAbdLeKLY","lat":48.32573310000001,"lon":14.322187099999999,"name":"F10 Sport factory - Badminton / Squash","city":"Linz","category":"gastro","tags":["barrierefrei","google_wc_accessible"],"hours":{"type":"unknown"}},{"id":"gplace_ChIJk6C7whSYc0cRcLPWB9fHw3A","lat":48.3290313,"lon":14.319134499999999,"name":"HappyFit Fitnessstudio Linz Dornach | Urfahr","city":"Linz","category":"other","tags":["barrierefrei","google_wc_accessible"],"hours":{"type":"unknown"}},{"id":"gplace_ChIJPY5g7GqYc0cR8pJjTD4LbFU","lat":48.32848500000001,"lon":14.3214279,"name":"JET Tankstelle","city":"Linz","category":"tankstelle","tags":["barrierefrei","google_wc_accessible"],"hours":{"type":"unknown"}},{"id":"gplace_ChIJm7jImjeYc0cRLkrspVXAzKQ","lat":48.3292362,"lon":14.3131724,"name":"Shell","city":"Linz","category":"gastro","tags":["barrierefrei","google_wc_accessible"],"hours":{"type":"unknown"}},{"id":"gplace_ChIJ7UbD5yaYc0cRhMpT8tkMo-Y","lat":48.3120596,"lon":14.3020754,"name":"Restaurant Rauchkuchl","city":"Linz","category":"gastro","tags":["barrierefrei","google_entrance_accessible"],"hours":{"type":"unknown"}},{"id":"gplace_ChIJoQlf9DeYc0cRY4Jh3gl0v9E","lat":48.327709899999995,"lon":14.304607599999999,"name":"Washplex Linz-Urfahr 365 Tage 8h-19h","city":"Linz","category":"tankstelle","tags":["google_has_restroom"],"hours":{"type":"unknown"}},{"id":"gplace_ChIJVxxGXB-Yc0cRqOig3_0Fgt8","lat":48.311872,"lon":14.311531400000002,"name":"Posthofbeisl","city":"Linz","category":"gastro","tags":["barrierefrei","google_entrance_accessible"],"hours":{"type":"unknown"}},{"id":"gplace_ChIJuTNQUQCZc0cRvjjcOspWdzU","lat":48.315534400000004,"lon":14.2999928,"name":"XXXLutz Restaurant Linz","city":"Linz","category":"gastro","tags":["barrierefrei","google_wc_accessible"],"hours":{"type":"unknown"}},{"id":"gplace_ChIJ0y9-jDeYc0cRVlyRJGDLo2E","lat":48.3272828,"lon":14.303850899999999,"name":"Nah&Frisch punkt Tankstelle Hans Hoffelner","city":"Linz","category":"gastro","tags":["barrierefrei","google_wc_accessible"],"hours":{"type":"unknown"}},{"id":"gplace_ChIJz8o0pDyYc0cRth5m5CpuHjk","lat":48.3186708,"lon":14.307476099999999,"name":"Luncherie","city":"Linz","category":"gastro","tags":["barrierefrei","google_wc_accessible"],"hours":{"type":"unknown"}},{"id":"gplace_ChIJB4BZofzzc0cRMhmIO8_hBgQ","lat":48.1551324,"lon":14.0219691,"name":"Restaurant Wasabi","city":"Wels","category":"gastro","tags":["barrierefrei","google_wc_accessible"],"hours":{"type":"unknown"}},{"id":"gplace_ChIJx353RIXyc0cR8hPN2Kw8B_A","lat":48.1503965,"lon":14.0220613,"name":"Gasthaus zur Kohlstatt","city":"Wels","category":"gastro","tags":["barrierefrei","google_wc_accessible"],"hours":{"type":"unknown"}},{"id":"gplace_ChIJz9e6WlPzc0cRO5XO7qLeXsg","lat":48.1533221,"lon":14.0102096,"name":"La Piazza Da Charly","city":"Wels","category":"gastro","tags":["barrierefrei","google_wc_accessible"],"hours":{"type":"unknown"}},{"id":"gplace_ChIJ04aLAmvzc0cRbRQQ7bs_yl4","lat":48.1539441,"lon":14.0223607,"name":"dean&david | Bowls, Salate, Curries & Snacks im Welios Science Center Wels","city":"Wels","category":"gastro","tags":["barrierefrei","google_wc_accessible"],"hours":{"type":"unknown"}},{"id":"gplace_ChIJr6O7v2byc0cRM641SN9XjbA","lat":48.136846,"lon":14.0058419,"name":"Gasthof Schauersberg - Familie Eugen Hubauer","city":"Wels","category":"gastro","tags":["barrierefrei","google_wc_accessible"],"hours":{"type":"unknown"}},{"id":"gplace_ChIJqZ4AfsT2c0cRNaNuAfHruQA","lat":48.155479899999996,"lon":14.020593199999999,"name":"La Stella del sud Ristorazione E Trattoria Napoletana/Siciliana","city":"Wels","category":"gastro","tags":["barrierefrei","google_entrance_accessible"],"hours":{"type":"unknown"}},{"id":"gplace_ChIJVxySz2Tzc0cRxwMnmmgJI9c","lat":48.1553725,"lon":14.0170751,"name":"Dok Khun","city":"Wels","category":"gastro","tags":["google_has_restroom"],"hours":{"type":"unknown"}},{"id":"gplace_ChIJ_yySLULzc0cROPIqaQJSybY","lat":48.1457991,"lon":14.0049362,"name":"Luke‘s Gym","city":"Wels","category":"other","tags":["barrierefrei","google_entrance_accessible"],"hours":{"type":"unknown"}},{"id":"gplace_ChIJdRWyXbXzc0cReesbD2t8gMc","lat":48.1473892,"lon":14.0135274,"name":"Traunstüberl Wels","city":"Wels","category":"gastro","tags":["google_has_restroom"],"hours":{"type":"unknown"}},{"id":"gplace_ChIJ6Yg6svnzc0cRs1zl_gp_rkU","lat":48.1519334,"lon":14.018814599999999,"name":"Restaurant „im turm“","city":"Wels","category":"gastro","tags":["barrierefrei","google_wc_accessible"],"hours":{"type":"unknown"}},{"id":"gplace_ChIJgdyyTgvzc0cR90cz5bBglHc","lat":48.1463411,"lon":14.0072484,"name":"Pizzeria Casa Ivo","city":"Wels","category":"gastro","tags":["barrierefrei","google_wc_accessible"],"hours":{"type":"unknown"}},{"id":"gplace_ChIJd6LGZJryc0cRN0MeWbdx4S8","lat":48.1538219,"lon":14.0245056,"name":"Kampfkunst Akademie Wels - Martial Arts Systematics - Selbstverteidigung","city":"Wels","category":"other","tags":["google_has_restroom"],"hours":{"type":"unknown"}},{"id":"gplace_ChIJ88_D6A3zc0cRTcpLZyU7vuI","lat":48.1467307,"lon":14.0094791,"name":"TKD Expert | Taekwondo und Kickboxing Wels","city":"Wels","category":"other","tags":["barrierefrei","google_wc_accessible"],"hours":{"type":"unknown"}},{"id":"gplace_ChIJ9WXRQdXzc0cRVbTwIjYhBU4","lat":48.1518691,"lon":14.005697999999999,"name":"UP Yoga","city":"Wels","category":"other","tags":["google_has_restroom"],"hours":{"type":"unknown"}},{"id":"gplace_ChIJsXc_-Zbyc0cREbaKsgJ_LHc","lat":48.158623399999996,"lon":14.021159299999999,"name":"Hotel Gösserbräu","city":"Wels","category":"gastro","tags":["barrierefrei","google_wc_accessible"],"hours":{"type":"unknown"}},{"id":"gplace_ChIJodsJCxbzc0cRSmuqhiLJzEg","lat":48.1577257,"lon":14.0163888,"name":"Hayashi Restaurant","city":"Wels","category":"gastro","tags":["barrierefrei","google_wc_accessible"],"hours":{"type":"unknown"}},{"id":"gplace_ChIJ3ZcJJyjzc0cRbD_z5-KAVV8","lat":48.1559143,"lon":14.023589999999999,"name":"WAKUWAKU Wels","city":"Wels","category":"gastro","tags":["barrierefrei","google_wc_accessible"],"hours":{"type":"unknown"}},{"id":"gplace_ChIJNyNDYpfyc0cRXemoTpg3vqs","lat":48.157716699999995,"lon":14.024754999999999,"name":"Rustica Wels Trattoria - Pizzeria","city":"Wels","category":"gastro","tags":["google_has_restroom"],"hours":{"type":"unknown"}},{"id":"gplace_ChIJoTxqNFzzc0cRKL2riNQi5hY","lat":48.156930499999994,"lon":14.024794199999999,"name":"Miyako Ramen Wels","city":"Wels","category":"gastro","tags":["barrierefrei","google_wc_accessible"],"hours":{"type":"unknown"}},{"id":"gplace_ChIJYSh6x5nyc0cRGW70fFtVvQQ","lat":48.157866899999995,"lon":14.025916299999999,"name":"In's Haas","city":"Wels","category":"gastro","tags":["barrierefrei","google_wc_accessible"],"hours":{"type":"unknown"}},{"id":"gplace_ChIJ-xIKsUHzc0cRZEXJPNuXQ00","lat":48.1598726,"lon":14.019120599999999,"name":"Moon Wels","city":"Wels","category":"gastro","tags":["barrierefrei","google_entrance_accessible"],"hours":{"type":"unknown"}},{"id":"gplace_ChIJzzsOTgDzc0cRaFeOvu9P2Cw","lat":48.157073999999994,"lon":14.025877699999999,"name":"Sorry Mama Kitchen & Bar","city":"Wels","category":"gastro","tags":["barrierefrei","google_wc_accessible"],"hours":{"type":"unknown"}},{"id":"gplace_ChIJZW9puJnyc0cR8AKnuUPc8Ms","lat":48.157531000000006,"lon":14.026458199999999,"name":"Indiya","city":"Wels","category":"gastro","tags":["barrierefrei","google_entrance_accessible"],"hours":{"type":"unknown"}},{"id":"gplace_ChIJ0WuR8u7yc0cR5v9BTaoOymA","lat":48.156620000000004,"lon":14.00251,"name":"HOFER","city":"Wels","category":"other","tags":["barrierefrei","google_wc_accessible"],"hours":{"type":"unknown"}},{"id":"gplace_ChIJNWA2j43zc0cRwVUHRSJubAM","lat":48.1539249,"lon":14.003708099999999,"name":"Bäckerei & Konditorei \"NORA\"","city":"Wels","category":"gastro","tags":["barrierefrei","google_wc_accessible"],"hours":{"type":"unknown"}},{"id":"gplace_ChIJiTtgD1Pzc0cRPI9tg0prBSs","lat":48.1596578,"lon":14.0245001,"name":"TB Sushi","city":"Wels","category":"gastro","tags":["barrierefrei","google_entrance_accessible"],"hours":{"type":"unknown"}},{"id":"gplace_ChIJAQfty8zyc0cRIFVmiBy4z7E","lat":48.182309499999995,"lon":14.0134728,"name":"INTERSPAR","city":"Wels","category":"other","tags":["barrierefrei","google_wc_accessible"],"hours":{"type":"unknown"}},{"id":"gplace_ChIJIWdAUzONc0cRcoM5rDDYRpI","lat":48.182476199999996,"lon":14.015839099999999,"name":"ECODROM Wels Nord - 24h Tanken & Car Wash","city":"Wels","category":"tankstelle","tags":["barrierefrei","google_wc_accessible"],"hours":{"type":"unknown"}},{"id":"gplace_ChIJhTTICdDyc0cRJxUkUqhGRaA","lat":48.1738092,"lon":14.004101499999999,"name":"Laahener Wirt","city":"Wels","category":"gastro","tags":["barrierefrei","google_wc_accessible"],"hours":{"type":"unknown"}},{"id":"gplace_ChIJU8gZnsPyc0cRP-54TnAMPqc","lat":48.16757,"lon":14.005230000000001,"name":"HOFER","city":"Wels","category":"other","tags":["barrierefrei","google_wc_accessible"],"hours":{"type":"unknown"}},{"id":"gplace_ChIJTfpRl7vyc0cRjsuy7fey10M","lat":48.1670239,"lon":14.0247684,"name":"Gasthaus Irger Knödelwirt","city":"Wels","category":"gastro","tags":["barrierefrei","google_wc_accessible"],"hours":{"type":"unknown"}},{"id":"gplace_ChIJPe8UqzSNc0cR0b7AIKGkoog","lat":48.182391599999995,"lon":14.0167126,"name":"Welser Schnitzelland","city":"Wels","category":"gastro","tags":["barrierefrei","google_wc_accessible"],"hours":{"type":"unknown"}},{"id":"gplace_ChIJB5UstL3yc0cRfNFnJHnvZKc","lat":48.163503999999996,"lon":14.0227024,"name":"Santorini Restaurant","city":"Wels","category":"gastro","tags":["barrierefrei","google_wc_accessible"],"hours":{"type":"unknown"}},{"id":"gplace_ChIJnXwAp7zyc0cRfVB55W74OEs","lat":48.1655206,"lon":14.027486399999999,"name":"Adria Fischrestaurant","city":"Wels","category":"gastro","tags":["barrierefrei","google_wc_accessible"],"hours":{"type":"unknown"}},{"id":"gplace_ChIJGc317Lvyc0cRU45xK2DKXUw","lat":48.1668786,"lon":14.0241013,"name":"Stöbich Bäckerei GesmbH & Co KG","city":"Wels","category":"gastro","tags":["google_has_restroom"],"hours":{"type":"unknown"}},{"id":"gplace_ChIJgZS2WLfyc0cR0aWnBDi77TQ","lat":48.1716038,"lon":14.0234759,"name":"Eni","city":"Wels","category":"tankstelle","tags":["barrierefrei","google_wc_accessible"],"hours":{"type":"unknown"}},{"id":"gplace_ChIJxSt6dLvyc0cRk4tRD1oqrR4","lat":48.166896799999996,"lon":14.026425199999998,"name":"Restaurant Akropolis","city":"Wels","category":"gastro","tags":["google_has_restroom"],"hours":{"type":"unknown"}},{"id":"gplace_ChIJjT4oEWXzc0cRbZe0y9km-Kg","lat":48.1665055,"lon":14.019353800000001,"name":"Hrvatski kulturni dom / Kroatischer Kultur Verein","city":"Wels","category":"gastro","tags":["google_has_restroom"],"hours":{"type":"unknown"}},{"id":"gplace_ChIJvzY5Lorzc0cROtnALLlKNP4","lat":48.180589999999995,"lon":14.01048,"name":"HOFER","city":"Wels","category":"other","tags":["barrierefrei","google_wc_accessible"],"hours":{"type":"unknown"}},{"id":"gplace_ChIJCQKmv7vyc0cRtKi1xykZfuw","lat":48.1674886,"lon":14.0245336,"name":"Bar Dolce Vita","city":"Wels","category":"gastro","tags":["google_has_restroom"],"hours":{"type":"unknown"}},{"id":"gplace_ChIJvaJaH8vyc0cRs8JhK09LDaI","lat":48.1807686,"lon":14.018769599999999,"name":"Turmöl","city":"Wels","category":"tankstelle","tags":["google_has_restroom"],"hours":{"type":"unknown"}},{"id":"gplace_ChIJm40K1Xrtc0cRIIT8hMerXuQ","lat":48.1483333,"lon":14.0444444,"name":"Delphi Restaurant","city":"Wels","category":"gastro","tags":["barrierefrei","google_wc_accessible"],"hours":{"type":"unknown"}},{"id":"gplace_ChIJz-aAtp3yc0cRxVjJRFwhiyc","lat":48.152996699999996,"lon":14.0330367,"name":"EUROSPAR","city":"Wels","category":"gastro","tags":["barrierefrei","google_wc_accessible","google_has_restroom"],"hours":{"type":"unknown"}},{"id":"gplace_ChIJ4ePv5J3yc0cRcUuxpJLreiU","lat":48.15395350000001,"lon":14.0354859,"name":"Resch&Frisch Liebesbrot Café Thalheim","city":"Wels","category":"gastro","tags":["barrierefrei","google_entrance_accessible"],"hours":{"type":"unknown"}},{"id":"gplace_ChIJ__8viZnyc0cRJIjjgRnwxKI","lat":48.1560407,"lon":14.0262119,"name":"Davinci Wels","city":"Wels","category":"gastro","tags":["barrierefrei","google_entrance_accessible"],"hours":{"type":"unknown"}},{"id":"gplace_ChIJ1T93Gz-ib0cR9HpI8m9h95k","lat":48.153869,"lon":14.036619,"name":"SPAR express","city":"Wels","category":"other","tags":["barrierefrei","google_wc_accessible"],"hours":{"type":"unknown"}},{"id":"gplace_ChIJf17nYpzyc0cRvVIrQZ5GEgA","lat":48.1530207,"lon":14.0302429,"name":"Dorfcafe","city":"Wels","category":"gastro","tags":["google_has_restroom"],"hours":{"type":"unknown"}},{"id":"gplace_ChIJrfCfeZvyc0cR0BT7WhBbOL8","lat":48.152488,"lon":14.0283558,"name":"Cardoloni","city":"Wels","category":"gastro","tags":["barrierefrei","google_entrance_accessible"],"hours":{"type":"unknown"}},{"id":"gplace_ChIJB8Ij4abyc0cRMZVp4QQUYxA","lat":48.1660537,"lon":14.038590699999999,"name":"McDonald's Wels Eisenfeldstraße","city":"Wels","category":"gastro","tags":["barrierefrei","google_wc_accessible"],"hours":{"type":"unknown"}},{"id":"gplace_ChIJdTgaIKfyc0cR-G86RpdxF8U","lat":48.1657267,"lon":14.039105399999999,"name":"OMV","city":"Wels","category":"gastro","tags":["barrierefrei","google_wc_accessible"],"hours":{"type":"unknown"}},{"id":"gplace_ChIJL5_Bx7Tyc0cR3fxS90GFBCI","lat":48.1806378,"lon":14.027178099999999,"name":"Burger King","city":"Wels","category":"gastro","tags":["barrierefrei","google_wc_accessible"],"hours":{"type":"unknown"}},{"id":"gplace_ChIJQwnhOhLzc0cRIcqtAJ8P4t0","lat":48.1810352,"lon":14.026693799999999,"name":"Turmöl","city":"Wels","category":"tankstelle","tags":["barrierefrei","google_wc_accessible"],"hours":{"type":"unknown"}},{"id":"gplace_ChIJX2WQWqPyc0cRnbIU9KXoaiM","lat":48.1649983,"lon":14.029456199999998,"name":"Cevabdzinica Kod Dzeme","city":"Wels","category":"gastro","tags":["google_has_restroom"],"hours":{"type":"unknown"}},{"id":"gplace_ChIJgSBNaBaNc0cRT5OJbmoyq7Q","lat":48.1812022,"lon":14.027354299999999,"name":"SPAR express","city":"Wels","category":"other","tags":["barrierefrei","google_wc_accessible"],"hours":{"type":"unknown"}},{"id":"gplace_ChIJhxRzQYvtc0cR2DVvzjMX7SA","lat":48.1525369,"lon":14.0462673,"name":"Rustica Thalheim Trattoria - Pizzeria","city":"Wels","category":"gastro","tags":["barrierefrei","google_wc_accessible"],"hours":{"type":"unknown"}},{"id":"gplace_ChIJVVUhl5zyc0cRsmxmEfrebJo","lat":48.151789,"lon":14.0297156,"name":"Yi-Yoga","city":"Wels","category":"other","tags":["google_has_restroom"],"hours":{"type":"unknown"}},{"id":"gplace_ChIJYYUTcV7tc0cRIXLcQqVXJfk","lat":48.160422499999996,"lon":14.0466851,"name":"METRO Wels","city":"Wels","category":"other","tags":["barrierefrei","google_wc_accessible"],"hours":{"type":"unknown"}},{"id":"gplace_ChIJj8kzBdbzc0cRF9mTElmwBJ0","lat":48.1585697,"lon":14.026704599999999,"name":"Mare Fuori Pizzeria Napoletana","city":"Wels","category":"gastro","tags":["barrierefrei","google_entrance_accessible"],"hours":{"type":"unknown"}},{"id":"gplace_ChIJzbnO-Zjyc0cRuLHa5D_h4B4","lat":48.1588096,"lon":14.0285987,"name":"FITNESSHOUSE Wels","city":"Wels","category":"other","tags":["barrierefrei","google_wc_accessible"],"hours":{"type":"unknown"}},{"id":"gplace_ChIJ5THwP5jyc0cRvCnltdyrwiY","lat":48.1593914,"lon":14.027258499999999,"name":"Gasthaus zur Linde","city":"Wels","category":"gastro","tags":["barrierefrei","google_entrance_accessible","google_has_restroom"],"hours":{"type":"unknown"}},{"id":"gplace_ChIJ08-1EgDzc0cROxalt_SlmpE","lat":48.1580441,"lon":14.0268524,"name":"Uma","city":"Wels","category":"gastro","tags":["google_has_restroom"],"hours":{"type":"unknown"}},{"id":"gplace_ChIJh5ZROVTzc0cRrxfEwm-a53I","lat":48.1593278,"lon":14.0281848,"name":"GReat Imbiss Wels","city":"Wels","category":"gastro","tags":["google_has_restroom"],"hours":{"type":"unknown"}},{"id":"gplace_ChIJMYjkvsLtc0cRtM_1GdqlQQE","lat":48.1698496,"lon":14.0456556,"name":"KFC","city":"Wels","category":"gastro","tags":["barrierefrei","google_wc_accessible"],"hours":{"type":"unknown"}},{"id":"gplace_ChIJ9aqlDvLtc0cR5ltGlAZwfsM","lat":48.172264999999996,"lon":14.053003599999998,"name":"Restaurant Nana","city":"Wels","category":"gastro","tags":["google_has_restroom"],"hours":{"type":"unknown"}},{"id":"gplace_ChIJH-niXlftc0cRsKzwUxMWDs4","lat":48.16825190000001,"lon":14.049526799999999,"name":"Doy Pizza & Kebap wels","city":"Wels","category":"gastro","tags":["google_has_restroom"],"hours":{"type":"unknown"}},{"id":"gplace_ChIJTzkOpTLtc0cRTODkWzrXlh8","lat":48.1727687,"lon":14.0528254,"name":"SPAR express","city":"Wels","category":"other","tags":["barrierefrei","google_entrance_accessible"],"hours":{"type":"unknown"}},{"id":"gplace_ChIJ9fKH4vLtc0cRnl-c1WGwU1c","lat":48.165571299999996,"lon":14.0438028,"name":"Legato","city":"Wels","category":"gastro","tags":["barrierefrei","google_entrance_accessible"],"hours":{"type":"unknown"}},{"id":"gplace_ChIJKapACiHzc0cRO7w-Fm4PY84","lat":48.1664113,"lon":14.0378648,"name":"Bodyfitcenter GmbH","city":"Wels","category":"other","tags":["barrierefrei","google_entrance_accessible"],"hours":{"type":"unknown"}},{"id":"gplace_ChIJbf-vitLzc0cRwBxvmpENEtE","lat":48.169666899999996,"lon":14.033453,"name":"Baarìa Pizzeria Restaurant","city":"Wels","category":"gastro","tags":["google_has_restroom"],"hours":{"type":"unknown"}},{"id":"gplace_ChIJ05V8jmvzc0cR-KY-lnoQFOY","lat":48.1677073,"lon":14.0411206,"name":"Barcode Wels","city":"Wels","category":"gastro","tags":["google_has_restroom"],"hours":{"type":"unknown"}},{"id":"gplace_ChIJTbTNohzzc0cRz_vNYEST-Cg","lat":48.166385999999996,"lon":14.0416317,"name":"Cafe Pernau","city":"Wels","category":"gastro","tags":["barrierefrei","google_entrance_accessible"],"hours":{"type":"unknown"}},{"id":"gplace_ChIJ_dOVjvbFc0cRn08UjMY-KZ4","lat":48.0372743,"lon":14.414841999999998,"name":"City Point Steyr","city":"Steyr","category":"other","tags":["barrierefrei","google_wc_accessible"],"hours":{"type":"unknown"}},{"id":"gplace_ChIJ1YyynPnFc0cRzUhd1EYZ3nA","lat":48.0430922,"lon":14.416159100000002,"name":"Wirtshaus Knapp am Eck","city":"Steyr","category":"gastro","tags":["google_has_restroom"],"hours":{"type":"unknown"}},{"id":"gplace_ChIJbz7ExfnFc0cRzLlexI8POkw","lat":48.0415838,"lon":14.417238399999999,"name":"Orangerie im Schlosspark","city":"Steyr","category":"gastro","tags":["barrierefrei","google_wc_accessible"],"hours":{"type":"unknown"}},{"id":"gplace_ChIJvyCxDLPFc0cR8fmzFCVmH0c","lat":48.0397232,"lon":14.4223591,"name":"Das Ufer","city":"Steyr","category":"gastro","tags":["barrierefrei","google_wc_accessible"],"hours":{"type":"unknown"}},{"id":"gplace_ChIJPbDLOUXFc0cR0lsYQNFLlFI","lat":48.0393774,"lon":14.4199235,"name":"Cafe Frau Franzi","city":"Steyr","category":"gastro","tags":["barrierefrei","google_wc_accessible"],"hours":{"type":"unknown"}},{"id":"gplace_ChIJvahwE_bFc0cR5-91WaTfjd4","lat":48.0442806,"lon":14.4187389,"name":"The Irish","city":"Steyr","category":"gastro","tags":["google_has_restroom"],"hours":{"type":"unknown"}},{"id":"gplace_ChIJdbsMU_zFc0cR9wqCqzVH8dc","lat":48.048053499999995,"lon":14.415339699999999,"name":"Taborland","city":"Steyr","category":"other","tags":["barrierefrei","google_wc_accessible"],"hours":{"type":"unknown"}},{"id":"gplace_ChIJ61J5munFc0cRp55dAV-09Fc","lat":48.039240899999996,"lon":14.3953236,"name":"Café Drahtzug","city":"Steyr","category":"gastro","tags":["google_has_restroom"],"hours":{"type":"unknown"}},{"id":"gplace_ChIJLRZSMPbFc0cRJLZPlmWJ8Cg","lat":48.0375271,"lon":14.418432500000002,"name":"La Galeria","city":"Steyr","category":"gastro","tags":["barrierefrei","google_wc_accessible"],"hours":{"type":"unknown"}},{"id":"gplace_ChIJqQfhX-PFc0cRZySoEbTkL3o","lat":48.0481593,"lon":14.404773100000002,"name":"Restaurant Pizzeria Aldo","city":"Steyr","category":"gastro","tags":["barrierefrei","google_wc_accessible"],"hours":{"type":"unknown"}},{"id":"gplace_ChIJHXn1APvFc0cRKtEAO59geWs","lat":48.0376616,"lon":14.4160557,"name":"Schmankerl Steyr","city":"Steyr","category":"gastro","tags":["google_has_restroom"],"hours":{"type":"unknown"}},{"id":"gplace_ChIJe1vPt_fFc0cR9iSJiSOLWos","lat":48.0385481,"lon":14.418201600000002,"name":"Tex-Mex Restaurant","city":"Steyr","category":"gastro","tags":["barrierefrei","google_wc_accessible"],"hours":{"type":"unknown"}},{"id":"gplace_ChIJE-r9X1jPc0cRVAulKoUQ7yQ","lat":48.037378399999994,"lon":14.421150599999999,"name":"JET Tankstelle","city":"Steyr","category":"tankstelle","tags":["barrierefrei","google_wc_accessible"],"hours":{"type":"unknown"}},{"id":"gplace_ChIJp7_fuIbFc0cRuY304F4tDBs","lat":48.0482471,"lon":14.422170800000002,"name":"HEY! Steyr","city":"Steyr","category":"other","tags":["barrierefrei","google_wc_accessible"],"hours":{"type":"unknown"}},{"id":"gplace_ChIJ7SfLllHPc0cRVPxBNRJNwgk","lat":48.0427639,"lon":14.434436799999997,"name":"McDonald's Steyr","city":"Steyr","category":"gastro","tags":["barrierefrei","google_wc_accessible"],"hours":{"type":"unknown"}},{"id":"gplace_ChIJ7eWjsMTFc0cRCqJJ-TlRuCU","lat":48.044071699999996,"lon":14.422784199999999,"name":"Taborturm","city":"Steyr","category":"gastro","tags":["barrierefrei","google_wc_accessible"],"hours":{"type":"unknown"}},{"id":"gplace_ChIJEayH0lbPc0cRpxUyM3MKbjg","lat":48.041669999999996,"lon":14.426679999999998,"name":"Hofer Steyr","city":"Steyr","category":"other","tags":["barrierefrei","google_wc_accessible"],"hours":{"type":"unknown"}},{"id":"gplace_ChIJW5nVw1fPc0cRyt2YMGEYznU","lat":48.0413828,"lon":14.422619399999997,"name":"Pizza & Imbiss Colosseo","city":"Steyr","category":"gastro","tags":["google_has_restroom"],"hours":{"type":"unknown"}},{"id":"gplace_ChIJSQmCNfbFc0cRpgPuyIO-aSk","lat":48.0341063,"lon":14.4318653,"name":"Restaurant Kapeller","city":"Steyr","category":"gastro","tags":["barrierefrei","google_wc_accessible"],"hours":{"type":"unknown"}},{"id":"gplace_ChIJuemIMVHPc0cRX6js-e-fQJc","lat":48.042210399999995,"lon":14.4294067,"name":"Big Bang Burger","city":"Steyr","category":"gastro","tags":["barrierefrei","google_wc_accessible"],"hours":{"type":"unknown"}},{"id":"gplace_ChIJbcyvt1DPc0cRYYE2aaTtFQk","lat":48.0404774,"lon":14.428504700000001,"name":"INJOY - Steyr","city":"Steyr","category":"other","tags":["barrierefrei","google_wc_accessible"],"hours":{"type":"unknown"}},{"id":"gplace_ChIJMdOC1FDPc0cRFXuXrVoMxrQ","lat":48.0414124,"lon":14.428618199999997,"name":"Turmöl","city":"Steyr","category":"gastro","tags":["barrierefrei","google_wc_accessible"],"hours":{"type":"unknown"}},{"id":"gplace_ChIJj8_8lVfPc0cRwAzid6BKQms","lat":48.041246799999996,"lon":14.4233698,"name":"Kebaplounge Istanbul","city":"Steyr","category":"gastro","tags":["google_has_restroom"],"hours":{"type":"unknown"}},{"id":"gplace_ChIJKUygQ0PPc0cRq3nVBoyCNxI","lat":48.032913699999995,"lon":14.432329000000001,"name":"Heuriger Sepplhub","city":"Steyr","category":"gastro","tags":["barrierefrei","google_wc_accessible"],"hours":{"type":"unknown"}},{"id":"gplace_ChIJCw-sQU3Pc0cRoABmpqYtRmI","lat":48.0468191,"lon":14.4396172,"name":"King Food Steyr - Pizza, Burger, Kebab","city":"Steyr","category":"gastro","tags":["barrierefrei","google_entrance_accessible"],"hours":{"type":"unknown"}},{"id":"gplace_ChIJBT9pEgiXc0cReYhqS7gnGTI","lat":48.2516776,"lon":14.2466025,"name":"BOOOSTERS Kartbahn Linz","city":"Leonding","category":"gastro","tags":["barrierefrei","google_wc_accessible"],"hours":{"type":"unknown"}},{"id":"gplace_ChIJbV_sZZ6Xc0cRb8w5HmKYuUQ","lat":48.252725999999996,"lon":14.246293,"name":"Burak Grillhaus / Saklıbahçe","city":"Leonding","category":"gastro","tags":["barrierefrei","google_wc_accessible"],"hours":{"type":"unknown"}},{"id":"gplace_ChIJZak7Z_WWc0cRg8InyWCeTzg","lat":48.2554477,"lon":14.2534321,"name":"Waschwelt","city":"Leonding","category":"tankstelle","tags":["google_has_restroom"],"hours":{"type":"unknown"}},{"id":"gplace_ChIJXyqcjvWWc0cR_alUcD_suHo","lat":48.2511568,"lon":14.2474522,"name":"HappyFit Fitnessstudio Leonding","city":"Leonding","category":"other","tags":["barrierefrei","google_wc_accessible"],"hours":{"type":"unknown"}},{"id":"gplace_ChIJAQBAkvWWc0cRZk2FRS3RM4s","lat":48.2579296,"lon":14.2546911,"name":"Ladies Best Fitness","city":"Leonding","category":"other","tags":["barrierefrei","google_wc_accessible"],"hours":{"type":"unknown"}},{"id":"gplace_ChIJNYlgEPWWc0cRmhp63HrLN_o","lat":48.2561051,"lon":14.251926,"name":"ADMIRAL Sportsbar","city":"Leonding","category":"gastro","tags":["barrierefrei","google_wc_accessible"],"hours":{"type":"unknown"}},{"id":"gplace_ChIJzQGxIliWc0cRZnO5l_-LL50","lat":48.262884299999996,"lon":14.2598656,"name":"Restaurant Taifun","city":"Leonding","category":"gastro","tags":["barrierefrei","google_wc_accessible"],"hours":{"type":"unknown"}},{"id":"gplace_ChIJad1o__eWc0cRClVD-5d5FXY","lat":48.2636313,"lon":14.2585464,"name":"Bäckerei-Café Resch&Frisch Liebesbrot Leonding","city":"Leonding","category":"gastro","tags":["barrierefrei","google_wc_accessible"],"hours":{"type":"unknown"}},{"id":"gplace_ChIJBwvRC1aWc0cRLnS_N0mmosk","lat":48.26817880000001,"lon":14.2620381,"name":"EUROSPAR","city":"Leonding","category":"other","tags":["barrierefrei","google_wc_accessible"],"hours":{"type":"unknown"}},{"id":"gplace_ChIJS-fz8PWWc0cRPQm2i3iqKcw","lat":48.25804000000001,"lon":14.255469999999999,"name":"HOFER","city":"Leonding","category":"other","tags":["barrierefrei","google_wc_accessible"],"hours":{"type":"unknown"}},{"id":"gplace_ChIJybB90mCWc0cRtWaXLr5XUV8","lat":48.2515663,"lon":14.259298399999999,"name":"Restaurant GENUSSPUNKT","city":"Leonding","category":"gastro","tags":["barrierefrei","google_wc_accessible"],"hours":{"type":"unknown"}},{"id":"gplace_ChIJQxzv0zKXc0cRKt0qqH1-PCg","lat":48.250190499999995,"lon":14.2467543,"name":"EISENSCHMIEDE GYM - Bodybuilding & Fitness","city":"Leonding","category":"other","tags":["google_has_restroom"],"hours":{"type":"unknown"}},{"id":"gplace_ChIJL88s8k2Xc0cRMt55e_qBdpA","lat":48.251700199999995,"lon":14.276090199999999,"name":"Aroma Indischmi Restaurant","city":"Leonding","category":"gastro","tags":["barrierefrei","google_entrance_accessible"],"hours":{"type":"unknown"}},{"id":"gplace_ChIJYaBpP0mXc0cRWvSVBV0ydxI","lat":48.2552138,"lon":14.277625599999999,"name":"X Restaurant","city":"Leonding","category":"gastro","tags":["barrierefrei","google_wc_accessible","google_has_restroom"],"hours":{"type":"unknown"}},{"id":"gplace_ChIJt9gi8kaXc0cR_Z975i7QkP0","lat":48.269694199999996,"lon":14.266814199999999,"name":"Pepe Nero","city":"Leonding","category":"gastro","tags":["barrierefrei","google_entrance_accessible"],"hours":{"type":"unknown"}}]