[{"id":"fuel_66793111","lat":52.5956306,"lon":12.8869601,"name":"Total","city":"","category":"other","tags":[],"opening_hours":"PH,Mo-Su 00:00-24:00","operator":"Total"},{"id":"fuel_81537419","lat":52.289084,"lon":12.4642914,"name":"Aral","city":"","category":"other","tags":[],"operator":"Aral"},{"id":"fuel_259842675","lat":52.1446031,"lon":12.6128247,"name":"Aral","city":"Bad Belzig","category":"other","tags":[],"operator":"Aral"},{"id":"fuel_265978684","lat":52.8058312,"lon":12.7857259,"name":"Agip","city":"Fehrbellin","category":"other","tags":[],"operator":"Agip"},{"id":"fuel_267034336","lat":52.0874506,"lon":12.8494727,"name":"Total","city":"Treuenbrietzen","category":"other","tags":[],"opening_hours":"Mo-Fr 05:00-22:00; Sa, SU 07:00-22:00","operator":"TotalEnergies"},{"id":"fuel_275053701","lat":52.1018819,"lon":12.6628482,"name":"Hoyer Tank-Treff","city":"Planetal","category":"other","tags":[]},{"id":"fuel_276553119","lat":52.0359247,"lon":12.1020957,"name":"Hoyer","city":"","category":"other","tags":[],"operator":"Anna Boos"},{"id":"fuel_277616873","lat":52.2687951,"lon":12.2846612,"name":"HEM","city":"","category":"other","tags":[],"operator":"Dingel"},{"id":"fuel_277961991","lat":52.1505331,"lon":12.6001924,"name":"Total","city":"Bad Belzig","category":"other","tags":[],"operator":"Total"},{"id":"fuel_279158830","lat":52.252399,"lon":12.985963,"name":"Total","city":"Beelitz","category":"other","tags":[],"opening_hours":"24/7","operator":"Total"},{"id":"fuel_279484109","lat":52.9895992,"lon":12.9732864,"name":"Heidegasthof","city":"","category":"other","tags":[]},{"id":"fuel_301727997","lat":52.3909366,"lon":12.8447168,"name":"Total","city":"Werder (Havel)","category":"other","tags":[],"operator":"Total"},{"id":"fuel_331323443","lat":52.9519861,"lon":12.6579536,"name":"Total","city":"","category":"other","tags":[],"opening_hours":"Mo-Su 00:00-18:00+","operator":"Total"},{"id":"fuel_335414191","lat":52.4301451,"lon":12.553138,"name":"Aral","city":"Brandenburg an der Havel","category":"other","tags":[],"opening_hours":"24/7","operator":"Aral"},{"id":"fuel_401547335","lat":52.2527897,"lon":12.3103103,"name":"Shell Buckautal Nord","city":"","category":"other","tags":[],"opening_hours":"24/7","operator":"Shell"},{"id":"fuel_423861888","lat":52.4167198,"lon":12.4865784,"name":"Total","city":"Brandenburg an der Havel","category":"other","tags":[],"opening_hours":"05:00-22:00","operator":"Total"},{"id":"fuel_423882750","lat":52.4053867,"lon":12.5771918,"name":"Shell","city":"Brandenburg an der Havel","category":"other","tags":[],"opening_hours":"24/7","operator":"Shell"},{"id":"fuel_423882924","lat":52.4015389,"lon":12.5900294,"name":"Esso","city":"","category":"other","tags":[],"opening_hours":"24/7","operator":"Esso"},{"id":"fuel_423888845","lat":52.4304696,"lon":12.5312476,"name":"LEO-Tankstelle","city":"Brandenburg an der Havel","category":"other","tags":[],"opening_hours":"24/7","operator":"Löwentank GmbH"},{"id":"fuel_423905142","lat":52.4286633,"lon":12.5151434,"name":"Hoth e.K. Brennstoffhandel","city":"","category":"other","tags":[],"operator":"Hoth e.K. Brennstoffhandel"},{"id":"fuel_440295255","lat":52.4060131,"lon":12.5754676,"name":"Aral","city":"Brandenburg an der Havel","category":"other","tags":[],"opening_hours":"24/7","operator":"Aral"},{"id":"fuel_444580499","lat":52.1592272,"lon":12.7813615,"name":"Esso","city":"Linthe","category":"other","tags":[]},{"id":"fuel_538878119","lat":52.1779056,"lon":12.7589678,"name":"Tankstelle","city":"","category":"other","tags":[],"opening_hours":"24/7"},{"id":"fuel_605049406","lat":52.5325893,"lon":12.3449088,"name":"Erdgas Tankstelle","city":"Premnitz","category":"other","tags":[],"operator":"Stadtwerke Premnitz GmbH"},{"id":"fuel_677316553","lat":52.1684566,"lon":12.7693072,"name":"tankpool24","city":"","category":"other","tags":[],"opening_hours":"24/7","operator":"Tankpool24"},{"id":"fuel_693924772","lat":52.9503968,"lon":12.6627866,"name":"Total","city":"","category":"other","tags":[],"operator":"Michael Fröhlich"},{"id":"fuel_705938453","lat":52.8526104,"lon":12.4494363,"name":"bft Tankstelle König & Platen","city":"Neustadt (Dosse)","category":"other","tags":[],"opening_hours":"Mo-Fr 06:00-20:00; Sa 07:00-20:00; Su 08:00-20:00"},{"id":"fuel_732712611","lat":52.2498046,"lon":12.269277,"name":"Scania Servicepartner","city":"","category":"other","tags":[]},{"id":"fuel_732712783","lat":52.8961328,"lon":12.4524967,"name":"ad Autodienst Gubalski L...","city":"","category":"other","tags":[],"opening_hours":"Mo-Fr 08:00-18:00; Sa 08:00-12:00"},{"id":"fuel_732712793","lat":52.3976316,"lon":12.8229651,"name":"Flüssiggas J. Ritter","city":"Werder (Havel)","category":"other","tags":[]},{"id":"fuel_732715181","lat":52.39522,"lon":12.540375,"name":"Total","city":"Brandenburg an der Havel","category":"other","tags":[],"opening_hours":"24/7","operator":"Total"},{"id":"fuel_732715601","lat":52.9130808,"lon":12.7718015,"name":"Autohaus Freyer","city":"","category":"other","tags":[],"opening_hours":"Mo-Fr 07:00-18:00; Sa 09:00-13:30"},{"id":"fuel_732715845","lat":52.9365353,"lon":12.4079308,"name":"Star","city":"Hansestadt Kyritz","category":"other","tags":[],"opening_hours":"Mo-Fr 06:00-22:00; Sa,Su 07:00-22:00"},{"id":"fuel_732715858","lat":52.9448057,"lon":12.847886,"name":"Autohaus Wernicke GmbH","city":"","category":"other","tags":[],"opening_hours":"Mo-Fr 06:30-19:00; Sa 08:00-13:00"},{"id":"fuel_732716084","lat":52.28377,"lon":12.603,"name":"Tankstelle","city":"Golzow","category":"other","tags":[],"opening_hours":"24/7","operator":"Agravis Ost GmbH & Co. KG"},{"id":"fuel_732716840","lat":52.0804809,"lon":12.7065061,"name":"Hoyer","city":"Niemegk","category":"other","tags":[],"opening_hours":"24/7","operator":"Hoyer"},{"id":"fuel_732716960","lat":52.1178385,"lon":12.4666152,"name":"bft","city":"Wiesenburg/Mark","category":"other","tags":[],"opening_hours":"Mo-Su 06:00-18:00; 24/7","operator":"Liero GmbH"},{"id":"fuel_732717808","lat":52.9059512,"lon":12.7322417,"name":"Abschlepp Service GmbH","city":"","category":"other","tags":[],"opening_hours":"24/7"},{"id":"fuel_806394571","lat":52.5596265,"lon":12.9710751,"name":"Automatic Diesel Station (LKW)","city":"","category":"other","tags":[],"opening_hours":"24/7","operator":"Aral"},{"id":"fuel_1389949669","lat":52.4833845,"lon":12.8462824,"name":"Tamoil","city":"","category":"other","tags":[],"opening_hours":"Mo-Fr 05:00-22:00; Sa-Su 06:00-22:00","operator":"Tamoil"},{"id":"fuel_1398178789","lat":52.004365,"lon":12.7824667,"name":"GO","city":"Treuenbrietzen","category":"other","tags":[],"opening_hours":"24/7","operator":"Siegfried Schmidt"},{"id":"fuel_1991932206","lat":52.439516,"lon":12.5274126,"name":"SB Tankstelle","city":"","category":"other","tags":[]},{"id":"fuel_2045314035","lat":52.413428,"lon":12.1573995,"name":"Tankstelle","city":"","category":"other","tags":[]},{"id":"fuel_2070484882","lat":52.2499665,"lon":12.3068978,"name":"Total","city":"","category":"other","tags":[],"opening_hours":"24/7","operator":"Total"},{"id":"fuel_2375928268","lat":52.4301331,"lon":12.5323798,"name":"HEM","city":"Brandenburg an der Havel","category":"other","tags":[],"opening_hours":"Mo-Su,PH 05:00-23:00","operator":"HEM"},{"id":"fuel_2399823807","lat":52.8055517,"lon":12.7877744,"name":"Gulf","city":"Fehrbellin","category":"other","tags":[],"operator":"Gulf"},{"id":"fuel_2407379583","lat":52.9119524,"lon":12.7655276,"name":"Tankstelle","city":"Neuruppin","category":"other","tags":[]},{"id":"fuel_3553441412","lat":52.3975,"lon":12.9157979,"name":"Sprint","city":"Werder (Havel)","category":"other","tags":[],"opening_hours":"Mo-Sa 06:00-22:00; Su 08:00-22:00","operator":"Sprint Tank GmbH"},{"id":"fuel_3863524455","lat":52.8014455,"lon":12.7930398,"name":"Hoyer","city":"Fehrbellin","category":"other","tags":[]},{"id":"fuel_4080032061","lat":52.3476946,"lon":12.901891,"name":"STAR-Tank","city":"Werder (Havel)","category":"other","tags":[],"opening_hours":"Mo-Su,PH 06:00-21:00","operator":"star"},{"id":"fuel_4284961779","lat":52.143881,"lon":12.6686709,"name":"Private","city":"","category":"other","tags":[],"operator":"Flugsportclub Charlottenburg (FCC) Berlin e.V."},{"id":"fuel_4360780362","lat":52.4249892,"lon":12.554399,"name":"Tankstelle","city":"","category":"other","tags":[],"opening_hours":"Oct, Apr: Mo-Fr 09:00-16:30; May-Sep: Mo-Su 09:00-17:00","operator":"Stadtmarina Brandenburg"},{"id":"fuel_4423642971","lat":52.7546323,"lon":12.8552241,"name":"Aral Linumner Bruch Nordseite","city":"Linum","category":"other","tags":[],"opening_hours":"24/7","operator":"Ingo Fischer"},{"id":"fuel_4593711349","lat":52.8465539,"lon":12.4496294,"name":"Raiffeisen","city":"","category":"other","tags":[]},{"id":"fuel_4788766549","lat":52.5643878,"lon":12.9729943,"name":"tankpool24","city":"Wustermark","category":"other","tags":[],"operator":"tankpool24 GmbH"},{"id":"fuel_5084501929","lat":52.3200378,"lon":12.7462368,"name":"City Tank","city":"Kloster Lehnin","category":"other","tags":[],"opening_hours":"Mo-Fr 06:00-22:00; Sa,Su,PH 07:00-22:00","operator":"Independent"},{"id":"fuel_5766524357","lat":52.8885875,"lon":12.8107561,"name":"Tankstelle","city":"","category":"other","tags":[],"opening_hours":"Mo-Fr 06:00-19:00; Sa 08:00-13:00","operator":"Allegro"},{"id":"fuel_7047576701","lat":52.9061976,"lon":12.7505211,"name":"Total Autohof Neuruppin","city":"","category":"other","tags":[],"opening_hours":"24/7","operator":"Total"},{"id":"fuel_7093517385","lat":52.796989,"lon":12.7909903,"name":"tankpool24","city":"Fehrbellin","category":"other","tags":[],"operator":"tankpool24"},{"id":"fuel_7136040279","lat":52.9182005,"lon":12.7834081,"name":"Shell","city":"","category":"other","tags":[],"operator":"Shell"},{"id":"fuel_9083952021","lat":52.3033712,"lon":12.9708372,"name":"Total Energies","city":"Ferch","category":"other","tags":[],"operator":"TotalEnergies"},{"id":"fuel_9530994307","lat":52.41346,"lon":12.5243214,"name":"Total","city":"Brandenburg an der Havel","category":"other","tags":[],"opening_hours":"Mo-Fr 05:00-23:00; Sa,Su,PH 07:00-23:00","operator":"Total"},{"id":"fuel_11247707410","lat":52.799039,"lon":12.7910875,"name":"Diesel- und Biodieseltankstelle","city":"Fehrbellin","category":"other","tags":[],"opening_hours":"24/7","operator":"Kitsch Brennstoffhandel GmbH"},{"id":"fuel_12570996299","lat":52.9394209,"lon":12.388289,"name":"star","city":"Hansestadt Kyritz","category":"other","tags":[],"operator":"Star"},{"id":"fuel_12760289332","lat":52.5657276,"lon":12.9755884,"name":"Shell","city":"","category":"other","tags":[],"opening_hours":"24/7","operator":"Shell"}]