[{"id":"station_node_60093107","lat":48.1965445,"lon":16.3362817,"name":"Wien Westbahnhof","city":"","category":"station","tags":["bahnhof","barrierefrei"],"operator":"ÖBB-Infrastruktur AG","hours":{"type":"unknown"}},{"id":"station_node_62687115","lat":48.1848943,"lon":16.4172645,"name":"Gasometer","city":"","category":"station","tags":["bahnhof","barrierefrei"],"operator":"Wiener Linien","hours":{"type":"unknown"}},{"id":"station_node_117527786","lat":48.1697771,"lon":16.4205339,"name":"Simmering","city":"","category":"station","tags":["bahnhof","barrierefrei"],"operator":"Wiener Linien","hours":{"type":"unknown"}},{"id":"station_node_1839787470","lat":48.1849883,"lon":16.3779391,"name":"Wien Hauptbahnhof","city":"","category":"station","tags":["bahnhof","barrierefrei"],"operator":"ÖBB-Infrastruktur AG","hours":{"type":"unknown"}},{"id":"station_node_3071028227","lat":48.173527,"lon":16.3314176,"name":"Bahnhof Meidling","city":"","category":"station","tags":["bahnhof","barrierefrei"],"operator":"Wiener Linien","hours":{"type":"unknown"}},{"id":"station_node_3124681423","lat":48.1859936,"lon":16.3751198,"name":"Wien Hauptbahnhof","city":"","category":"station","tags":["bahnhof","barrierefrei","haltepunkt"],"operator":"ÖBB-Infrastruktur AG","hours":{"type":"unknown"}},{"id":"station_node_3310997803","lat":48.2564008,"lon":16.4000183,"name":"Wien Floridsdorf","city":"","category":"station","tags":["bahnhof","barrierefrei"],"operator":"ÖBB-Infrastruktur AG","hours":{"type":"unknown"}},{"id":"station_node_3395076835","lat":48.3434717,"lon":16.3285428,"name":"Korneuburg","city":"","category":"station","tags":["bahnhof","barrierefrei"],"operator":"ÖBB-Infrastruktur AG","hours":{"type":"unknown"}},{"id":"station_node_3975440034","lat":48.1052344,"lon":16.2880915,"name":"Brunn-Maria Enzersdorf","city":"","category":"station","tags":["bahnhof","barrierefrei"],"operator":"ÖBB-Infrastruktur AG","hours":{"type":"unknown"}},{"id":"station_node_4076716391","lat":48.2208849,"lon":16.4578116,"name":"Hardeggasse","city":"","category":"station","tags":["bahnhof","barrierefrei"],"operator":"Wiener Linien","hours":{"type":"unknown"}},{"id":"station_node_4283722989","lat":48.2168044,"lon":16.341835,"name":"Alser Straße","city":"Wien","category":"station","tags":["bahnhof","barrierefrei"],"operator":"Wiener Linien","hours":{"type":"unknown"}},{"id":"station_node_4560869722","lat":48.2084639,"lon":16.3720438,"name":"Stephansplatz","city":"","category":"station","tags":["bahnhof","barrierefrei"],"operator":"Wiener Linien","hours":{"type":"unknown"}},{"id":"sanifair_node_9091526517","lat":48.1961035,"lon":16.3404847,"name":"Sanifair WC","city":"","category":"station","tags":["sanifair","barrierefrei","kostenpflichtig"],"operator":"SANIFAIR GmbH","fee":"yes","hours":{"type":"unknown"}},{"id":"sanifair_way_395972318","lat":48.1849588,"lon":16.3771996,"name":"Sanifair WC","city":"","category":"station","tags":["sanifair","barrierefrei","kostenpflichtig"],"operator":"SANIFAIR GmbH","fee":"yes","hours":{"type":"unknown"}},{"id":"sanifair_way_409444902","lat":48.2066471,"lon":16.360207,"name":"Sanifair WC","city":"","category":"station","tags":["sanifair","barrierefrei","kostenpflichtig"],"operator":"SANIFAIR GmbH","fee":"yes","hours":{"type":"unknown"}},{"id":"sanifair_way_411400845","lat":48.2011067,"lon":16.3686414,"name":"Sanifair WC","city":"","category":"station","tags":["sanifair","barrierefrei","kostenpflichtig"],"operator":"SANIFAIR GmbH","fee":"yes","hours":{"type":"unknown"}},{"id":"sanifair_way_417483379","lat":48.2116264,"lon":16.3771119,"name":"Sanifair WC","city":"","category":"station","tags":["sanifair","barrierefrei","kostenpflichtig"],"operator":"SANIFAIR GmbH","fee":"yes","hours":{"type":"unknown"}},{"id":"sanifair_way_1069407585","lat":48.2189652,"lon":16.3914835,"name":"Sanifair WC","city":"","category":"station","tags":["sanifair","barrierefrei","kostenpflichtig"],"operator":"SANIFAIR GmbH","fee":"yes","hours":{"type":"unknown"}}]