[{"id":"station_node_4381257385","lat":47.2074522,"lon":15.6397405,"name":"Weiz Interspar","city":"","category":"station","tags":["bahnhof","barrierefrei","haltepunkt"],"operator":"STLB","hours":{"type":"unknown"}},{"id":"gplace_ChIJBzATUYRKbkcRy5lXBNNI3sE","lat":47.0603815,"lon":15.427010399999999,"name":"CITYPARK","city":"Graz","category":"other","tags":["barrierefrei","google_wc_accessible"],"hours":{"type":"unknown"}},{"id":"gplace_ChIJcZ3EinE1bkcRS8trNVGRu8I","lat":47.065036199999994,"lon":15.4224885,"name":"JUFA Hotel Graz City","city":"Graz","category":"gastro","tags":["barrierefrei","google_wc_accessible"],"hours":{"type":"unknown"}},{"id":"gplace_ChIJ-e97TnI1bkcRmGiNXg_0_BI","lat":47.06568,"lon":15.4204152,"name":"SOCAR Tankstelle","city":"Graz","category":"tankstelle","tags":["barrierefrei","google_wc_accessible"],"hours":{"type":"unknown"}},{"id":"gplace_ChIJc6EZgEA1bkcR2UmGATthR8c","lat":47.0537899,"lon":15.4096156,"name":"clever fit Graz-Wetzelsdorf","city":"Graz","category":"other","tags":["barrierefrei","google_wc_accessible"],"hours":{"type":"unknown"}},{"id":"gplace_ChIJ17lJXWs1bkcRcRc5ZPidL_g","lat":47.0594685,"lon":15.413878299999999,"name":"OMV","city":"Graz","category":"gastro","tags":["barrierefrei","google_wc_accessible"],"hours":{"type":"unknown"}},{"id":"gplace_ChIJ3REK70s1bkcRSqZ5DTySpSk","lat":47.0630766,"lon":15.410946500000001,"name":"MARTIN AUER","city":"Graz","category":"gastro","tags":["barrierefrei","google_entrance_accessible"],"hours":{"type":"unknown"}},{"id":"gplace_ChIJY1Uqulw1bkcREocXKy90SEc","lat":47.0498755,"lon":15.421763599999997,"name":"Pizza Bella","city":"Graz","category":"gastro","tags":["barrierefrei","google_entrance_accessible"],"hours":{"type":"unknown"}},{"id":"gplace_ChIJH0fhhUE1bkcR8wsXK5kRSyU","lat":47.0547409,"lon":15.416411499999997,"name":"Eni","city":"Graz","category":"tankstelle","tags":["barrierefrei","google_wc_accessible"],"hours":{"type":"unknown"}},{"id":"gplace_ChIJFaMdM0E1bkcRlQKfBB7xt0s","lat":47.050426099999996,"lon":15.4119765,"name":"Gasthaus Zur Traube","city":"Graz","category":"gastro","tags":["barrierefrei","google_wc_accessible"],"hours":{"type":"unknown"}},{"id":"gplace_ChIJP0aQUuo1bkcRWrCWzTQJfHI","lat":47.060528,"lon":15.4210093,"name":"Subway","city":"Graz","category":"gastro","tags":["google_has_restroom"],"hours":{"type":"unknown"}},{"id":"gplace_ChIJ0z4K7mU1bkcR-0NOAipcmqs","lat":47.0591345,"lon":15.426473299999998,"name":"Turmöl","city":"Graz","category":"tankstelle","tags":["google_has_restroom"],"hours":{"type":"unknown"}},{"id":"gplace_ChIJBRmttwU1bkcRphSgoX6qeZo","lat":47.070309800000004,"lon":15.401474799999999,"name":"Das Eggenberg","city":"Graz","category":"gastro","tags":["barrierefrei","google_wc_accessible"],"hours":{"type":"unknown"}},{"id":"gplace_ChIJG5S3mwU1bkcRFvECbCN2WDk","lat":47.070119999999996,"lon":15.402859999999999,"name":"BILLA PLUS","city":"Graz","category":"other","tags":["barrierefrei","google_wc_accessible"],"hours":{"type":"unknown"}},{"id":"gplace_ChIJF-ykzHQ1bkcRHwpiOxAdh3Y","lat":47.0710258,"lon":15.419135,"name":"McFit gym Graz","city":"Graz","category":"other","tags":["google_has_restroom"],"hours":{"type":"unknown"}},{"id":"gplace_ChIJc77E7wo1bkcRYcJioZ-pG2A","lat":47.0724188,"lon":15.4170608,"name":"McDonald's","city":"Graz","category":"gastro","tags":["barrierefrei","google_wc_accessible"],"hours":{"type":"unknown"}},{"id":"gplace_ChIJH80pugo1bkcRWoB2VOFkNuk","lat":47.073460499999996,"lon":15.4189635,"name":"Best Food Grill Hauptbahnhof","city":"Graz","category":"gastro","tags":["google_has_restroom"],"hours":{"type":"unknown"}},{"id":"gplace_ChIJn8lpfw81bkcRIE_tiSIe-N4","lat":47.068847999999996,"lon":15.404539999999999,"name":"HOFER","city":"Graz","category":"other","tags":["barrierefrei","google_wc_accessible"],"hours":{"type":"unknown"}},{"id":"gplace_ChIJB-3GHhg1bkcRYFLxR1_ffeI","lat":47.068368,"lon":15.406544199999999,"name":"Ristorante Trenta","city":"Graz","category":"gastro","tags":["barrierefrei","google_wc_accessible"],"hours":{"type":"unknown"}},{"id":"gplace_ChIJG43lggo1bkcRw76mnuqnyTs","lat":47.074448,"lon":15.4177083,"name":"clever fit","city":"Graz","category":"other","tags":["barrierefrei","google_entrance_accessible"],"hours":{"type":"unknown"}},{"id":"gplace_ChIJld3DK3U1bkcREDlAwoj7cHk","lat":47.0718398,"lon":15.4194347,"name":"Granola Company","city":"Graz","category":"gastro","tags":["barrierefrei","google_wc_accessible"],"hours":{"type":"unknown"}},{"id":"gplace_ChIJG2Eb6AU1bkcRq6YiUWOlj9A","lat":47.0706832,"lon":15.4030742,"name":"Bäckerei Sorger","city":"Graz","category":"gastro","tags":["barrierefrei","google_wc_accessible"],"hours":{"type":"unknown"}},{"id":"gplace_ChIJmeB5_ac1bkcRSc9YOFr9hZk","lat":47.075961299999996,"lon":15.408229,"name":"HOFER","city":"Graz","category":"other","tags":["barrierefrei","google_wc_accessible"],"hours":{"type":"unknown"}},{"id":"gplace_ChIJc1CGlQo1bkcROLKjWds4T68","lat":47.073354599999995,"lon":15.418189400000001,"name":"the italian Graz Hauptbahnhof","city":"Graz","category":"gastro","tags":["barrierefrei","google_wc_accessible"],"hours":{"type":"unknown"}},{"id":"gplace_ChIJETZQHrU1bkcRAoxmYRPkHaY","lat":47.0936192,"lon":15.4056538,"name":"Best Food Grill Restaurant (ASPAVA)","city":"Graz","category":"gastro","tags":["barrierefrei","google_wc_accessible"],"hours":{"type":"unknown"}},{"id":"gplace_ChIJE9fDjrA1bkcRHluBlOv2un8","lat":47.087600099999996,"lon":15.412380699999998,"name":"Shell","city":"Graz","category":"gastro","tags":["barrierefrei","google_wc_accessible"],"hours":{"type":"unknown"}},{"id":"gplace_ChIJvcMVnrs1bkcRP_asrgH-IlA","lat":47.087022999999995,"lon":15.418614999999999,"name":"HOFER","city":"Graz","category":"other","tags":["barrierefrei","google_wc_accessible"],"hours":{"type":"unknown"}},{"id":"gplace_ChIJRX6EvQo1bkcRNiIRu-JtL8k","lat":47.08969,"lon":15.407720000000001,"name":"BILLA PLUS","city":"Graz","category":"other","tags":["barrierefrei","google_wc_accessible"],"hours":{"type":"unknown"}},{"id":"gplace_ChIJEV7E8bg1bkcRg4MTVVXerFQ","lat":47.0923018,"lon":15.421312200000001,"name":"Mur Beach - Ingomar Gruber","city":"Graz","category":"gastro","tags":["barrierefrei","google_wc_accessible"],"hours":{"type":"unknown"}},{"id":"gplace_ChIJOa71AKc1bkcROuHuoSvqdF4","lat":47.0803149,"lon":15.410285199999999,"name":"STREETS by el Gaucho","city":"Graz","category":"gastro","tags":["barrierefrei","google_wc_accessible"],"hours":{"type":"unknown"}},{"id":"gplace_ChIJqSIiV7Q1bkcRbIdlBFC5zP0","lat":47.0929073,"lon":15.406957600000002,"name":"JET Tankstelle","city":"Graz","category":"tankstelle","tags":["barrierefrei","google_wc_accessible"],"hours":{"type":"unknown"}},{"id":"gplace_ChIJWxHF0rQ1bkcRqMbhjWoz-uk","lat":47.0934822,"lon":15.403388,"name":"Göstinger Hof","city":"Graz","category":"gastro","tags":["barrierefrei","google_wc_accessible"],"hours":{"type":"unknown"}},{"id":"gplace_ChIJ9ZEQDq81bkcRFEeUldKqw0k","lat":47.0825691,"lon":15.408885000000001,"name":"Cafe Polanz","city":"Graz","category":"gastro","tags":["barrierefrei","google_entrance_accessible"],"hours":{"type":"unknown"}},{"id":"gplace_ChIJOcroGQ_Mb0cRc1C8XLrtVgA","lat":47.0765825,"lon":15.407389299999998,"name":"eni ServiceStation","city":"Graz","category":"tankstelle","tags":["barrierefrei","google_wc_accessible"],"hours":{"type":"unknown"}},{"id":"gplace_ChIJIbOH-o9KbkcRNmwCvQFOc7A","lat":47.081337999999995,"lon":15.410127999999998,"name":"Bäckerei Sorger – Smart City","city":"Graz","category":"gastro","tags":["barrierefrei","google_wc_accessible"],"hours":{"type":"unknown"}},{"id":"gplace_ChIJjXfBcFA1bkcRIKMQYpxJpVY","lat":47.08145,"lon":15.41198,"name":"HOFER","city":"Graz","category":"other","tags":["barrierefrei","google_wc_accessible"],"hours":{"type":"unknown"}},{"id":"gplace_ChIJbSdotZ81bkcRizyk9EMiRyg","lat":47.06174,"lon":15.433278000000001,"name":"HOFER","city":"Graz","category":"other","tags":["barrierefrei","google_wc_accessible"],"hours":{"type":"unknown"}},{"id":"gplace_ChIJTwhCEVI1bkcR2oiJMqQ0Kyg","lat":47.051710799999995,"lon":15.435016399999999,"name":"Ultimate Gym","city":"Graz","category":"other","tags":["barrierefrei","google_entrance_accessible"],"hours":{"type":"unknown"}},{"id":"gplace_ChIJjS8m8WY1bkcRxAqWynixlYg","lat":47.056543999999995,"lon":15.428047999999999,"name":"Hofer","city":"Graz","category":"other","tags":["barrierefrei","google_wc_accessible"],"hours":{"type":"unknown"}},{"id":"gplace_ChIJlzAawqI1bkcRDifFEowdiow","lat":47.0522111,"lon":15.432744099999999,"name":"Yamauchi Ramen","city":"Graz","category":"gastro","tags":["google_has_restroom"],"hours":{"type":"unknown"}},{"id":"gplace_ChIJEafNEXo1bkcRxUazU40I9qQ","lat":47.0668911,"lon":15.4309888,"name":"Ankara Grillhaus","city":"Graz","category":"gastro","tags":["google_has_restroom"],"hours":{"type":"unknown"}},{"id":"gplace_ChIJJZl523A1bkcRlrm4joYz22c","lat":47.0672407,"lon":15.427447599999997,"name":"F. Leitner / Sprint","city":"Graz","category":"tankstelle","tags":["barrierefrei","google_wc_accessible"],"hours":{"type":"unknown"}},{"id":"gplace_ChIJveYj9ns1bkcR0L6RAR1Hmyw","lat":47.0657134,"lon":15.4340745,"name":"Guten Morgen","city":"Graz","category":"gastro","tags":["google_has_restroom"],"hours":{"type":"unknown"}},{"id":"gplace_ChIJG5EKSb81bkcRCpM1Xj3YsKU","lat":47.0695245,"lon":15.434201100000001,"name":"Der Steirer","city":"Graz","category":"gastro","tags":["barrierefrei","google_wc_accessible"],"hours":{"type":"unknown"}},{"id":"gplace_ChIJn5LYqH41bkcRTF2tVFJYg-8","lat":47.0670626,"lon":15.4377315,"name":"Gösser Bräu","city":"Graz","category":"gastro","tags":["barrierefrei","google_wc_accessible"],"hours":{"type":"unknown"}},{"id":"gplace_ChIJz5N-Tn81bkcRnAgPo4VYJf8","lat":47.0731386,"lon":15.4345565,"name":"Murinsel Graz","city":"Graz","category":"gastro","tags":["barrierefrei","google_wc_accessible"],"hours":{"type":"unknown"}},{"id":"gplace_ChIJJ74y3oE1bkcRPo0qG0u7Jyg","lat":47.0713248,"lon":15.441144399999999,"name":"Glöckl Bräu","city":"Graz","category":"gastro","tags":["google_has_restroom"],"hours":{"type":"unknown"}},{"id":"gplace_ChIJOye5Tp01bkcRowumPluIRk0","lat":47.0733092,"lon":15.4330756,"name":"Brot & Spiele","city":"Graz","category":"gastro","tags":["barrierefrei","google_wc_accessible"],"hours":{"type":"unknown"}},{"id":"gplace_ChIJl7x5HOo1bkcRaK53pRu6E5w","lat":47.0702502,"lon":15.4358822,"name":"Napo Pizza Napoletana","city":"Graz","category":"gastro","tags":["barrierefrei","google_wc_accessible"],"hours":{"type":"unknown"}},{"id":"gplace_ChIJF2MoWH81bkcRfrk88WG0VG0","lat":47.0712809,"lon":15.440225400000001,"name":"L'Osteria","city":"Graz","category":"gastro","tags":["barrierefrei","google_entrance_accessible"],"hours":{"type":"unknown"}},{"id":"gplace_ChIJv6xEFXg1bkcRDObIVzX1aj4","lat":47.0709946,"lon":15.434197399999997,"name":"Kunsthauscafe","city":"Graz","category":"gastro","tags":["barrierefrei","google_wc_accessible"],"hours":{"type":"unknown"}},{"id":"gplace_ChIJVyL-F501bkcRwCB6hAWbJzM","lat":47.0742561,"lon":15.4325764,"name":"Die Scherbe","city":"Graz","category":"gastro","tags":["barrierefrei","google_wc_accessible"],"hours":{"type":"unknown"}},{"id":"gplace_ChIJj5ilX5w1bkcR9skCRziazYg","lat":47.076319999999996,"lon":15.432103999999999,"name":"HOFER","city":"Graz","category":"other","tags":["barrierefrei","google_wc_accessible"],"hours":{"type":"unknown"}},{"id":"gplace_ChIJ7w8cMX81bkcRfCf-786YGGo","lat":47.0698967,"lon":15.438868800000002,"name":"El Gaucho at Landhaus","city":"Graz","category":"gastro","tags":["barrierefrei","google_wc_accessible"],"hours":{"type":"unknown"}},{"id":"gplace_ChIJNfLPx3s1bkcRuuXg3Sumn-c","lat":47.0679492,"lon":15.437823299999998,"name":"Vina","city":"Graz","category":"gastro","tags":["google_has_restroom"],"hours":{"type":"unknown"}},{"id":"gplace_ChIJTzZq_Zw1bkcRUPUMauPUUKs","lat":47.079971699999994,"lon":15.426874699999997,"name":"Wildmoser","city":"Graz","category":"gastro","tags":["google_has_restroom"],"hours":{"type":"unknown"}},{"id":"gplace_ChIJkVjEshBHbkcRkDIVgIkzq5Q","lat":47.079206799999994,"lon":15.438727600000002,"name":"O' SOLE 'E NAPULE Pizzeria Napoletana","city":"Graz","category":"gastro","tags":["barrierefrei","google_entrance_accessible"],"hours":{"type":"unknown"}},{"id":"gplace_ChIJr_o4VJc1bkcRIUVXCxhF_Ms","lat":47.0827896,"lon":15.4312685,"name":"MARTIN AUER","city":"Graz","category":"gastro","tags":["barrierefrei","google_wc_accessible"],"hours":{"type":"unknown"}},{"id":"gplace_ChIJDSv-8ZU1bkcREeAAGp66nJ4","lat":47.0887512,"lon":15.428940299999999,"name":"Trattoria Siena","city":"Graz","category":"gastro","tags":["barrierefrei","google_entrance_accessible"],"hours":{"type":"unknown"}},{"id":"gplace_ChIJi8m_XMc1bkcRLz2kyJ18Z1c","lat":47.0941019,"lon":15.423224899999997,"name":"JET Tankstelle","city":"Graz","category":"tankstelle","tags":["barrierefrei","google_wc_accessible"],"hours":{"type":"unknown"}},{"id":"gplace_ChIJI0L5shk1bkcRVR917OdKC3Q","lat":47.076014799999996,"lon":15.428682899999998,"name":"Akdağ Kebap","city":"Graz","category":"gastro","tags":["google_has_restroom"],"hours":{"type":"unknown"}},{"id":"gplace_ChIJByE-TMM1bkcRYbh11yJvYnY","lat":47.0791773,"lon":15.427021499999999,"name":"Bäckerei Sorger","city":"Graz","category":"gastro","tags":["barrierefrei","google_wc_accessible"],"hours":{"type":"unknown"}},{"id":"gplace_ChIJQSOZvH41bkcRJOuElZKeLDU","lat":47.074933699999995,"lon":15.431390799999999,"name":"La Meskla","city":"Graz","category":"gastro","tags":["barrierefrei","google_wc_accessible"],"hours":{"type":"unknown"}},{"id":"gplace_ChIJOR3cUQlLbkcRBQ9MbVorYx8","lat":47.0469529,"lon":15.4429948,"name":"City beach Graz - Bistro","city":"Graz","category":"gastro","tags":["barrierefrei","google_wc_accessible"],"hours":{"type":"unknown"}},{"id":"gplace_ChIJHybdi1g1bkcRYUX8DSP0xjo","lat":47.045555,"lon":15.430559100000002,"name":"McDonald's Lauzilgasse","city":"Graz","category":"gastro","tags":["barrierefrei","google_wc_accessible"],"hours":{"type":"unknown"}},{"id":"gplace_ChIJZXaOc7dKbkcRY_lCZQhXtzk","lat":47.0389461,"lon":15.451720099999998,"name":"BarabaR","city":"Graz","category":"gastro","tags":["barrierefrei","google_wc_accessible"],"hours":{"type":"unknown"}},{"id":"gplace_ChIJPZlovrxKbkcR2S8yKPWU3Ro","lat":47.0465264,"lon":15.447984299999998,"name":"Champions Sportsclub","city":"Graz","category":"other","tags":["barrierefrei","google_entrance_accessible"],"hours":{"type":"unknown"}},{"id":"gplace_ChIJ2a8Eq7NKbkcRtZBJuO8wrz8","lat":47.0335519,"lon":15.442873500000001,"name":"bp","city":"Graz","category":"gastro","tags":["barrierefrei","google_wc_accessible"],"hours":{"type":"unknown"}},{"id":"gplace_ChIJ70mjintLbkcRIm7HyabOvdY","lat":47.0449555,"lon":15.449486799999999,"name":"Arena","city":"Graz","category":"gastro","tags":["barrierefrei","google_entrance_accessible"],"hours":{"type":"unknown"}},{"id":"gplace_ChIJ9Wu9ZqdKbkcRE07M7U5ffKU","lat":47.045535799999996,"lon":15.431636300000001,"name":"Twins Fitness","city":"Graz","category":"other","tags":["google_has_restroom"],"hours":{"type":"unknown"}},{"id":"gplace_ChIJaw1Rb6lKbkcR2KJLBvDdvPU","lat":47.038218099999995,"lon":15.432688899999999,"name":"s´Reindl","city":"Graz","category":"gastro","tags":["barrierefrei","google_wc_accessible"],"hours":{"type":"unknown"}},{"id":"gplace_ChIJtfhRgqBKbkcRjZdr5UrM7NA","lat":47.049292099999995,"lon":15.4348072,"name":"Restaurant La Done","city":"Graz","category":"gastro","tags":["google_has_restroom"],"hours":{"type":"unknown"}},{"id":"gplace_ChIJQYp6eqZLbkcRjjnNIsqQlAg","lat":47.046347499999996,"lon":15.434782400000001,"name":"Kampfsportschule Fundamental Graz","city":"Graz","category":"other","tags":["barrierefrei","google_entrance_accessible"],"hours":{"type":"unknown"}},{"id":"gplace_ChIJz66VvbZKbkcROfuH9dgCHhM","lat":47.036915,"lon":15.449060999999999,"name":"Löwenherz Fitness Company","city":"Graz","category":"other","tags":["barrierefrei","google_entrance_accessible"],"hours":{"type":"unknown"}},{"id":"gplace_ChIJR7DIR7pKbkcRkKmVRrN_mnw","lat":47.0417461,"lon":15.449047799999999,"name":"Gerlitz Hof","city":"Graz","category":"gastro","tags":["barrierefrei","google_wc_accessible"],"hours":{"type":"unknown"}},{"id":"gplace_ChIJl4qOOzk1bkcR0W8eS0Fgnbo","lat":47.0521691,"lon":15.4304992,"name":"Tändel Pizza Kebap","city":"Graz","category":"gastro","tags":["barrierefrei","google_entrance_accessible"],"hours":{"type":"unknown"}},{"id":"gplace_ChIJL2ukc341bkcRtANIHqkzz4Y","lat":47.066648300000004,"lon":15.4415022,"name":"McDonald's","city":"Graz","category":"gastro","tags":["barrierefrei","google_wc_accessible"],"hours":{"type":"unknown"}},{"id":"gplace_ChIJh7GkxIRLbkcR-a1DOSQsvGc","lat":47.0545519,"lon":15.448615,"name":"JOHN REED Fitness Graz","city":"Graz","category":"other","tags":["barrierefrei","google_wc_accessible"],"hours":{"type":"unknown"}},{"id":"gplace_ChIJF-JzG4JKbkcRTjBTQl9SgPc","lat":47.0656068,"lon":15.444279899999998,"name":"Ginko","city":"Graz","category":"gastro","tags":["barrierefrei","google_wc_accessible","google_entrance_accessible"],"hours":{"type":"unknown"}},{"id":"gplace_ChIJX1btKZpKbkcRewbu3xZQYNU","lat":47.0554977,"lon":15.4483532,"name":"McDonald's Messe Graz","city":"Graz","category":"gastro","tags":["barrierefrei","google_wc_accessible"],"hours":{"type":"unknown"}},{"id":"gplace_ChIJNYv8ryY1bkcRhV17e2hfK6w","lat":47.0661637,"lon":15.439549699999999,"name":"Ichi go Ichi e - Ramen Bar Graz","city":"Graz","category":"gastro","tags":["google_has_restroom"],"hours":{"type":"unknown"}},{"id":"gplace_ChIJAwzj6YNKbkcRhCCSvouaCAQ","lat":47.064583,"lon":15.4475738,"name":"Allgemeiner Turnverein Graz (ATG)","city":"Graz","category":"other","tags":["barrierefrei","google_entrance_accessible"],"hours":{"type":"unknown"}},{"id":"gplace_ChIJO7sWYX41bkcRBSGY_OuUr5k","lat":47.067321299999996,"lon":15.440926099999999,"name":"ROX","city":"Graz","category":"gastro","tags":["barrierefrei","google_wc_accessible"],"hours":{"type":"unknown"}},{"id":"gplace_ChIJd0ipwX41bkcRRIeBknne28s","lat":47.0679929,"lon":15.438815199999999,"name":"Ducks coffee shop","city":"Graz","category":"gastro","tags":["google_has_restroom"],"hours":{"type":"unknown"}},{"id":"gplace_ChIJI3t-mQ5LbkcRrJMvcpdZ3ak","lat":47.0565265,"lon":15.4462691,"name":"Merkur Gym","city":"Graz","category":"other","tags":["barrierefrei","google_wc_accessible"],"hours":{"type":"unknown"}},{"id":"gplace_ChIJLejFqVM1bkcReT28beK0_Zs","lat":47.0677921,"lon":15.442575900000001,"name":"HOME bakery","city":"Graz","category":"gastro","tags":["barrierefrei","google_entrance_accessible"],"hours":{"type":"unknown"}},{"id":"gplace_ChIJ0XPAQd5LbkcR7eokLQaQVEA","lat":47.0618227,"lon":15.443766100000001,"name":"YimSiam","city":"Graz","category":"gastro","tags":["google_has_restroom"],"hours":{"type":"unknown"}},{"id":"gplace_ChIJxYiMSIA1bkcR6kW3DbdRnTs","lat":47.07230080000001,"lon":15.4441493,"name":"Das Promenade","city":"Graz","category":"gastro","tags":["barrierefrei","google_wc_accessible"],"hours":{"type":"unknown"}},{"id":"gplace_ChIJx0LqtH81bkcRzpJJlzIt0gQ","lat":47.0685158,"lon":15.4427627,"name":"Operncafé - Cafe | Brasserie | Restaurant - Graz","city":"Graz","category":"gastro","tags":["barrierefrei","google_wc_accessible"],"hours":{"type":"unknown"}},{"id":"gplace_ChIJJ5sEPoc1bkcRIdwYaTdWFL8","lat":47.0766539,"lon":15.447359800000001,"name":"Ristorante | Pizzeria Galliano","city":"Graz","category":"gastro","tags":["google_has_restroom"],"hours":{"type":"unknown"}},{"id":"gplace_ChIJ7xC254Y1bkcR7WBa2chXlX4","lat":47.076991,"lon":15.445070099999997,"name":"Café Fotter • Graz","city":"Graz","category":"gastro","tags":["google_has_restroom"],"hours":{"type":"unknown"}},{"id":"gplace_ChIJRbcfZok1bkcRV17oBCet5E8","lat":47.0877792,"lon":15.447865199999997,"name":"Café Rosenhain","city":"Graz","category":"gastro","tags":["barrierefrei","google_wc_accessible"],"hours":{"type":"unknown"}},{"id":"gplace_ChIJO6G7Cl01bkcRfz5FXoc-N_o","lat":47.074681299999995,"lon":15.435189300000001,"name":"Kai 36","city":"Graz","category":"gastro","tags":["google_has_restroom"],"hours":{"type":"unknown"}},{"id":"gplace_ChIJRYoHVYI1bkcRy0j-P6cnKn0","lat":47.0740779,"lon":15.437568299999999,"name":"aiola upstairs","city":"Graz","category":"gastro","tags":["barrierefrei","google_wc_accessible"],"hours":{"type":"unknown"}},{"id":"gplace_ChIJG2KYR481bkcRj6OvGZU0a2Q","lat":47.0819208,"lon":15.444545699999999,"name":"Restaurant Kornati","city":"Graz","category":"gastro","tags":["google_has_restroom"],"hours":{"type":"unknown"}},{"id":"gplace_ChIJrZH4W4M1bkcRQU2oFuDIWX8","lat":47.0762359,"lon":15.436714,"name":"Restaurant SCHLOSSBERG","city":"Graz","category":"gastro","tags":["barrierefrei","google_wc_accessible"],"hours":{"type":"unknown"}},{"id":"gplace_ChIJMbSBBog1bkcRkn0TawVump8","lat":47.0802095,"lon":15.450668199999999,"name":"Bierbaron Bierspezialitäten","city":"Graz","category":"gastro","tags":["barrierefrei","google_entrance_accessible"],"hours":{"type":"unknown"}},{"id":"gplace_ChIJ-afV60A1bkcR-3SZe3RGKKg","lat":47.0754723,"lon":15.4459149,"name":"Boho Bowls","city":"Graz","category":"gastro","tags":["google_has_restroom"],"hours":{"type":"unknown"}},{"id":"gplace_ChIJo7RFX3M1bkcRSglXt3Z2Jn8","lat":47.0793173,"lon":15.4482989,"name":"Ali mit Alles","city":"Graz","category":"gastro","tags":["barrierefrei","google_entrance_accessible"],"hours":{"type":"unknown"}},{"id":"gplace_ChIJY-x8Uok1bkcRPpvG7uMZ3aM","lat":47.0740711,"lon":15.440163199999997,"name":"Pizzaiolo","city":"Graz","category":"gastro","tags":["barrierefrei","google_wc_accessible"],"hours":{"type":"unknown"}},{"id":"gplace_ChIJhXqnGPA1bkcR7vHEyZKx26U","lat":47.0989602,"lon":15.4482289,"name":"Stoffbauer","city":"Graz","category":"gastro","tags":["barrierefrei","google_wc_accessible"],"hours":{"type":"unknown"}},{"id":"gplace_ChIJoYGjTek1bkcRW0VH0gD4I7I","lat":47.0970845,"lon":15.4394903,"name":"Kreuzwirt am Rosenberg","city":"Graz","category":"gastro","tags":["barrierefrei","google_entrance_accessible"],"hours":{"type":"unknown"}},{"id":"gplace_ChIJm_wqUMQ1bkcRY-77xLbHR3A","lat":47.1002381,"lon":15.4249657,"name":"Flowers Cafe Lounge","city":"Graz","category":"gastro","tags":["barrierefrei","google_entrance_accessible"],"hours":{"type":"unknown"}},{"id":"gplace_ChIJuRcDi8Y1bkcRvrdPIras2UA","lat":47.0971845,"lon":15.4232914,"name":"Gasthof Pfleger","city":"Graz","category":"gastro","tags":["barrierefrei","google_entrance_accessible"],"hours":{"type":"unknown"}},{"id":"gplace_ChIJj0MZaek1bkcRwm-YMAITLjo","lat":47.1021818,"lon":15.425277800000002,"name":"AKIYA","city":"Graz","category":"gastro","tags":["barrierefrei","google_wc_accessible","google_entrance_accessible"],"hours":{"type":"unknown"}},{"id":"gplace_ChIJD8OBrS81bkcRwfmcDCwko1o","lat":47.1014364,"lon":15.426065000000001,"name":"Cafe Live","city":"Graz","category":"gastro","tags":["google_has_restroom"],"hours":{"type":"unknown"}},{"id":"gplace_ChIJnTp3yPA1bkcRgzWVEER6gYE","lat":47.0980931,"lon":15.453405700000001,"name":"Zirkus Prattes","city":"Graz","category":"gastro","tags":["barrierefrei","google_wc_accessible"],"hours":{"type":"unknown"}},{"id":"gplace_ChIJOeIa9IM1bkcRPP7moQwuxfA","lat":47.099266799999995,"lon":15.450820999999998,"name":"Kinderyoga Graz","city":"Graz","category":"other","tags":["google_has_restroom"],"hours":{"type":"unknown"}},{"id":"gplace_ChIJsx-nk4tKbkcRfWq2aRWq_ic","lat":47.0639213,"lon":15.4646354,"name":"McDonald's Plüddemanngasse","city":"Graz","category":"gastro","tags":["barrierefrei","google_wc_accessible"],"hours":{"type":"unknown"}},{"id":"gplace_ChIJMeL8g4tKbkcR2zDQSk9b2-Q","lat":47.063264,"lon":15.465256,"name":"HOFER","city":"Graz","category":"other","tags":["barrierefrei","google_wc_accessible"],"hours":{"type":"unknown"}},{"id":"gplace_ChIJgy8b0YBKbkcRxwGV1ILQl14","lat":47.0678092,"lon":15.450550499999997,"name":"Tribeka Technikerstraße","city":"Graz","category":"gastro","tags":["google_has_restroom"],"hours":{"type":"unknown"}},{"id":"gplace_ChIJy7N3B2BLbkcRiPI6Qr7sY2g","lat":47.0592756,"lon":15.445561600000001,"name":"Würstl Scheich","city":"Graz","category":"gastro","tags":["google_has_restroom"],"hours":{"type":"unknown"}},{"id":"gplace_ChIJAXDXhZ5KbkcRJB5D2wdvKyo","lat":47.055723,"lon":15.441362999999999,"name":"HOFER","city":"Graz","category":"other","tags":["barrierefrei","google_wc_accessible"],"hours":{"type":"unknown"}},{"id":"gplace_ChIJh2RkMn1LbkcRJbDJEZWMjIk","lat":47.0604474,"lon":15.454165,"name":"Bon Bon","city":"Graz","category":"gastro","tags":["barrierefrei","google_wc_accessible"],"hours":{"type":"unknown"}},{"id":"gplace_ChIJvcN7HAxLbkcRq5lq9pGjApo","lat":47.0578461,"lon":15.452586499999997,"name":"Best Food Grill Münzgrabenstraße","city":"Graz","category":"gastro","tags":["barrierefrei","google_entrance_accessible"],"hours":{"type":"unknown"}},{"id":"gplace_ChIJTUQOFYFKbkcROTItaSkQydQ","lat":47.0666667,"lon":15.448611099999997,"name":"Pizzaiolo","city":"Graz","category":"gastro","tags":["google_has_restroom"],"hours":{"type":"unknown"}},{"id":"gplace_ChIJL4sG5L1KbkcRQx_rFHbInMA","lat":47.048828,"lon":15.453825,"name":"HOFER","city":"Graz","category":"other","tags":["barrierefrei","google_wc_accessible"],"hours":{"type":"unknown"}},{"id":"gplace_ChIJLZ_t-341bkcRQXSTTK-mb5o","lat":47.0683538,"lon":15.440760500000001,"name":"tribeka","city":"Graz","category":"gastro","tags":["google_has_restroom"],"hours":{"type":"unknown"}},{"id":"gplace_ChIJ5fmXVoc1bkcRhxILCX1u8IM","lat":47.0756519,"lon":15.4483103,"name":"Propeller","city":"Graz","category":"gastro","tags":["barrierefrei","google_wc_accessible"],"hours":{"type":"unknown"}},{"id":"gplace_ChIJs_161HhKbkcRoUHOSHdkA2o","lat":47.0750485,"lon":15.4511869,"name":"Kottulinsky - Der Club in Graz","city":"Graz","category":"gastro","tags":["google_has_restroom"],"hours":{"type":"unknown"}},{"id":"gplace_ChIJGVxeSj81bkcRmpp9Bkj8Q1U","lat":47.0752331,"lon":15.447430599999999,"name":"Noonbar","city":"Graz","category":"gastro","tags":["barrierefrei","google_wc_accessible"],"hours":{"type":"unknown"}},{"id":"gplace_ChIJZ4wfCntKbkcRJxoZ_W21KAI","lat":47.0753503,"lon":15.458891999999997,"name":"Tribeka Leonhardstraße","city":"Graz","category":"gastro","tags":["google_has_restroom"],"hours":{"type":"unknown"}},{"id":"gplace_ChIJsfDhvnhKbkcRDxlpblMnyBE","lat":47.075936299999995,"lon":15.450223399999999,"name":"Posaune","city":"Graz","category":"gastro","tags":["google_has_restroom"],"hours":{"type":"unknown"}},{"id":"gplace_ChIJtWpQQ3pKbkcRxd9tNKvYkkg","lat":47.077157899999996,"lon":15.4589595,"name":"OMV","city":"Graz","category":"gastro","tags":["barrierefrei","google_wc_accessible"],"hours":{"type":"unknown"}},{"id":"gplace_ChIJR6VoQu9KbkcRnPCFMyX9IyM","lat":47.05269,"lon":15.47599,"name":"Konfuzius China Restaurant","city":"Graz","category":"gastro","tags":["barrierefrei","google_wc_accessible"],"hours":{"type":"unknown"}},{"id":"gplace_ChIJn_nsVw1LbkcRxa-kqoj3BRM","lat":47.0566324,"lon":15.465586,"name":"MARTIN AUER","city":"Graz","category":"gastro","tags":["barrierefrei","google_entrance_accessible"],"hours":{"type":"unknown"}},{"id":"gplace_ChIJ85a7dPJKbkcRlcMURjgvOvw","lat":47.057367,"lon":15.471031999999997,"name":"Shell","city":"Graz","category":"gastro","tags":["barrierefrei","google_wc_accessible"],"hours":{"type":"unknown"}},{"id":"gplace_ChIJn0c0lWFLbkcRmR5zqFjL9C4","lat":47.0604224,"lon":15.4626465,"name":"Coffeeshop Barista's St.Peter","city":"Graz","category":"gastro","tags":["barrierefrei","google_wc_accessible"],"hours":{"type":"unknown"}},{"id":"gplace_ChIJrzNg_PJKbkcReolIioF3hPA","lat":47.0594365,"lon":15.469720399999998,"name":"Cafe Bar Cuba","city":"Graz","category":"gastro","tags":["barrierefrei","google_wc_accessible"],"hours":{"type":"unknown"}},{"id":"gplace_ChIJ79gzl4pKbkcRXtw4vf5iEkc","lat":47.0670994,"lon":15.4689817,"name":"MARTIN AUER","city":"Graz","category":"gastro","tags":["barrierefrei","google_wc_accessible"],"hours":{"type":"unknown"}},{"id":"gplace_ChIJxw3Cw5NKbkcRwsNlVt3UUc0","lat":47.0553281,"lon":15.459075899999998,"name":"Lucky's Heuriger","city":"Graz","category":"gastro","tags":["google_has_restroom"],"hours":{"type":"unknown"}},{"id":"gplace_ChIJ4aiP1JZKbkcRjUH3fP_Dj98","lat":47.054372,"lon":15.453743099999999,"name":"Club Grazer Turnerschaft","city":"Graz","category":"other","tags":["barrierefrei","google_wc_accessible"],"hours":{"type":"unknown"}},{"id":"gplace_ChIJkb2EpoBKbkcRP4Ub8TwfqL8","lat":47.069632,"lon":15.450961899999998,"name":"Bar28","city":"Graz","category":"gastro","tags":["google_has_restroom"],"hours":{"type":"unknown"}},{"id":"gplace_ChIJD-3OwkZLbkcRxEeT2A1ze0s","lat":47.0722512,"lon":15.452507500000001,"name":"Namaste Nepal Restaurant OG","city":"Graz","category":"gastro","tags":["google_has_restroom"],"hours":{"type":"unknown"}},{"id":"gplace_ChIJsaKLOohKbkcRzfxOwZZ-5JM","lat":47.0678653,"lon":15.46056,"name":"Konditorei Philipp - Eis | Kuchen & Torten | Pralinen - Graz","city":"Graz","category":"gastro","tags":["barrierefrei","google_wc_accessible"],"hours":{"type":"unknown"}},{"id":"gplace_ChIJzeG1PohKbkcR_7g8QvsMHes","lat":47.068415099999996,"lon":15.460229600000002,"name":"Schillerhof Auer Brot","city":"Graz","category":"gastro","tags":["barrierefrei","google_wc_accessible"],"hours":{"type":"unknown"}},{"id":"gplace_ChIJ8c23_mVKbkcRbrnlUyRNMgE","lat":47.077098799999995,"lon":15.469679599999997,"name":"Osteria dei sensi Paolo Montirosso","city":"Graz","category":"gastro","tags":["barrierefrei","google_entrance_accessible"],"hours":{"type":"unknown"}},{"id":"gplace_ChIJ-W_Qm35KbkcRwXcn17WTxFI","lat":47.0728831,"lon":15.4533746,"name":"thomawirt","city":"Graz","category":"gastro","tags":["google_has_restroom"],"hours":{"type":"unknown"}},{"id":"gplace_ChIJpaQmlnlKbkcRr8aawhFJT88","lat":47.0776584,"lon":15.454942200000001,"name":"VIBES Fitness Graz – Leechgasse","city":"Graz","category":"other","tags":["google_has_restroom"],"hours":{"type":"unknown"}},{"id":"gplace_ChIJqWf6VZ9LbkcRXF7X62gvk0Q","lat":47.0723869,"lon":15.4517245,"name":"Burger Factory Leonhardstraße","city":"Graz","category":"gastro","tags":["google_has_restroom"],"hours":{"type":"unknown"}},{"id":"gplace_ChIJlRN_-HNKbkcRhTXBBsxO9DI","lat":47.084052199999995,"lon":15.460192600000001,"name":"Purberg","city":"Graz","category":"gastro","tags":["barrierefrei","google_entrance_accessible"],"hours":{"type":"unknown"}},{"id":"gplace_ChIJn2fMEwlKbkcRcCWc4w7hBW0","lat":47.094607499999995,"lon":15.463498999999999,"name":"Bakery Kern","city":"Graz","category":"gastro","tags":["barrierefrei","google_wc_accessible"],"hours":{"type":"unknown"}},{"id":"gplace_ChIJoR0zqXpKbkcRdF4pQYtIEhU","lat":47.0819553,"lon":15.4542734,"name":"OMV","city":"Graz","category":"gastro","tags":["barrierefrei","google_wc_accessible"],"hours":{"type":"unknown"}},{"id":"gplace_ChIJoTWOdwlKbkcRXlaCMhxeBZ8","lat":47.093913099999995,"lon":15.4623552,"name":"Wienerwirt","city":"Graz","category":"gastro","tags":["barrierefrei","google_wc_accessible"],"hours":{"type":"unknown"}},{"id":"gplace_ChIJn8hjBXA1bkcRMtFGggSgoiI","lat":47.0892823,"lon":15.4593501,"name":"Bäckerei Sorger","city":"Graz","category":"gastro","tags":["barrierefrei","google_wc_accessible"],"hours":{"type":"unknown"}},{"id":"gplace_ChIJ21TGUaBLbkcRGmFaQWW7sW0","lat":47.0841697,"lon":15.4567311,"name":"MARTIN AUER","city":"Graz","category":"gastro","tags":["barrierefrei","google_entrance_accessible"],"hours":{"type":"unknown"}},{"id":"gplace_ChIJh9Z8byFLbkcRJK9SDEeQr8k","lat":47.078849299999995,"lon":15.464099599999997,"name":"Schanzlwirt","city":"Graz","category":"gastro","tags":["barrierefrei","google_entrance_accessible"],"hours":{"type":"unknown"}},{"id":"gplace_ChIJKfUXpHVKbkcRANZfDf14F-8","lat":47.0864615,"lon":15.4567206,"name":"Das Lorenz","city":"Graz","category":"gastro","tags":["barrierefrei","google_wc_accessible"],"hours":{"type":"unknown"}},{"id":"gplace_ChIJjxgUr29KbkcRffvFQPSd3dI","lat":47.0795789,"lon":15.467330400000002,"name":"MARTIN AUER","city":"Graz","category":"gastro","tags":["barrierefrei","google_entrance_accessible"],"hours":{"type":"unknown"}},{"id":"gplace_ChIJcz5x8WrecUcRf1eY6qDwQuk","lat":47.3768082,"lon":15.088915799999999,"name":"McDonald's","city":"Leoben","category":"gastro","tags":["barrierefrei","google_wc_accessible"],"hours":{"type":"unknown"}},{"id":"gplace_ChIJiwj8FxXecUcRuoDz17E5etw","lat":47.3786201,"lon":15.0887114,"name":"INTERSPAR","city":"Leoben","category":"other","tags":["barrierefrei","google_wc_accessible"],"hours":{"type":"unknown"}},{"id":"gplace_ChIJVVWxVRXecUcReVmYrO_kxKw","lat":47.378697599999995,"lon":15.0916984,"name":"Hotel \"Der Greif\" Leoben","city":"Leoben","category":"gastro","tags":["barrierefrei","google_wc_accessible"],"hours":{"type":"unknown"}},{"id":"gplace_ChIJHTxoqm7ecUcRXF05-FS2wsk","lat":47.374613599999996,"lon":15.0828983,"name":"Montana Kebap","city":"Leoben","category":"gastro","tags":["barrierefrei","google_entrance_accessible"],"hours":{"type":"unknown"}},{"id":"gplace_ChIJb5YSwBXecUcRzhxH7AHycoI","lat":47.382200499999996,"lon":15.0921569,"name":"das Peter Tunner","city":"Leoben","category":"gastro","tags":["barrierefrei","google_wc_accessible","google_entrance_accessible"],"hours":{"type":"unknown"}},{"id":"gplace_ChIJTzxidEnfcUcRkVjpDXlkMdY","lat":47.3806101,"lon":15.09264,"name":"Shahrazad Orient Food","city":"Leoben","category":"gastro","tags":["google_has_restroom"],"hours":{"type":"unknown"}},{"id":"gplace_ChIJJc5T1xbecUcRPc-M12YbC3I","lat":47.3861882,"lon":15.090264499999998,"name":"Pizzeria Coretto","city":"Leoben","category":"gastro","tags":["barrierefrei","google_entrance_accessible"],"hours":{"type":"unknown"}},{"id":"gplace_ChIJNZdAPhXecUcRgljVDZZjnNs","lat":47.3797809,"lon":15.090785299999999,"name":"SAM'S GYM - Das beste Fitnessstudio in Leoben","city":"Leoben","category":"other","tags":["barrierefrei","google_entrance_accessible"],"hours":{"type":"unknown"}},{"id":"gplace_ChIJZ0ew4RfecUcRK-4hYn-zcLM","lat":47.3865012,"lon":15.0963934,"name":"Asia Spa Leoben","city":"Leoben","category":"gastro","tags":["barrierefrei","google_wc_accessible"],"hours":{"type":"unknown"}},{"id":"gplace_ChIJU-KJPT7ecUcRHdE4Q4128pw","lat":47.38208890000001,"lon":15.095139399999999,"name":"Leoben City Shopping","city":"Leoben","category":"other","tags":["barrierefrei","google_wc_accessible"],"hours":{"type":"unknown"}},{"id":"gplace_ChIJ74QeRDjecUcRj4ipmiyA5PU","lat":47.37853,"lon":15.1036591,"name":"C & C Restaurant","city":"Leoben","category":"gastro","tags":["barrierefrei","google_wc_accessible"],"hours":{"type":"unknown"}},{"id":"gplace_ChIJ29VyHULecUcRcubGixEMwJQ","lat":47.373567099999995,"lon":15.090333500000002,"name":"JET Tankstelle","city":"Leoben","category":"tankstelle","tags":["barrierefrei","google_wc_accessible"],"hours":{"type":"unknown"}},{"id":"gplace_ChIJXykv4xXecUcR4mye2aj9qXI","lat":47.3830434,"lon":15.093674900000002,"name":"China Restaurant Sonne","city":"Leoben","category":"gastro","tags":["google_has_restroom"],"hours":{"type":"unknown"}},{"id":"gplace_ChIJ_VxAJD7ecUcRiFe9PtwyT9U","lat":47.381611,"lon":15.094449099999997,"name":"San Marco","city":"Leoben","category":"gastro","tags":["barrierefrei","google_entrance_accessible"],"hours":{"type":"unknown"}},{"id":"gplace_ChIJp05lyT_ecUcRPJlDf1WzlJQ","lat":47.380263,"lon":15.094520000000001,"name":"Arkadenhof Schwarzer Adler","city":"Leoben","category":"gastro","tags":["barrierefrei","google_wc_accessible","google_entrance_accessible"],"hours":{"type":"unknown"}},{"id":"gplace_ChIJL-sHqjDecUcRhIgd20QSV0M","lat":47.382391999999996,"lon":15.105858000000001,"name":"HOFER","city":"Leoben","category":"other","tags":["barrierefrei","google_wc_accessible"],"hours":{"type":"unknown"}},{"id":"gplace_ChIJC1E0NTzfcUcROYK8iof0biw","lat":47.377747299999996,"lon":15.0998256,"name":"Bäckerei Edi","city":"Leoben","category":"gastro","tags":["barrierefrei","google_wc_accessible"],"hours":{"type":"unknown"}},{"id":"gplace_ChIJcWXvWorfcUcRMt76ByPeiyY","lat":47.372310999999996,"lon":15.087620000000001,"name":"FITNESSHOUSE Leoben","city":"Leoben","category":"other","tags":["barrierefrei","google_entrance_accessible"],"hours":{"type":"unknown"}},{"id":"gplace_ChIJnw2aQD7ecUcR3PZaNEOehkE","lat":47.3828262,"lon":15.0959883,"name":"EUROSPAR","city":"Leoben","category":"other","tags":["barrierefrei","google_wc_accessible"],"hours":{"type":"unknown"}},{"id":"gplace_ChIJ-6Ffuz_ecUcRjZVMtaaS-ks","lat":47.3794855,"lon":15.095043299999997,"name":"Royal Kebap","city":"Leoben","category":"gastro","tags":["google_has_restroom"],"hours":{"type":"unknown"}},{"id":"gplace_ChIJE5vL2WXfcUcRfm7gDGlgsv4","lat":47.3807372,"lon":15.106980400000001,"name":"bp","city":"Leoben","category":"tankstelle","tags":["barrierefrei","google_wc_accessible"],"hours":{"type":"unknown"}}]