[{"id":"fuel_82766592","lat":47.579403,"lon":10.7418991,"name":"Aral","city":"","category":"tankstelle","tags":[],"operator":"REWE Kunkel OHG","opening_hours":"Su 07:00-18:00; Mo 07:00-20:00; Tu 07:00-20:00; We 07:00-20:00; Th 07:00-20:00; Fr 07:00-20:00; Sa 07:00-20:00","gplace_id":"ChIJ4d9-8JxYnEcRjz2E01hdFXM","hours":{"type":"weekly","weekly":{"0":{"isOpen":true,"periods":[{"open":420,"close":1080}]},"1":{"isOpen":true,"periods":[{"open":420,"close":1200}]},"2":{"isOpen":true,"periods":[{"open":420,"close":1200}]},"3":{"isOpen":true,"periods":[{"open":420,"close":1200}]},"4":{"isOpen":true,"periods":[{"open":420,"close":1200}]},"5":{"isOpen":true,"periods":[{"open":420,"close":1200}]},"6":{"isOpen":true,"periods":[{"open":420,"close":1200}]}},"original":"Su 07:00-18:00; Mo 07:00-20:00; Tu 07:00-20:00; We 07:00-20:00; Th 07:00-20:00; Fr 07:00-20:00; Sa 07:00-20:00"}},{"id":"fuel_139523876","lat":47.9993435,"lon":10.1528549,"name":"ESSO","city":"","category":"tankstelle","tags":[],"opening_hours":"24/7","operator":"ESSO","hours":{"type":"24_7"}},{"id":"fuel_183881566","lat":47.8806041,"lon":10.0400732,"name":"Shell","city":"Aichstetten","category":"tankstelle","tags":[],"opening_hours":"24/7","operator":"Shell","hours":{"type":"24_7"}},{"id":"fuel_255281218","lat":47.5243047,"lon":10.261975,"name":"Tankstelle","city":"","category":"tankstelle","tags":[],"gplace_id":"ChIJj1Z3XOyDnEcRgAtZb_Sx51I","hours":{"type":"unknown"}},{"id":"fuel_258338915","lat":47.6203979,"lon":10.5062738,"name":"Esso","city":"","category":"tankstelle","tags":[],"opening_hours":"Mo-Su 06:00-22:00","operator":"Esso","hours":{"type":"weekly","weekly":{"0":{"isOpen":true,"periods":[{"open":360,"close":1320}]},"1":{"isOpen":true,"periods":[{"open":360,"close":1320}]},"2":{"isOpen":true,"periods":[{"open":360,"close":1320}]},"3":{"isOpen":true,"periods":[{"open":360,"close":1320}]},"4":{"isOpen":true,"periods":[{"open":360,"close":1320}]},"5":{"isOpen":true,"periods":[{"open":360,"close":1320}]},"6":{"isOpen":true,"periods":[{"open":360,"close":1320}]}},"original":"Mo-Su 06:00-22:00"}},{"id":"fuel_267570967","lat":47.8213046,"lon":10.0080637,"name":"Tankstelle Feneberg","city":"","category":"tankstelle","tags":[],"opening_hours":"24/7","operator":"Feneberg","hours":{"type":"24_7"}},{"id":"fuel_268264019","lat":47.6424526,"lon":10.8278711,"name":"Agip","city":"Halblech","category":"tankstelle","tags":[],"opening_hours":"Mo-Su 06:00-22:00","operator":"Agip","hours":{"type":"weekly","weekly":{"0":{"isOpen":true,"periods":[{"open":360,"close":1320}]},"1":{"isOpen":true,"periods":[{"open":360,"close":1320}]},"2":{"isOpen":true,"periods":[{"open":360,"close":1320}]},"3":{"isOpen":true,"periods":[{"open":360,"close":1320}]},"4":{"isOpen":true,"periods":[{"open":360,"close":1320}]},"5":{"isOpen":true,"periods":[{"open":360,"close":1320}]},"6":{"isOpen":true,"periods":[{"open":360,"close":1320}]}},"original":"Mo-Su 06:00-22:00"}},{"id":"fuel_268265166","lat":47.6967314,"lon":10.7932516,"name":"Sunoil","city":"","category":"other","tags":[],"opening_hours":"Su 00:00+","gplace_id":"ChIJ66nKPQRbnEcRn14Vvzz0IJo","hours":{"type":"unknown","original":"Su 00:00+"}},{"id":"fuel_268657219","lat":47.6198024,"lon":10.5088442,"name":"VMarkt Tankstelle","city":"","category":"tankstelle","tags":[],"operator":"Georg Jos. Kaes Gmbh","opening_hours":"Su 00:00+","gplace_id":"ChIJrdXg6T1jnEcRnppHkNBI53A","hours":{"type":"unknown","original":"Su 00:00+"}},{"id":"fuel_270409739","lat":47.4153981,"lon":10.2750528,"name":"Esso","city":"Oberstdorf","category":"tankstelle","tags":[],"opening_hours":"Mo- Fr 06:00-22:00; Sa-Su 07:00-22:00","operator":"Mario Karsch","hours":{"type":"weekly","weekly":{"0":{"isOpen":true,"periods":[{"open":420,"close":1320}]},"1":{"isOpen":true,"periods":[{"open":360,"close":1320}]},"2":{"isOpen":true,"periods":[{"open":360,"close":1320}]},"3":{"isOpen":true,"periods":[{"open":360,"close":1320}]},"4":{"isOpen":true,"periods":[{"open":360,"close":1320}]},"5":{"isOpen":true,"periods":[{"open":360,"close":1320}]},"6":{"isOpen":true,"periods":[{"open":420,"close":1320}]}},"original":"Mo- Fr 06:00-22:00; Sa-Su 07:00-22:00"}},{"id":"fuel_274112192","lat":47.5191233,"lon":10.2817623,"name":"Esso","city":"","category":"tankstelle","tags":[],"operator":"Esso","opening_hours":"Su 08:00-21:00; Mo 06:30-22:00; Tu 06:30-22:00; We 06:30-22:00; Th 06:30-22:00; Fr 06:30-22:00; Sa 07:30-22:00","gplace_id":"ChIJl559yHSEnEcRc_cNPOA8HuE","hours":{"type":"weekly","weekly":{"0":{"isOpen":true,"periods":[{"open":480,"close":1260}]},"1":{"isOpen":true,"periods":[{"open":390,"close":1320}]},"2":{"isOpen":true,"periods":[{"open":390,"close":1320}]},"3":{"isOpen":true,"periods":[{"open":390,"close":1320}]},"4":{"isOpen":true,"periods":[{"open":390,"close":1320}]},"5":{"isOpen":true,"periods":[{"open":390,"close":1320}]},"6":{"isOpen":true,"periods":[{"open":450,"close":1320}]}},"original":"Su 08:00-21:00; Mo 06:30-22:00; Tu 06:30-22:00; We 06:30-22:00; Th 06:30-22:00; Fr 06:30-22:00; Sa 07:30-22:00"}},{"id":"fuel_276903768","lat":47.612379,"lon":10.6346029,"name":"Avia","city":"","category":"tankstelle","tags":[],"operator":"Avia","opening_hours":"Su 00:00+","gplace_id":"ChIJ7ZusOXNfnEcRHf1cfIFPUPM","hours":{"type":"unknown","original":"Su 00:00+"}},{"id":"fuel_281462272","lat":47.5040577,"lon":10.3592943,"name":"Avia","city":"","category":"tankstelle","tags":[],"opening_hours":"Mo-Fr 07:30-20:00, Sa 08:00-20:00, Su,PH 07:30-20:00","hours":{"type":"weekly","weekly":{"0":{"isOpen":false,"periods":[]},"1":{"isOpen":true,"periods":[{"open":450,"close":1200},{"open":480,"close":1200},{"open":450,"close":1200}]},"2":{"isOpen":true,"periods":[{"open":450,"close":1200},{"open":480,"close":1200},{"open":450,"close":1200}]},"3":{"isOpen":true,"periods":[{"open":450,"close":1200},{"open":480,"close":1200},{"open":450,"close":1200}]},"4":{"isOpen":true,"periods":[{"open":450,"close":1200},{"open":480,"close":1200},{"open":450,"close":1200}]},"5":{"isOpen":true,"periods":[{"open":450,"close":1200},{"open":480,"close":1200},{"open":450,"close":1200}]},"6":{"isOpen":false,"periods":[]}},"original":"Mo-Fr 07:30-20:00, Sa 08:00-20:00, Su,PH 07:30-20:00"}},{"id":"fuel_288034102","lat":47.6975969,"lon":10.7918086,"name":"OMV","city":"","category":"tankstelle","tags":[],"operator":"OMV","opening_hours":"Su 06:00-22:00; Mo 06:00-22:00; Tu 06:00-22:00; We 06:00-22:00; Th 06:00-22:00; Fr 06:00-22:00; Sa 06:00-22:00","gplace_id":"ChIJsWnu6ARbnEcRXBW9cNesMoM","hours":{"type":"weekly","weekly":{"0":{"isOpen":true,"periods":[{"open":360,"close":1320}]},"1":{"isOpen":true,"periods":[{"open":360,"close":1320}]},"2":{"isOpen":true,"periods":[{"open":360,"close":1320}]},"3":{"isOpen":true,"periods":[{"open":360,"close":1320}]},"4":{"isOpen":true,"periods":[{"open":360,"close":1320}]},"5":{"isOpen":true,"periods":[{"open":360,"close":1320}]},"6":{"isOpen":true,"periods":[{"open":360,"close":1320}]}},"original":"Su 06:00-22:00; Mo 06:00-22:00; Tu 06:00-22:00; We 06:00-22:00; Th 06:00-22:00; Fr 06:00-22:00; Sa 06:00-22:00"}},{"id":"fuel_288245064","lat":47.7032728,"lon":10.0493566,"name":"Feneberg Kaufmarkt","city":"","category":"other","tags":[],"opening_hours":"Mo-Sa 08:00-21:00; PH off","operator":"Fehneberg","hours":{"type":"weekly","weekly":{"0":{"isOpen":false,"periods":[]},"1":{"isOpen":true,"periods":[{"open":480,"close":1260}]},"2":{"isOpen":true,"periods":[{"open":480,"close":1260}]},"3":{"isOpen":true,"periods":[{"open":480,"close":1260}]},"4":{"isOpen":true,"periods":[{"open":480,"close":1260}]},"5":{"isOpen":true,"periods":[{"open":480,"close":1260}]},"6":{"isOpen":true,"periods":[{"open":480,"close":1260}]}},"original":"Mo-Sa 08:00-21:00; PH off"}},{"id":"fuel_289251664","lat":47.4318867,"lon":10.2692832,"name":"V-Markt","city":"Fischen im Allgäu","category":"other","tags":[],"opening_hours":"24/7","operator":"V-Markt","hours":{"type":"24_7"}},{"id":"fuel_291366532","lat":47.6895274,"lon":10.0328754,"name":"Aral","city":"Isny im Allgäu","category":"tankstelle","tags":[],"opening_hours":"24/7","operator":"Aral","hours":{"type":"24_7"}},{"id":"fuel_292042334","lat":47.6979326,"lon":10.0415958,"name":"Avia","city":"Isny im Allgäu","category":"tankstelle","tags":[],"opening_hours":"Mo-Sa 06:00-22:00, Su 07:00-22:00; PH 07:00-22:00","operator":"Avia","hours":{"type":"weekly","weekly":{"0":{"isOpen":false,"periods":[]},"1":{"isOpen":true,"periods":[{"open":360,"close":1320},{"open":420,"close":1320}]},"2":{"isOpen":true,"periods":[{"open":360,"close":1320},{"open":420,"close":1320}]},"3":{"isOpen":true,"periods":[{"open":360,"close":1320},{"open":420,"close":1320}]},"4":{"isOpen":true,"periods":[{"open":360,"close":1320},{"open":420,"close":1320}]},"5":{"isOpen":true,"periods":[{"open":360,"close":1320},{"open":420,"close":1320}]},"6":{"isOpen":true,"periods":[{"open":360,"close":1320},{"open":420,"close":1320}]}},"original":"Mo-Sa 06:00-22:00, Su 07:00-22:00; PH 07:00-22:00"}},{"id":"fuel_293441281","lat":47.8463712,"lon":10.2829118,"name":"Agip","city":"","category":"tankstelle","tags":["sanifair","barrierefrei","kostenpflichtig"],"opening_hours":"24/7","operator":"Agip","hours":{"type":"24_7"},"fee":"yes"},{"id":"fuel_297823937","lat":47.5553634,"lon":10.0255644,"name":"Esso","city":"Oberstaufen","category":"tankstelle","tags":[],"opening_hours":"Mo-Su 07:00-22:00","operator":"Esso","hours":{"type":"weekly","weekly":{"0":{"isOpen":true,"periods":[{"open":420,"close":1320}]},"1":{"isOpen":true,"periods":[{"open":420,"close":1320}]},"2":{"isOpen":true,"periods":[{"open":420,"close":1320}]},"3":{"isOpen":true,"periods":[{"open":420,"close":1320}]},"4":{"isOpen":true,"periods":[{"open":420,"close":1320}]},"5":{"isOpen":true,"periods":[{"open":420,"close":1320}]},"6":{"isOpen":true,"periods":[{"open":420,"close":1320}]}},"original":"Mo-Su 07:00-22:00"}},{"id":"fuel_302742733","lat":47.5149178,"lon":10.4027811,"name":"Sunoil","city":"","category":"other","tags":[],"opening_hours":"Mo-Su,PH 07:30-20:00","hours":{"type":"weekly","weekly":{"0":{"isOpen":true,"periods":[{"open":450,"close":1200}]},"1":{"isOpen":true,"periods":[{"open":450,"close":1200}]},"2":{"isOpen":true,"periods":[{"open":450,"close":1200}]},"3":{"isOpen":true,"periods":[{"open":450,"close":1200}]},"4":{"isOpen":true,"periods":[{"open":450,"close":1200}]},"5":{"isOpen":true,"periods":[{"open":450,"close":1200}]},"6":{"isOpen":true,"periods":[{"open":450,"close":1200}]}},"original":"Mo-Su,PH 07:30-20:00"}},{"id":"fuel_305785571","lat":47.4136569,"lon":10.275568,"name":"Agip","city":"Oberstdorf","category":"tankstelle","tags":[],"opening_hours":"Mo-Sa 06:30-20:00; Su 08:00-20:00","operator":"Agip","hours":{"type":"weekly","weekly":{"0":{"isOpen":true,"periods":[{"open":480,"close":1200}]},"1":{"isOpen":true,"periods":[{"open":390,"close":1200}]},"2":{"isOpen":true,"periods":[{"open":390,"close":1200}]},"3":{"isOpen":true,"periods":[{"open":390,"close":1200}]},"4":{"isOpen":true,"periods":[{"open":390,"close":1200}]},"5":{"isOpen":true,"periods":[{"open":390,"close":1200}]},"6":{"isOpen":true,"periods":[{"open":390,"close":1200}]}},"original":"Mo-Sa 06:30-20:00; Su 08:00-20:00"}},{"id":"fuel_310247047","lat":47.7476209,"lon":10.2395097,"name":"Avia","city":"","category":"tankstelle","tags":[],"opening_hours":"24/7","operator":"AVIA","hours":{"type":"24_7"}},{"id":"fuel_313546500","lat":47.7716156,"lon":10.7485115,"name":"Pflanzenöl","city":"","category":"other","tags":[],"gplace_id":"not_found","hours":{"type":"unknown"}},{"id":"fuel_316010200","lat":47.5583762,"lon":10.6950673,"name":"Osterried","city":"","category":"other","tags":[],"gplace_id":"ChIJwVvSAN_1nEcRGrkR_5iaMr4","hours":{"type":"unknown"}},{"id":"fuel_316011991","lat":47.8493154,"lon":10.2810498,"name":"Agip","city":"","category":"tankstelle","tags":["sanifair","barrierefrei","kostenpflichtig"],"opening_hours":"24/7","operator":"Agip","hours":{"type":"24_7"},"fee":"yes"},{"id":"fuel_324556730","lat":47.6563638,"lon":10.0885693,"name":"Agip","city":"","category":"tankstelle","tags":[],"operator":"Agip","opening_hours":"Su 00:00+","gplace_id":"ChIJ93L8m0KCm0cRpCcCxJ-2dyI","hours":{"type":"unknown","original":"Su 00:00+"}},{"id":"fuel_326847423","lat":47.5510948,"lon":10.2511433,"name":"SB-Tank","city":"","category":"other","tags":[],"opening_hours":"24/7","hours":{"type":"24_7"}},{"id":"fuel_343406352","lat":47.5830731,"lon":10.5647082,"name":"Autohaus Brunhuber","city":"Pfronten","category":"other","tags":[],"opening_hours":"Mo-Sa 08:00-19:00; Su 09:00-18:00","operator":"Autohaus Brunhuber","hours":{"type":"weekly","weekly":{"0":{"isOpen":true,"periods":[{"open":540,"close":1080}]},"1":{"isOpen":true,"periods":[{"open":480,"close":1140}]},"2":{"isOpen":true,"periods":[{"open":480,"close":1140}]},"3":{"isOpen":true,"periods":[{"open":480,"close":1140}]},"4":{"isOpen":true,"periods":[{"open":480,"close":1140}]},"5":{"isOpen":true,"periods":[{"open":480,"close":1140}]},"6":{"isOpen":true,"periods":[{"open":480,"close":1140}]}},"original":"Mo-Sa 08:00-19:00; Su 09:00-18:00"}},{"id":"fuel_345282120","lat":47.5844052,"lon":10.5594995,"name":"Eni Tankstelle Pfronten","city":"Pfronten","category":"tankstelle","tags":[],"opening_hours":"Mo-Fr 06:00-22:00; Sa-Su 07:00-22:00","operator":"Eni","hours":{"type":"weekly","weekly":{"0":{"isOpen":true,"periods":[{"open":420,"close":1320}]},"1":{"isOpen":true,"periods":[{"open":360,"close":1320}]},"2":{"isOpen":true,"periods":[{"open":360,"close":1320}]},"3":{"isOpen":true,"periods":[{"open":360,"close":1320}]},"4":{"isOpen":true,"periods":[{"open":360,"close":1320}]},"5":{"isOpen":true,"periods":[{"open":360,"close":1320}]},"6":{"isOpen":true,"periods":[{"open":420,"close":1320}]}},"original":"Mo-Fr 06:00-22:00; Sa-Su 07:00-22:00"}},{"id":"fuel_355951769","lat":47.7896232,"lon":10.94224,"name":"Tankstelle","city":"","category":"tankstelle","tags":[],"operator":"BayWa","opening_hours":"Su 00:00+","gplace_id":"ChIJLU-pXdZOnEcRSvShBQ8evYU","hours":{"type":"unknown","original":"Su 00:00+"}},{"id":"fuel_383738534","lat":47.7735399,"lon":10.6034059,"name":"Aral","city":"","category":"tankstelle","tags":[],"operator":"Aral","opening_hours":"Su 08:00-21:00; Mo 06:00-22:00; We 06:00-22:00; Th 06:00-22:00; Fr 06:00-22:00; Sa 07:00-22:00","gplace_id":"ChIJieBJ1etonEcRYgWbM4dUK6U","hours":{"type":"weekly","weekly":{"0":{"isOpen":true,"periods":[{"open":480,"close":1260}]},"1":{"isOpen":true,"periods":[{"open":360,"close":1320}]},"2":{"isOpen":false,"periods":[]},"3":{"isOpen":true,"periods":[{"open":360,"close":1320}]},"4":{"isOpen":true,"periods":[{"open":360,"close":1320}]},"5":{"isOpen":true,"periods":[{"open":360,"close":1320}]},"6":{"isOpen":true,"periods":[{"open":420,"close":1320}]}},"original":"Su 08:00-21:00; Mo 06:00-22:00; We 06:00-22:00; Th 06:00-22:00; Fr 06:00-22:00; Sa 07:00-22:00"}},{"id":"fuel_383745220","lat":47.782846,"lon":10.620411,"name":"Jet","city":"","category":"tankstelle","tags":[],"operator":"JET","opening_hours":"Su 06:00-22:00; Mo 05:30-22:00; Tu 05:30-22:00; We 05:30-22:00; Th 05:30-22:00; Fr 05:30-22:00; Sa 05:30-22:00","gplace_id":"ChIJc9o2ZPxonEcRXffaDMhwnXQ","hours":{"type":"weekly","weekly":{"0":{"isOpen":true,"periods":[{"open":360,"close":1320}]},"1":{"isOpen":true,"periods":[{"open":330,"close":1320}]},"2":{"isOpen":true,"periods":[{"open":330,"close":1320}]},"3":{"isOpen":true,"periods":[{"open":330,"close":1320}]},"4":{"isOpen":true,"periods":[{"open":330,"close":1320}]},"5":{"isOpen":true,"periods":[{"open":330,"close":1320}]},"6":{"isOpen":true,"periods":[{"open":330,"close":1320}]}},"original":"Su 06:00-22:00; Mo 05:30-22:00; Tu 05:30-22:00; We 05:30-22:00; Th 05:30-22:00; Fr 05:30-22:00; Sa 05:30-22:00"}},{"id":"fuel_383745223","lat":47.785446,"lon":10.622004,"name":"ESSO","city":"Marktoberdorf","category":"tankstelle","tags":[],"operator":"Esso","opening_hours":"Su 06:00-21:00; Mo 06:00-21:00; Tu 06:00-21:00; We 06:00-21:00; Th 06:00-21:00; Fr 06:00-21:00; Sa 06:00-21:00","gplace_id":"ChIJVV7Au_1onEcRIg4DY4w98HY","hours":{"type":"weekly","weekly":{"0":{"isOpen":true,"periods":[{"open":360,"close":1260}]},"1":{"isOpen":true,"periods":[{"open":360,"close":1260}]},"2":{"isOpen":true,"periods":[{"open":360,"close":1260}]},"3":{"isOpen":true,"periods":[{"open":360,"close":1260}]},"4":{"isOpen":true,"periods":[{"open":360,"close":1260}]},"5":{"isOpen":true,"periods":[{"open":360,"close":1260}]},"6":{"isOpen":true,"periods":[{"open":360,"close":1260}]}},"original":"Su 06:00-21:00; Mo 06:00-21:00; Tu 06:00-21:00; We 06:00-21:00; Th 06:00-21:00; Fr 06:00-21:00; Sa 06:00-21:00"}},{"id":"fuel_383836787","lat":47.7753731,"lon":10.6085361,"name":"Freie Tankstelle Huber","city":"","category":"tankstelle","tags":[],"operator":"Freie Tankstelle","opening_hours":"Su 00:00+","gplace_id":"ChIJoQSD1-5onEcR_4B98oNatMs","hours":{"type":"unknown","original":"Su 00:00+"}},{"id":"fuel_392243066","lat":47.9946891,"lon":10.1792651,"name":"BK Tankstelle","city":"","category":"tankstelle","tags":[],"operator":"BK Benzin Kontor AG","opening_hours":"Su 06:30-22:30; Mo 05:30-22:30; Tu 05:30-22:30; We 05:30-22:30; Th 05:30-22:30; Fr 05:30-22:30; Sa 06:30-22:30","gplace_id":"ChIJFZEJBFvym0cRbz_8iYkN29c","hours":{"type":"weekly","weekly":{"0":{"isOpen":true,"periods":[{"open":390,"close":1350}]},"1":{"isOpen":true,"periods":[{"open":330,"close":1350}]},"2":{"isOpen":true,"periods":[{"open":330,"close":1350}]},"3":{"isOpen":true,"periods":[{"open":330,"close":1350}]},"4":{"isOpen":true,"periods":[{"open":330,"close":1350}]},"5":{"isOpen":true,"periods":[{"open":330,"close":1350}]},"6":{"isOpen":true,"periods":[{"open":390,"close":1350}]}},"original":"Su 06:30-22:30; Mo 05:30-22:30; Tu 05:30-22:30; We 05:30-22:30; Th 05:30-22:30; Fr 05:30-22:30; Sa 06:30-22:30"}},{"id":"fuel_392768868","lat":47.8932865,"lon":10.0816245,"name":"Sunoil","city":"Aichstetten","category":"other","tags":[],"opening_hours":"24/7","hours":{"type":"24_7"}},{"id":"fuel_476364574","lat":47.8610315,"lon":10.1293973,"name":"AVIA","city":"","category":"tankstelle","tags":[],"operator":"AVIA","opening_hours":"Su 00:00+","gplace_id":"ChIJlcEpF26Om0cRc9OCv_XaWPE","hours":{"type":"unknown","original":"Su 00:00+"}},{"id":"fuel_506486406","lat":47.946898,"lon":10.385503,"name":"BK","city":"","category":"other","tags":[],"operator":"Koller","opening_hours":"Mo 08:00-18:00; Tu 08:00-18:00; We 08:00-18:00; Th 08:00-18:00; Fr 08:00-15:00","gplace_id":"ChIJtYR6SCALnEcRFcEPjPvVFEU","hours":{"type":"weekly","weekly":{"0":{"isOpen":false,"periods":[]},"1":{"isOpen":true,"periods":[{"open":480,"close":1080}]},"2":{"isOpen":true,"periods":[{"open":480,"close":1080}]},"3":{"isOpen":true,"periods":[{"open":480,"close":1080}]},"4":{"isOpen":true,"periods":[{"open":480,"close":1080}]},"5":{"isOpen":true,"periods":[{"open":480,"close":900}]},"6":{"isOpen":false,"periods":[]}},"original":"Mo 08:00-18:00; Tu 08:00-18:00; We 08:00-18:00; Th 08:00-18:00; Fr 08:00-15:00"}},{"id":"fuel_506486485","lat":47.9476383,"lon":10.3902936,"name":"Avia-Tankstelle","city":"","category":"tankstelle","tags":[],"operator":"Kern","opening_hours":"Su 00:00+","gplace_id":"ChIJ1ZMCBiILnEcRUWlWh5kWtgM","hours":{"type":"unknown","original":"Su 00:00+"}},{"id":"fuel_528854028","lat":47.9794398,"lon":10.1713903,"name":"Esso HARALD MAYER","city":"Memmingen","category":"tankstelle","tags":[],"opening_hours":"Mo-Fr 06:00-23:00; Sa-Su 07:00-23:00","operator":"Esso","hours":{"type":"weekly","weekly":{"0":{"isOpen":true,"periods":[{"open":420,"close":1380}]},"1":{"isOpen":true,"periods":[{"open":360,"close":1380}]},"2":{"isOpen":true,"periods":[{"open":360,"close":1380}]},"3":{"isOpen":true,"periods":[{"open":360,"close":1380}]},"4":{"isOpen":true,"periods":[{"open":360,"close":1380}]},"5":{"isOpen":true,"periods":[{"open":360,"close":1380}]},"6":{"isOpen":true,"periods":[{"open":420,"close":1380}]}},"original":"Mo-Fr 06:00-23:00; Sa-Su 07:00-23:00"}},{"id":"fuel_614228728","lat":47.923455,"lon":10.9268374,"name":"Mayr Reichling","city":"","category":"other","tags":[],"opening_hours":"Mo 07:30-17:30; Tu 07:30-17:30; We 07:30-17:30; Th 07:30-17:30; Fr 07:30-17:30; Sa 07:30-12:00","gplace_id":"ChIJpzYiLN05nEcRoWZhz02F5G0","hours":{"type":"weekly","weekly":{"0":{"isOpen":false,"periods":[]},"1":{"isOpen":true,"periods":[{"open":450,"close":1050}]},"2":{"isOpen":true,"periods":[{"open":450,"close":1050}]},"3":{"isOpen":true,"periods":[{"open":450,"close":1050}]},"4":{"isOpen":true,"periods":[{"open":450,"close":1050}]},"5":{"isOpen":true,"periods":[{"open":450,"close":1050}]},"6":{"isOpen":true,"periods":[{"open":450,"close":720}]}},"original":"Mo 07:30-17:30; Tu 07:30-17:30; We 07:30-17:30; Th 07:30-17:30; Fr 07:30-17:30; Sa 07:30-12:00"}},{"id":"fuel_675080111","lat":47.9035266,"lon":10.6384272,"name":"V-Markt","city":"Kaufbeuren","category":"other","tags":[],"opening_hours":"24/7","operator":"V-Markt","hours":{"type":"24_7"}},{"id":"fuel_679776908","lat":47.5551198,"lon":10.2309187,"name":"Avia","city":"Immenstadt im Allgäu","category":"tankstelle","tags":[],"opening_hours":"24/7","operator":"Avia","hours":{"type":"24_7"}},{"id":"fuel_705938097","lat":47.6120218,"lon":10.102964,"name":"PIA Tankstelle","city":"","category":"tankstelle","tags":[],"gplace_id":"not_found","hours":{"type":"unknown"}},{"id":"fuel_732712681","lat":47.6180438,"lon":10.8084048,"name":"Köpf Quadconnection","city":"","category":"other","tags":[],"gplace_id":"not_found","hours":{"type":"unknown"}},{"id":"fuel_732712918","lat":47.9917083,"lon":10.1605298,"name":"Aral","city":"","category":"tankstelle","tags":[],"opening_hours":"Mo-Su 06:00-24:00","operator":"ADOLF PRÄG GMBH & CO. KG","hours":{"type":"weekly","weekly":{"0":{"isOpen":true,"periods":[{"open":360,"close":1440}]},"1":{"isOpen":true,"periods":[{"open":360,"close":1440}]},"2":{"isOpen":true,"periods":[{"open":360,"close":1440}]},"3":{"isOpen":true,"periods":[{"open":360,"close":1440}]},"4":{"isOpen":true,"periods":[{"open":360,"close":1440}]},"5":{"isOpen":true,"periods":[{"open":360,"close":1440}]},"6":{"isOpen":true,"periods":[{"open":360,"close":1440}]}},"original":"Mo-Su 06:00-24:00"}},{"id":"fuel_732713173","lat":47.95533,"lon":10.1839,"name":"Karl Stetter","city":"Memmingen","category":"other","tags":[],"opening_hours":"Mo-Fr 09:00-12:00,13:00-18:00; Sa 09:00-12:00","hours":{"type":"weekly","weekly":{"0":{"isOpen":false,"periods":[]},"1":{"isOpen":true,"periods":[{"open":540,"close":720},{"open":780,"close":1080}]},"2":{"isOpen":true,"periods":[{"open":540,"close":720},{"open":780,"close":1080}]},"3":{"isOpen":true,"periods":[{"open":540,"close":720},{"open":780,"close":1080}]},"4":{"isOpen":true,"periods":[{"open":540,"close":720},{"open":780,"close":1080}]},"5":{"isOpen":true,"periods":[{"open":540,"close":720},{"open":780,"close":1080}]},"6":{"isOpen":true,"periods":[{"open":540,"close":720}]}},"original":"Mo-Fr 09:00-12:00,13:00-18:00; Sa 09:00-12:00"}},{"id":"fuel_732713438","lat":47.90044,"lon":10.97349,"name":"BST Car Service","city":"","category":"other","tags":[],"opening_hours":"Mo-Fr 06:00-18:00","hours":{"type":"weekly","weekly":{"0":{"isOpen":false,"periods":[]},"1":{"isOpen":true,"periods":[{"open":360,"close":1080}]},"2":{"isOpen":true,"periods":[{"open":360,"close":1080}]},"3":{"isOpen":true,"periods":[{"open":360,"close":1080}]},"4":{"isOpen":true,"periods":[{"open":360,"close":1080}]},"5":{"isOpen":true,"periods":[{"open":360,"close":1080}]},"6":{"isOpen":false,"periods":[]}},"original":"Mo-Fr 06:00-18:00"}},{"id":"fuel_732715528","lat":47.654239,"lon":10.6087661,"name":"Avia","city":"","category":"tankstelle","tags":[],"opening_hours":"Mo-Fr 07:00-19:00; Sa 07:00-18:00; Su 09:00-13:00","operator":"Avia","hours":{"type":"weekly","weekly":{"0":{"isOpen":true,"periods":[{"open":540,"close":780}]},"1":{"isOpen":true,"periods":[{"open":420,"close":1140}]},"2":{"isOpen":true,"periods":[{"open":420,"close":1140}]},"3":{"isOpen":true,"periods":[{"open":420,"close":1140}]},"4":{"isOpen":true,"periods":[{"open":420,"close":1140}]},"5":{"isOpen":true,"periods":[{"open":420,"close":1140}]},"6":{"isOpen":true,"periods":[{"open":420,"close":1080}]}},"original":"Mo-Fr 07:00-19:00; Sa 07:00-18:00; Su 09:00-13:00"}},{"id":"fuel_732716530","lat":47.5777705,"lon":10.2413138,"name":"BK Tankstelle","city":"Immenstadt im Allgäu","category":"tankstelle","tags":[],"opening_hours":"Mo-Fr 05:00-22:00; Sa-Su 07:00-22:00","hours":{"type":"weekly","weekly":{"0":{"isOpen":true,"periods":[{"open":420,"close":1320}]},"1":{"isOpen":true,"periods":[{"open":300,"close":1320}]},"2":{"isOpen":true,"periods":[{"open":300,"close":1320}]},"3":{"isOpen":true,"periods":[{"open":300,"close":1320}]},"4":{"isOpen":true,"periods":[{"open":300,"close":1320}]},"5":{"isOpen":true,"periods":[{"open":300,"close":1320}]},"6":{"isOpen":true,"periods":[{"open":420,"close":1320}]}},"original":"Mo-Fr 05:00-22:00; Sa-Su 07:00-22:00"}},{"id":"fuel_1312153655","lat":47.5726221,"lon":10.2890623,"name":"AVIA","city":"Rettenberg","category":"tankstelle","tags":[],"opening_hours":"Mo-Fr 07:00-19:00; Sa 08:00-18:00; Su 09:00-18:00","operator":"Avia","hours":{"type":"weekly","weekly":{"0":{"isOpen":true,"periods":[{"open":540,"close":1080}]},"1":{"isOpen":true,"periods":[{"open":420,"close":1140}]},"2":{"isOpen":true,"periods":[{"open":420,"close":1140}]},"3":{"isOpen":true,"periods":[{"open":420,"close":1140}]},"4":{"isOpen":true,"periods":[{"open":420,"close":1140}]},"5":{"isOpen":true,"periods":[{"open":420,"close":1140}]},"6":{"isOpen":true,"periods":[{"open":480,"close":1080}]}},"original":"Mo-Fr 07:00-19:00; Sa 08:00-18:00; Su 09:00-18:00"}},{"id":"fuel_1732151142","lat":47.5588014,"lon":10.2109192,"name":"V-Markt Immenstadt","city":"Immenstadt im Allgäu","category":"other","tags":[],"opening_hours":"24/7","hours":{"type":"24_7"}},{"id":"fuel_2103540920","lat":47.6015579,"lon":10.2548836,"name":"Agip","city":"","category":"tankstelle","tags":[],"opening_hours":"Mo-Fr 05:00-22:00; Sa 06:00-22:00; Su 07:00-22:00","operator":"Agip","hours":{"type":"weekly","weekly":{"0":{"isOpen":true,"periods":[{"open":420,"close":1320}]},"1":{"isOpen":true,"periods":[{"open":300,"close":1320}]},"2":{"isOpen":true,"periods":[{"open":300,"close":1320}]},"3":{"isOpen":true,"periods":[{"open":300,"close":1320}]},"4":{"isOpen":true,"periods":[{"open":300,"close":1320}]},"5":{"isOpen":true,"periods":[{"open":300,"close":1320}]},"6":{"isOpen":true,"periods":[{"open":360,"close":1320}]}},"original":"Mo-Fr 05:00-22:00; Sa 06:00-22:00; Su 07:00-22:00"}},{"id":"fuel_2154407323","lat":47.7763513,"lon":10.7510832,"name":"Tankstelle","city":"","category":"tankstelle","tags":[],"opening_hours":"24/7","operator":"Avia","hours":{"type":"24_7"}},{"id":"fuel_2324497995","lat":47.6481777,"lon":10.4547355,"name":"AVIA Tankstelle","city":"Oy-Mittelberg","category":"tankstelle","tags":[],"opening_hours":"24/7","operator":"Keslar GmbH","hours":{"type":"24_7"}},{"id":"fuel_3109336285","lat":47.9010289,"lon":10.6401146,"name":"Erdgas","city":"","category":"tankstelle","tags":[],"operator":"Erdgas Schwaben","opening_hours":"Mo-Th 04:00-23:30; Fr-Sa 04:00-00:00; Su 04:00-23:00","hours":{"type":"weekly","weekly":{"0":{"isOpen":true,"periods":[{"open":240,"close":1380}]},"1":{"isOpen":true,"periods":[{"open":240,"close":1410}]},"2":{"isOpen":true,"periods":[{"open":240,"close":1410}]},"3":{"isOpen":true,"periods":[{"open":240,"close":1410}]},"4":{"isOpen":true,"periods":[{"open":240,"close":1410}]},"5":{"isOpen":true,"periods":[{"open":240,"close":1440}]},"6":{"isOpen":true,"periods":[{"open":240,"close":1440}]}},"original":"Mo-Th 04:00-23:30; Fr-Sa 04:00-00:00; Su 04:00-23:00"}},{"id":"fuel_3305509556","lat":47.5632972,"lon":10.2262284,"name":"Avia","city":"Immenstadt im Allgäu","category":"tankstelle","tags":[],"opening_hours":"Mo-Fr 06:00-22:00; Sa 07:00-22:00; Su 08:00-22:00","hours":{"type":"weekly","weekly":{"0":{"isOpen":true,"periods":[{"open":480,"close":1320}]},"1":{"isOpen":true,"periods":[{"open":360,"close":1320}]},"2":{"isOpen":true,"periods":[{"open":360,"close":1320}]},"3":{"isOpen":true,"periods":[{"open":360,"close":1320}]},"4":{"isOpen":true,"periods":[{"open":360,"close":1320}]},"5":{"isOpen":true,"periods":[{"open":360,"close":1320}]},"6":{"isOpen":true,"periods":[{"open":420,"close":1320}]}},"original":"Mo-Fr 06:00-22:00; Sa 07:00-22:00; Su 08:00-22:00"}},{"id":"fuel_3640830063","lat":47.8838909,"lon":10.2483245,"name":"Aral","city":"Bad Grönenbach","category":"tankstelle","tags":[],"opening_hours":"24/7","operator":"Aral","hours":{"type":"24_7"}},{"id":"fuel_3714164445","lat":47.6933928,"lon":10.9885898,"name":"Tankstelle","city":"","category":"tankstelle","tags":[],"opening_hours":"Mo 08:00-18:00; Tu 08:00-18:00; We 08:00-18:00; Th 08:00-18:00; Fr 08:00-18:00; Sa 09:00-13:00","gplace_id":"ChIJ1VRUx2lSnEcRcfxPcPLjIz4","hours":{"type":"weekly","weekly":{"0":{"isOpen":false,"periods":[]},"1":{"isOpen":true,"periods":[{"open":480,"close":1080}]},"2":{"isOpen":true,"periods":[{"open":480,"close":1080}]},"3":{"isOpen":true,"periods":[{"open":480,"close":1080}]},"4":{"isOpen":true,"periods":[{"open":480,"close":1080}]},"5":{"isOpen":true,"periods":[{"open":480,"close":1080}]},"6":{"isOpen":true,"periods":[{"open":540,"close":780}]}},"original":"Mo 08:00-18:00; Tu 08:00-18:00; We 08:00-18:00; Th 08:00-18:00; Fr 08:00-18:00; Sa 09:00-13:00"}},{"id":"fuel_4241049806","lat":47.8309087,"lon":10.0043125,"name":"JET","city":"Leutkirch im Allgäu","category":"tankstelle","tags":[],"operator":"Yilmaz Zorba","opening_hours":"Su 07:00-23:00; Mo 05:00-23:00; Tu 05:00-23:00; We 05:00-23:00; Th 05:00-23:00; Fr 05:00-00:00; Sa 07:00-00:00","gplace_id":"ChIJ0ZQuHu2Qm0cRRUqmDeftgbY","hours":{"type":"weekly","weekly":{"0":{"isOpen":true,"periods":[{"open":420,"close":1380}]},"1":{"isOpen":true,"periods":[{"open":300,"close":1380}]},"2":{"isOpen":true,"periods":[{"open":300,"close":1380}]},"3":{"isOpen":true,"periods":[{"open":300,"close":1380}]},"4":{"isOpen":true,"periods":[{"open":300,"close":1380}]},"5":{"isOpen":true,"periods":[{"open":300,"close":1440}]},"6":{"isOpen":true,"periods":[{"open":420,"close":1440}]}},"original":"Su 07:00-23:00; Mo 05:00-23:00; Tu 05:00-23:00; We 05:00-23:00; Th 05:00-23:00; Fr 05:00-00:00; Sa 07:00-00:00"}},{"id":"fuel_4446903966","lat":47.7768546,"lon":10.4764573,"name":"JET","city":"","category":"tankstelle","tags":[],"operator":"JET","opening_hours":"Su 07:00-22:00; Mo 05:00-23:00; Tu 05:00-23:00; We 05:00-23:00; Th 05:00-23:00; Fr 05:00-00:00; Sa 06:00-00:00","gplace_id":"ChIJ-XGOoOFvnEcREXLuA92_lW8","hours":{"type":"weekly","weekly":{"0":{"isOpen":true,"periods":[{"open":420,"close":1320}]},"1":{"isOpen":true,"periods":[{"open":300,"close":1380}]},"2":{"isOpen":true,"periods":[{"open":300,"close":1380}]},"3":{"isOpen":true,"periods":[{"open":300,"close":1380}]},"4":{"isOpen":true,"periods":[{"open":300,"close":1380}]},"5":{"isOpen":true,"periods":[{"open":300,"close":1440}]},"6":{"isOpen":true,"periods":[{"open":360,"close":1440}]}},"original":"Su 07:00-22:00; Mo 05:00-23:00; Tu 05:00-23:00; We 05:00-23:00; Th 05:00-23:00; Fr 05:00-00:00; Sa 06:00-00:00"}},{"id":"fuel_4464603817","lat":47.9977399,"lon":10.0840077,"name":"BFT","city":"","category":"tankstelle","tags":[],"operator":"BFT","opening_hours":"Mo 08:00-19:00; Tu 08:00-19:00; We 08:00-19:00; Th 08:00-19:00; Fr 08:00-19:00; Sa 08:00-13:00","gplace_id":"ChIJVcqIqFfsm0cRvz9_9VwBiRs","hours":{"type":"weekly","weekly":{"0":{"isOpen":false,"periods":[]},"1":{"isOpen":true,"periods":[{"open":480,"close":1140}]},"2":{"isOpen":true,"periods":[{"open":480,"close":1140}]},"3":{"isOpen":true,"periods":[{"open":480,"close":1140}]},"4":{"isOpen":true,"periods":[{"open":480,"close":1140}]},"5":{"isOpen":true,"periods":[{"open":480,"close":1140}]},"6":{"isOpen":true,"periods":[{"open":480,"close":780}]}},"original":"Mo 08:00-19:00; Tu 08:00-19:00; We 08:00-19:00; Th 08:00-19:00; Fr 08:00-19:00; Sa 08:00-13:00"}},{"id":"fuel_4492449076","lat":47.5740959,"lon":10.6671362,"name":"Avia XPress","city":"Füssen","category":"tankstelle","tags":[],"operator":"Avia","opening_hours":"Su 00:00+","gplace_id":"ChIJRxnkVI31nEcR-CtCppzs9Q0","hours":{"type":"unknown","original":"Su 00:00+"}},{"id":"fuel_4697688672","lat":47.7880249,"lon":10.9272273,"name":"Freie Tankstelle","city":"","category":"tankstelle","tags":[],"opening_hours":"24/7","operator":"Freie Tankstelle","hours":{"type":"24_7"}},{"id":"fuel_4912034688","lat":47.4618263,"lon":10.267999,"name":"Esso","city":"Fischen im Allgäu","category":"tankstelle","tags":[],"opening_hours":"06:00-22:00","operator":"Esso","hours":{"type":"weekly","weekly":{"0":{"isOpen":true,"periods":[{"open":360,"close":1320}]},"1":{"isOpen":true,"periods":[{"open":360,"close":1320}]},"2":{"isOpen":true,"periods":[{"open":360,"close":1320}]},"3":{"isOpen":true,"periods":[{"open":360,"close":1320}]},"4":{"isOpen":true,"periods":[{"open":360,"close":1320}]},"5":{"isOpen":true,"periods":[{"open":360,"close":1320}]},"6":{"isOpen":true,"periods":[{"open":360,"close":1320}]}},"original":"06:00-22:00"}},{"id":"fuel_5157277425","lat":47.9442212,"lon":10.7440744,"name":"AVIA-Tankstelle","city":"","category":"tankstelle","tags":[],"operator":"Ulrike Karg","opening_hours":"Su 00:00+","gplace_id":"ChIJFVoXaSg-nEcRp76MAavLvtE","hours":{"type":"unknown","original":"Su 00:00+"}},{"id":"fuel_5180245899","lat":47.8941327,"lon":10.2636236,"name":"Tankstelle Bumann","city":"","category":"tankstelle","tags":[],"opening_hours":"Mo 08:00-18:00; Tu 08:00-18:00; We 08:00-18:00; Th 08:00-18:00; Fr 08:00-18:00; Sa 09:00-13:00","gplace_id":"ChIJ-ao_e1OKm0cRmSAQ09aZUHs","hours":{"type":"weekly","weekly":{"0":{"isOpen":false,"periods":[]},"1":{"isOpen":true,"periods":[{"open":480,"close":1080}]},"2":{"isOpen":true,"periods":[{"open":480,"close":1080}]},"3":{"isOpen":true,"periods":[{"open":480,"close":1080}]},"4":{"isOpen":true,"periods":[{"open":480,"close":1080}]},"5":{"isOpen":true,"periods":[{"open":480,"close":1080}]},"6":{"isOpen":true,"periods":[{"open":540,"close":780}]}},"original":"Mo 08:00-18:00; Tu 08:00-18:00; We 08:00-18:00; Th 08:00-18:00; Fr 08:00-18:00; Sa 09:00-13:00"}},{"id":"fuel_5282397174","lat":47.610032,"lon":10.6369112,"name":"Tankstelle","city":"","category":"tankstelle","tags":[],"gplace_id":"ChIJC4jqdJNfnEcRx1QfH3xgS98","hours":{"type":"unknown"}},{"id":"fuel_5542128060","lat":47.8432427,"lon":10.4166068,"name":"Aral","city":"","category":"tankstelle","tags":[],"operator":"Aral","opening_hours":"Su 08:00-20:30; Mo 07:00-20:30; Tu 07:00-20:30; We 07:00-20:30; Th 07:00-20:30; Fr 07:00-20:30; Sa 08:00-20:30","gplace_id":"ChIJ-9j-H19xnEcRCur_sRjlak4","hours":{"type":"weekly","weekly":{"0":{"isOpen":true,"periods":[{"open":480,"close":1230}]},"1":{"isOpen":true,"periods":[{"open":420,"close":1230}]},"2":{"isOpen":true,"periods":[{"open":420,"close":1230}]},"3":{"isOpen":true,"periods":[{"open":420,"close":1230}]},"4":{"isOpen":true,"periods":[{"open":420,"close":1230}]},"5":{"isOpen":true,"periods":[{"open":420,"close":1230}]},"6":{"isOpen":true,"periods":[{"open":480,"close":1230}]}},"original":"Su 08:00-20:30; Mo 07:00-20:30; Tu 07:00-20:30; We 07:00-20:30; Th 07:00-20:30; Fr 07:00-20:30; Sa 08:00-20:30"}},{"id":"fuel_5815956578","lat":47.8802487,"lon":10.0387332,"name":"tankpool24","city":"Aichstetten","category":"tankstelle","tags":[],"opening_hours":"24/7","operator":"tankpool24.de","hours":{"type":"24_7"}},{"id":"fuel_6128096496","lat":47.8816617,"lon":10.8914973,"name":"Total","city":"","category":"tankstelle","tags":[],"opening_hours":"Mo-Sa 06:00-21:00; Su 07:00-21:00","operator":"Total","hours":{"type":"weekly","weekly":{"0":{"isOpen":true,"periods":[{"open":420,"close":1260}]},"1":{"isOpen":true,"periods":[{"open":360,"close":1260}]},"2":{"isOpen":true,"periods":[{"open":360,"close":1260}]},"3":{"isOpen":true,"periods":[{"open":360,"close":1260}]},"4":{"isOpen":true,"periods":[{"open":360,"close":1260}]},"5":{"isOpen":true,"periods":[{"open":360,"close":1260}]},"6":{"isOpen":true,"periods":[{"open":360,"close":1260}]}},"original":"Mo-Sa 06:00-21:00; Su 07:00-21:00"}},{"id":"fuel_6149527505","lat":47.8160349,"lon":10.9030723,"name":"V-MARKT","city":"Schongau","category":"other","tags":[],"opening_hours":"24/7","operator":"V-Markt","hours":{"type":"24_7"}},{"id":"fuel_6237056985","lat":47.8069856,"lon":10.8733602,"name":"Esso","city":"","category":"tankstelle","tags":[],"operator":"Esso","opening_hours":"Su 00:00+","gplace_id":"ChIJjd-snwtGnEcRkfORkBDA1BQ","hours":{"type":"unknown","original":"Su 00:00+"}},{"id":"fuel_6364940028","lat":47.6411536,"lon":10.1131295,"name":"Tankstelle","city":"","category":"tankstelle","tags":[],"gplace_id":"not_found","hours":{"type":"unknown"}},{"id":"fuel_6397332355","lat":47.9852489,"lon":10.237098,"name":"Tankstelle","city":"","category":"tankstelle","tags":[],"gplace_id":"not_found","hours":{"type":"unknown"}},{"id":"fuel_6400236476","lat":47.98595,"lon":10.2368975,"name":"Flugtankstelle","city":"","category":"other","tags":[],"operator":"Flugtankstelle","gplace_id":"not_found","hours":{"type":"unknown"}},{"id":"fuel_6463814170","lat":47.8703655,"lon":10.6291217,"name":"Jet","city":"","category":"tankstelle","tags":[],"operator":"JET","opening_hours":"Su 07:00-22:00; Mo 06:00-22:00; Tu 06:00-22:00; We 06:00-22:00; Th 06:00-22:00; Fr 06:00-22:00; Sa 06:00-22:00","gplace_id":"ChIJkXQ_MC9rnEcRwVAGjQx0wxY","hours":{"type":"weekly","weekly":{"0":{"isOpen":true,"periods":[{"open":420,"close":1320}]},"1":{"isOpen":true,"periods":[{"open":360,"close":1320}]},"2":{"isOpen":true,"periods":[{"open":360,"close":1320}]},"3":{"isOpen":true,"periods":[{"open":360,"close":1320}]},"4":{"isOpen":true,"periods":[{"open":360,"close":1320}]},"5":{"isOpen":true,"periods":[{"open":360,"close":1320}]},"6":{"isOpen":true,"periods":[{"open":360,"close":1320}]}},"original":"Su 07:00-22:00; Mo 06:00-22:00; Tu 06:00-22:00; We 06:00-22:00; Th 06:00-22:00; Fr 06:00-22:00; Sa 06:00-22:00"}},{"id":"fuel_6722983452","lat":47.9353789,"lon":10.8322511,"name":"SEELoel","city":"Fuchstal","category":"other","tags":[],"operator":"SEEL Mineralöl-Handels GmbH & Co. KG","opening_hours":"Su 00:00+","gplace_id":"ChIJdwOktNE-nEcRRzUTewT9gHA","hours":{"type":"unknown","original":"Su 00:00+"}},{"id":"fuel_6812700858","lat":47.6246169,"lon":10.8017978,"name":"1A Autoservice Gschwill","city":"","category":"tankstelle","tags":[],"operator":"Freie Tankstelle","opening_hours":"Su 00:00+","gplace_id":"ChIJSf-mpw1ZnEcRLTsXFZVyxyU","hours":{"type":"unknown","original":"Su 00:00+"}},{"id":"fuel_7111759501","lat":47.8845304,"lon":10.6368756,"name":"Aral","city":"","category":"tankstelle","tags":[],"operator":"Aral","opening_hours":"Su 08:00-22:00; Mo 06:00-22:00; Tu 06:00-22:00; We 06:00-22:00; Th 06:00-22:00; Fr 06:00-22:00; Sa 07:00-22:00","gplace_id":"ChIJO1aXEmprnEcRr7NW5qHwMS0","hours":{"type":"weekly","weekly":{"0":{"isOpen":true,"periods":[{"open":480,"close":1320}]},"1":{"isOpen":true,"periods":[{"open":360,"close":1320}]},"2":{"isOpen":true,"periods":[{"open":360,"close":1320}]},"3":{"isOpen":true,"periods":[{"open":360,"close":1320}]},"4":{"isOpen":true,"periods":[{"open":360,"close":1320}]},"5":{"isOpen":true,"periods":[{"open":360,"close":1320}]},"6":{"isOpen":true,"periods":[{"open":420,"close":1320}]}},"original":"Su 08:00-22:00; Mo 06:00-22:00; Tu 06:00-22:00; We 06:00-22:00; Th 06:00-22:00; Fr 06:00-22:00; Sa 07:00-22:00"}},{"id":"fuel_7178713326","lat":47.8835633,"lon":10.620723,"name":"Independent","city":"","category":"other","tags":[],"operator":"V-Markt","opening_hours":"Su 00:00+","gplace_id":"ChIJv2Ab-n1rnEcREoOSkKLMQmE","hours":{"type":"unknown","original":"Su 00:00+"}},{"id":"fuel_7194863057","lat":47.8781988,"lon":10.6123771,"name":"Agip","city":"","category":"tankstelle","tags":[],"operator":"Agip","opening_hours":"Su 08:00-22:00; Mo 06:00-22:00; Tu 06:00-22:00; We 06:00-22:00; Th 06:00-22:00; Fr 06:00-22:00; Sa 07:00-22:00","gplace_id":"ChIJD7kOLp1snEcRbXhS-BvZLdE","hours":{"type":"weekly","weekly":{"0":{"isOpen":true,"periods":[{"open":480,"close":1320}]},"1":{"isOpen":true,"periods":[{"open":360,"close":1320}]},"2":{"isOpen":true,"periods":[{"open":360,"close":1320}]},"3":{"isOpen":true,"periods":[{"open":360,"close":1320}]},"4":{"isOpen":true,"periods":[{"open":360,"close":1320}]},"5":{"isOpen":true,"periods":[{"open":360,"close":1320}]},"6":{"isOpen":true,"periods":[{"open":420,"close":1320}]}},"original":"Su 08:00-22:00; Mo 06:00-22:00; Tu 06:00-22:00; We 06:00-22:00; Th 06:00-22:00; Fr 06:00-22:00; Sa 07:00-22:00"}},{"id":"fuel_7256039910","lat":47.9332312,"lon":10.6073582,"name":"Jet","city":"Pforzen","category":"tankstelle","tags":[],"opening_hours":"Mo-Fr 05:00-22:00; Sa 06:00-22:00; Su 07:00-22:00","operator":"JET","hours":{"type":"weekly","weekly":{"0":{"isOpen":true,"periods":[{"open":420,"close":1320}]},"1":{"isOpen":true,"periods":[{"open":300,"close":1320}]},"2":{"isOpen":true,"periods":[{"open":300,"close":1320}]},"3":{"isOpen":true,"periods":[{"open":300,"close":1320}]},"4":{"isOpen":true,"periods":[{"open":300,"close":1320}]},"5":{"isOpen":true,"periods":[{"open":300,"close":1320}]},"6":{"isOpen":true,"periods":[{"open":360,"close":1320}]}},"original":"Mo-Fr 05:00-22:00; Sa 06:00-22:00; Su 07:00-22:00"}},{"id":"fuel_7456875951","lat":47.5652825,"lon":10.0148427,"name":"Avia","city":"","category":"tankstelle","tags":[],"operator":"Avia","opening_hours":"Su 00:00+","gplace_id":"ChIJm5vv8xp5m0cRWMgUGAogKzs","hours":{"type":"unknown","original":"Su 00:00+"}},{"id":"fuel_8438864915","lat":47.9242608,"lon":10.6688923,"name":"PINOIL Service-Station Nieberle","city":"","category":"other","tags":[],"opening_hours":"Mo-Fr 06:30-19:30; Sa 07:30-19:30; Su 08:30-19:30","operator":"C. Nieberle","hours":{"type":"weekly","weekly":{"0":{"isOpen":true,"periods":[{"open":510,"close":1170}]},"1":{"isOpen":true,"periods":[{"open":390,"close":1170}]},"2":{"isOpen":true,"periods":[{"open":390,"close":1170}]},"3":{"isOpen":true,"periods":[{"open":390,"close":1170}]},"4":{"isOpen":true,"periods":[{"open":390,"close":1170}]},"5":{"isOpen":true,"periods":[{"open":390,"close":1170}]},"6":{"isOpen":true,"periods":[{"open":450,"close":1170}]}},"original":"Mo-Fr 06:30-19:30; Sa 07:30-19:30; Su 08:30-19:30"}},{"id":"fuel_8494720972","lat":47.8917512,"lon":10.6122864,"name":"Agip","city":"","category":"tankstelle","tags":[],"operator":"AGIP","opening_hours":"Su 07:00-22:00; Mo 05:00-22:00; Tu 05:00-22:00; We 05:00-22:00; Th 05:00-22:00; Fr 05:00-22:00; Sa 06:00-22:00","gplace_id":"ChIJLSzd-qNsnEcR4P9Yck35nSg","hours":{"type":"weekly","weekly":{"0":{"isOpen":true,"periods":[{"open":420,"close":1320}]},"1":{"isOpen":true,"periods":[{"open":300,"close":1320}]},"2":{"isOpen":true,"periods":[{"open":300,"close":1320}]},"3":{"isOpen":true,"periods":[{"open":300,"close":1320}]},"4":{"isOpen":true,"periods":[{"open":300,"close":1320}]},"5":{"isOpen":true,"periods":[{"open":300,"close":1320}]},"6":{"isOpen":true,"periods":[{"open":360,"close":1320}]}},"original":"Su 07:00-22:00; Mo 05:00-22:00; Tu 05:00-22:00; We 05:00-22:00; Th 05:00-22:00; Fr 05:00-22:00; Sa 06:00-22:00"}},{"id":"fuel_8521519574","lat":47.70408,"lon":10.862639,"name":"Avia","city":"","category":"tankstelle","tags":[],"opening_hours":"24/7","operator":"Avia","hours":{"type":"24_7"}},{"id":"fuel_8585315684","lat":47.8362536,"lon":10.6398486,"name":"Avia XPress","city":"Biessenhofen","category":"tankstelle","tags":[],"opening_hours":"24/7","operator":"OEST ENERGIES GmbH & Co. KG","hours":{"type":"24_7"}},{"id":"fuel_8744948853","lat":47.8758768,"lon":10.5397357,"name":"Avia","city":"","category":"tankstelle","tags":[],"operator":"Avia","opening_hours":"Su 09:00-18:00; Mo 07:00-19:00; Tu 07:00-19:00; We 07:00-19:00; Th 07:00-19:00; Fr 07:00-19:00; Sa 08:00-18:00","gplace_id":"ChIJyQ5lkVdtnEcR98wsY_bTG2Q","hours":{"type":"weekly","weekly":{"0":{"isOpen":true,"periods":[{"open":540,"close":1080}]},"1":{"isOpen":true,"periods":[{"open":420,"close":1140}]},"2":{"isOpen":true,"periods":[{"open":420,"close":1140}]},"3":{"isOpen":true,"periods":[{"open":420,"close":1140}]},"4":{"isOpen":true,"periods":[{"open":420,"close":1140}]},"5":{"isOpen":true,"periods":[{"open":420,"close":1140}]},"6":{"isOpen":true,"periods":[{"open":480,"close":1080}]}},"original":"Su 09:00-18:00; Mo 07:00-19:00; Tu 07:00-19:00; We 07:00-19:00; Th 07:00-19:00; Fr 07:00-19:00; Sa 08:00-18:00"}},{"id":"fuel_8821431236","lat":47.9019938,"lon":10.6393553,"name":"Jet","city":"","category":"tankstelle","tags":[],"operator":"Jet","opening_hours":"Su 07:00-22:00; Mo 06:00-22:00; Tu 06:00-22:00; We 06:00-22:00; Th 06:00-22:00; Fr 06:00-22:00; Sa 06:00-22:00","gplace_id":"ChIJt0w7TkxrnEcROPDW74QWWwg","hours":{"type":"weekly","weekly":{"0":{"isOpen":true,"periods":[{"open":420,"close":1320}]},"1":{"isOpen":true,"periods":[{"open":360,"close":1320}]},"2":{"isOpen":true,"periods":[{"open":360,"close":1320}]},"3":{"isOpen":true,"periods":[{"open":360,"close":1320}]},"4":{"isOpen":true,"periods":[{"open":360,"close":1320}]},"5":{"isOpen":true,"periods":[{"open":360,"close":1320}]},"6":{"isOpen":true,"periods":[{"open":360,"close":1320}]}},"original":"Su 07:00-22:00; Mo 06:00-22:00; Tu 06:00-22:00; We 06:00-22:00; Th 06:00-22:00; Fr 06:00-22:00; Sa 06:00-22:00"}},{"id":"fuel_8821448719","lat":47.8986993,"lon":10.6443214,"name":"Shell","city":"Kaufbeuren","category":"tankstelle","tags":[],"opening_hours":"24/7","operator":"Shell","hours":{"type":"24_7"}},{"id":"fuel_9031941173","lat":47.5121613,"lon":10.2904797,"name":"Tankstelle","city":"","category":"tankstelle","tags":[],"operator":"BayWa","opening_hours":"Su 00:00+","gplace_id":"ChIJw7Me9m6EnEcR5_DmOjfV89U","hours":{"type":"unknown","original":"Su 00:00+"}},{"id":"fuel_9320546738","lat":47.8488073,"lon":10.4178458,"name":"Autohaus Kramer","city":"","category":"other","tags":[],"opening_hours":"Mo 08:00-12:00,14:00-18:00; Tu 08:00-12:00,14:00-18:00; We 08:00-12:00,14:00-18:00; Th 08:00-12:00,14:00-18:00; Fr 08:00-12:00,14:00-18:00","gplace_id":"ChIJY2KLbuFznEcR_O0YAu8tkL0","hours":{"type":"weekly","weekly":{"0":{"isOpen":false,"periods":[]},"1":{"isOpen":true,"periods":[{"open":480,"close":720},{"open":840,"close":1080}]},"2":{"isOpen":true,"periods":[{"open":480,"close":720},{"open":840,"close":1080}]},"3":{"isOpen":true,"periods":[{"open":480,"close":720},{"open":840,"close":1080}]},"4":{"isOpen":true,"periods":[{"open":480,"close":720},{"open":840,"close":1080}]},"5":{"isOpen":true,"periods":[{"open":480,"close":720},{"open":840,"close":1080}]},"6":{"isOpen":false,"periods":[]}},"original":"Mo 08:00-12:00,14:00-18:00; Tu 08:00-12:00,14:00-18:00; We 08:00-12:00,14:00-18:00; Th 08:00-12:00,14:00-18:00; Fr 08:00-12:00,14:00-18:00"}},{"id":"fuel_9591701577","lat":47.5685681,"lon":10.6879766,"name":"JET","city":"Füssen","category":"tankstelle","tags":[],"opening_hours":"Mo-Sa 06:00-22:00; Su 07:00-22:00","operator":"JET","hours":{"type":"weekly","weekly":{"0":{"isOpen":true,"periods":[{"open":420,"close":1320}]},"1":{"isOpen":true,"periods":[{"open":360,"close":1320}]},"2":{"isOpen":true,"periods":[{"open":360,"close":1320}]},"3":{"isOpen":true,"periods":[{"open":360,"close":1320}]},"4":{"isOpen":true,"periods":[{"open":360,"close":1320}]},"5":{"isOpen":true,"periods":[{"open":360,"close":1320}]},"6":{"isOpen":true,"periods":[{"open":360,"close":1320}]}},"original":"Mo-Sa 06:00-22:00; Su 07:00-22:00"}},{"id":"fuel_9623180432","lat":47.7061404,"lon":10.3114745,"name":"Aral","city":"Kempten (Allgäu)","category":"tankstelle","tags":[],"opening_hours":"Mo-Su 06:00-23:00","operator":"Adolf Präg GmbH & Co. KG","hours":{"type":"weekly","weekly":{"0":{"isOpen":true,"periods":[{"open":360,"close":1380}]},"1":{"isOpen":true,"periods":[{"open":360,"close":1380}]},"2":{"isOpen":true,"periods":[{"open":360,"close":1380}]},"3":{"isOpen":true,"periods":[{"open":360,"close":1380}]},"4":{"isOpen":true,"periods":[{"open":360,"close":1380}]},"5":{"isOpen":true,"periods":[{"open":360,"close":1380}]},"6":{"isOpen":true,"periods":[{"open":360,"close":1380}]}},"original":"Mo-Su 06:00-23:00"}},{"id":"fuel_9724250480","lat":47.8963819,"lon":10.6444811,"name":"V-Markt Tankstelle und Waschanlage","city":"","category":"tankstelle","tags":[],"opening_hours":"Mo-Sa 08:00-20:00","operator":"V-Markt","hours":{"type":"weekly","weekly":{"0":{"isOpen":false,"periods":[]},"1":{"isOpen":true,"periods":[{"open":480,"close":1200}]},"2":{"isOpen":true,"periods":[{"open":480,"close":1200}]},"3":{"isOpen":true,"periods":[{"open":480,"close":1200}]},"4":{"isOpen":true,"periods":[{"open":480,"close":1200}]},"5":{"isOpen":true,"periods":[{"open":480,"close":1200}]},"6":{"isOpen":true,"periods":[{"open":480,"close":1200}]}},"original":"Mo-Sa 08:00-20:00"}},{"id":"fuel_9894411639","lat":47.6935136,"lon":10.7846395,"name":"V-Markt","city":"Lechbruck am See","category":"other","tags":[],"opening_hours":"24/7","hours":{"type":"24_7"}},{"id":"fuel_10244901641","lat":47.8038935,"lon":10.2998234,"name":"Avia Express","city":"","category":"tankstelle","tags":[],"operator":"Keslar","opening_hours":"Su 00:00+","gplace_id":"ChIJeyUBd493nEcRobS9CN3yWMU","hours":{"type":"unknown","original":"Su 00:00+"}},{"id":"fuel_10265587244","lat":47.9659542,"lon":10.1847764,"name":"LNG","city":"","category":"other","tags":[],"gplace_id":"not_found","hours":{"type":"unknown"}},{"id":"fuel_10734403080","lat":47.8231477,"lon":10.0157165,"name":"RAN","city":"Leutkirch im Allgäu","category":"other","tags":[],"opening_hours":"Mo-Fr,Sa-Su, PH 05:30-22:00","operator":"Magnus Baumann","hours":{"type":"weekly","weekly":{"0":{"isOpen":true,"periods":[{"open":330,"close":1320}]},"1":{"isOpen":true,"periods":[{"open":330,"close":1320}]},"2":{"isOpen":true,"periods":[{"open":330,"close":1320}]},"3":{"isOpen":true,"periods":[{"open":330,"close":1320}]},"4":{"isOpen":true,"periods":[{"open":330,"close":1320}]},"5":{"isOpen":true,"periods":[{"open":330,"close":1320}]},"6":{"isOpen":true,"periods":[{"open":330,"close":1320}]}},"original":"Mo-Fr,Sa-Su, PH 05:30-22:00"}},{"id":"fuel_11434780542","lat":47.9963779,"lon":10.1994008,"name":"Aral","city":"Memmingen","category":"tankstelle","tags":[],"operator":"Aral","opening_hours":"Su 06:00-22:00; Mo 06:00-22:00; Tu 06:00-22:00; We 06:00-22:00; Th 06:00-22:00; Fr 06:00-22:00; Sa 06:00-22:00","gplace_id":"ChIJZQ-9YLLzm0cRuuZh7v_2TqA","hours":{"type":"weekly","weekly":{"0":{"isOpen":true,"periods":[{"open":360,"close":1320}]},"1":{"isOpen":true,"periods":[{"open":360,"close":1320}]},"2":{"isOpen":true,"periods":[{"open":360,"close":1320}]},"3":{"isOpen":true,"periods":[{"open":360,"close":1320}]},"4":{"isOpen":true,"periods":[{"open":360,"close":1320}]},"5":{"isOpen":true,"periods":[{"open":360,"close":1320}]},"6":{"isOpen":true,"periods":[{"open":360,"close":1320}]}},"original":"Su 06:00-22:00; Mo 06:00-22:00; Tu 06:00-22:00; We 06:00-22:00; Th 06:00-22:00; Fr 06:00-22:00; Sa 06:00-22:00"}},{"id":"fuel_11768612726","lat":47.8150973,"lon":10.5380614,"name":"Weinhart","city":"","category":"other","tags":[],"opening_hours":"24/7","hours":{"type":"24_7"}},{"id":"fuel_12344484613","lat":47.8918185,"lon":10.6358207,"name":"HEM","city":"Kaufbeuren","category":"tankstelle","tags":[],"operator":"HEM","opening_hours":"Su 07:00-22:00; Mo 06:00-22:00; Tu 06:00-22:00; We 06:00-22:00; Th 06:00-22:00; Fr 06:00-22:00; Sa 06:00-22:00","gplace_id":"ChIJw_euXERrnEcR9ekaLRMHKTE","hours":{"type":"weekly","weekly":{"0":{"isOpen":true,"periods":[{"open":420,"close":1320}]},"1":{"isOpen":true,"periods":[{"open":360,"close":1320}]},"2":{"isOpen":true,"periods":[{"open":360,"close":1320}]},"3":{"isOpen":true,"periods":[{"open":360,"close":1320}]},"4":{"isOpen":true,"periods":[{"open":360,"close":1320}]},"5":{"isOpen":true,"periods":[{"open":360,"close":1320}]},"6":{"isOpen":true,"periods":[{"open":360,"close":1320}]}},"original":"Su 07:00-22:00; Mo 06:00-22:00; Tu 06:00-22:00; We 06:00-22:00; Th 06:00-22:00; Fr 06:00-22:00; Sa 06:00-22:00"}},{"id":"fuel_13194392336","lat":47.9156023,"lon":10.8573239,"name":"Deltin","city":"","category":"other","tags":[],"gplace_id":"ChIJgX3lO904nEcRjM1d4dO6pnM","hours":{"type":"unknown"}},{"id":"fuel_13411302142","lat":47.9729565,"lon":10.0502519,"name":"Avia","city":"","category":"tankstelle","tags":[],"operator":"Avia","opening_hours":"Su 00:00+","gplace_id":"ChIJt1oIaXDtm0cRdQUjYN04jtA","hours":{"type":"unknown","original":"Su 00:00+"}},{"id":"autobahn_DE-BY-000265","lat":47.662159999999226,"lon":10.420273000000567,"name":"Rottachtal-Ost (A7)","city":"","category":"public_24h","tags":["autobahn","a7","toilette"],"opening_hours":"24/7","operator":"Autobahn GmbH","hours":{"type":"24_7"}},{"id":"autobahn_DE-BY-000264","lat":47.66393599999926,"lon":10.41649200000056,"name":"Rottachtal-West (A7)","city":"","category":"public_24h","tags":["autobahn","a7","toilette"],"opening_hours":"24/7","operator":"Autobahn GmbH","hours":{"type":"24_7"}},{"id":"autobahn_DE-BY-000263","lat":47.7022449999994,"lon":10.366355000000466,"name":"Vorwald West (A7)","city":"","category":"other","tags":["autobahn","a7"],"operator":"Autobahn GmbH","hours":{"type":"unknown"}},{"id":"autobahn_DE-BY-000262","lat":47.70406799999939,"lon":10.367343000000465,"name":"Vorwald Ost (A7)","city":"","category":"other","tags":["autobahn","a7"],"operator":"Autobahn GmbH","hours":{"type":"unknown"}},{"id":"autobahn_DE-BY-000261","lat":47.7634259999995,"lon":10.326813000000397,"name":"Leubastal O (A7)","city":"","category":"other","tags":["autobahn","a7"],"operator":"Autobahn GmbH","hours":{"type":"unknown"}},{"id":"autobahn_DE-BY-000260","lat":47.76539299999949,"lon":10.325226000000397,"name":"Leubastal W (A7)","city":"","category":"other","tags":["autobahn","a7"],"operator":"Autobahn GmbH","hours":{"type":"unknown"}},{"id":"autobahn_DE-BY-000259","lat":47.80389199999952,"lon":10.30940200000037,"name":"Seebach W (A7)","city":"","category":"other","tags":["autobahn","a7"],"operator":"Autobahn GmbH","hours":{"type":"unknown"}},{"id":"autobahn_DE-BY-000258","lat":47.84872599999959,"lon":10.28097500000033,"name":"Allgäuer Tor W (A7)","city":"","category":"tankstelle","tags":["autobahn","a7","toilette","tankstelle","raststätte","dusche"],"operator":"Tank & Rast","hours":{"type":"unknown"}},{"id":"autobahn_DE-BY-000257","lat":47.84709699999958,"lon":10.282939000000335,"name":"Allgäuer Tor O (A7)","city":"","category":"tankstelle","tags":["autobahn","a7","toilette","tankstelle","raststätte","dusche"],"operator":"Tank & Rast","hours":{"type":"unknown"}},{"id":"autobahn_DE-BY-000254","lat":47.98393899999978,"lon":10.15113200000019,"name":"Buxachtal W (A7)","city":"","category":"other","tags":["autobahn","a7"],"operator":"Autobahn GmbH","hours":{"type":"unknown"}},{"id":"autobahn_DE-BY-000457","lat":47.97096599999981,"lon":10.117940000000166,"name":"Buxheimer Wald  (A96)","city":"","category":"other","tags":["autobahn","a96"],"operator":"Autobahn GmbH","hours":{"type":"unknown"}},{"id":"station_node_33712152","lat":47.570733,"lon":10.6967299,"name":"Füssen","city":"","category":"station","tags":["bahnhof","barrierefrei"],"operator":"DB","hours":{"type":"unknown"}},{"id":"station_node_587888857","lat":47.4053796,"lon":10.8788624,"name":"Lermoos","city":"","category":"station","tags":["bahnhof","barrierefrei"],"operator":"ÖBB-Infrastruktur AG","hours":{"type":"unknown"}},{"id":"station_node_2878674660","lat":47.4112728,"lon":10.27825,"name":"Oberstdorf","city":"","category":"station","tags":["bahnhof","barrierefrei"],"operator":"DB Netz AG","hours":{"type":"unknown"}}]