[{"id":"station_node_1800313662","lat":46.5170017,"lon":6.6291687,"name":"Lausanne","city":"","category":"station","tags":["bahnhof","barrierefrei"],"operator":"SBB","hours":{"type":"unknown"}},{"id":"station_node_4236961491","lat":46.9008879,"lon":6.35338,"name":"Pontarlier","city":"Pontarlier","category":"station","tags":["bahnhof","barrierefrei"],"opening_hours":"Mo-Fr 04:40-21:30; Sa 06:20-21:30; Su, PH 06:00-21:30","operator":"SNCF Gares & Connexions","hours":{"type":"weekly","weekly":{"0":{"isOpen":true,"periods":[{"open":360,"close":1290}]},"1":{"isOpen":true,"periods":[{"open":280,"close":1290}]},"2":{"isOpen":true,"periods":[{"open":280,"close":1290}]},"3":{"isOpen":true,"periods":[{"open":280,"close":1290}]},"4":{"isOpen":true,"periods":[{"open":280,"close":1290}]},"5":{"isOpen":true,"periods":[{"open":280,"close":1290}]},"6":{"isOpen":true,"periods":[{"open":380,"close":1290}]}},"original":"Mo-Fr 04:40-21:30; Sa 06:20-21:30; Su, PH 06:00-21:30"}},{"id":"station_node_9543468699","lat":46.082478,"lon":6.9761851,"name":"Finhaut","city":"","category":"station","tags":["bahnhof","barrierefrei"],"operator":"ch-direct","hours":{"type":"unknown"}},{"id":"gplace_ChIJI7SBsy17jEcRTx6XoPkUcIs","lat":46.1949505,"lon":6.129792699999999,"name":"ALIGRO Genève","city":"Genf","category":"other","tags":["barrierefrei","google_wc_accessible"],"hours":{"type":"unknown"}},{"id":"gplace_ChIJARjSeiV7jEcR8tydzSBs3no","lat":46.1882346,"lon":6.1285491,"name":"McDonald’s","city":"Genf","category":"gastro","tags":["barrierefrei","google_wc_accessible"],"hours":{"type":"unknown"}},{"id":"gplace_ChIJU4qE9kZ7jEcR6g8WbfN5I5U","lat":46.187186,"lon":6.111250999999999,"name":"Lancy Centre","city":"Genf","category":"other","tags":["barrierefrei","google_wc_accessible"],"hours":{"type":"unknown"}},{"id":"gplace_ChIJPUz1sjB7jEcR7bp48GvybFI","lat":46.1898936,"lon":6.1214086,"name":"La Petite Vendée","city":"Genf","category":"gastro","tags":["barrierefrei","google_wc_accessible"],"hours":{"type":"unknown"}},{"id":"gplace_ChIJ17ID4UV7jEcRf7EZ-MHyTMk","lat":46.1886976,"lon":6.1103363,"name":"Supermarché Migros","city":"Genf","category":"other","tags":["barrierefrei","google_wc_accessible"],"hours":{"type":"unknown"}},{"id":"gplace_ChIJ5Y8n2kR7jEcRirdVg2N_2F0","lat":46.1877104,"lon":6.1046192,"name":"Coop Supermarché","city":"Genf","category":"other","tags":["barrierefrei","google_wc_accessible"],"hours":{"type":"unknown"}},{"id":"gplace_ChIJ47-otvNljEcRdi_dxL4aeEI","lat":46.198627099999996,"lon":6.1256996,"name":"Sadara","city":"Genf","category":"gastro","tags":["barrierefrei","google_wc_accessible"],"hours":{"type":"unknown"}},{"id":"gplace_ChIJ35jV0956jEcR94w_vXWD7V8","lat":46.194731399999995,"lon":6.1273784,"name":"Chez Maman","city":"Genf","category":"gastro","tags":["barrierefrei","google_wc_accessible"],"hours":{"type":"unknown"}},{"id":"gplace_ChIJ6V85AEd7jEcRXfBpeK_aqbw","lat":46.18766300000001,"lon":6.112794,"name":"NonStop Gym Lancy","city":"Genf","category":"other","tags":["barrierefrei","google_entrance_accessible"],"hours":{"type":"unknown"}},{"id":"gplace_ChIJJwCdsrZ7jEcR8p_BJoiQL0Q","lat":46.188569,"lon":6.1296555999999995,"name":"Kulture Bar","city":"Genf","category":"gastro","tags":["barrierefrei","google_entrance_accessible"],"hours":{"type":"unknown"}},{"id":"gplace_ChIJyzYMRMtkjEcR5VolSJTY78I","lat":46.1997088,"lon":6.122375099999999,"name":"Café de la Tour","city":"Genf","category":"gastro","tags":["barrierefrei","google_entrance_accessible"],"hours":{"type":"unknown"}},{"id":"gplace_ChIJ-WR2aTx7jEcRKsNJSkhEsCE","lat":46.183367999999994,"lon":6.1216552,"name":"Café Zinette","city":"Genf","category":"gastro","tags":["barrierefrei","google_wc_accessible"],"hours":{"type":"unknown"}},{"id":"gplace_ChIJK5zmRQB7jEcRLCihPxsvoL8","lat":46.196289799999995,"lon":6.1119094,"name":"Crescendo","city":"Genf","category":"gastro","tags":["barrierefrei","google_wc_accessible"],"hours":{"type":"unknown"}},{"id":"gplace_ChIJMcsBSC97jEcR2iUcYmetx9c","lat":46.18966,"lon":6.131856,"name":"Shell","city":"Genf","category":"gastro","tags":["barrierefrei","google_wc_accessible"],"hours":{"type":"unknown"}},{"id":"gplace_ChIJfSvXhqh7jEcRYYcr0xykrxU","lat":46.1867797,"lon":6.1097328,"name":"KFC","city":"Genf","category":"gastro","tags":["barrierefrei","google_wc_accessible"],"hours":{"type":"unknown"}},{"id":"gplace_ChIJdRFop8hkjEcRMWimvw-a6IE","lat":46.207614899999996,"lon":6.1234668999999995,"name":"Centre Commercial Planète Charmilles","city":"Genf","category":"other","tags":["barrierefrei","google_wc_accessible"],"hours":{"type":"unknown"}},{"id":"gplace_ChIJRcCpMgFljEcRMCUxd01QOYk","lat":46.205253000000006,"lon":6.132279800000001,"name":"Utopia coffee (St-Jean)","city":"Genf","category":"gastro","tags":["google_has_restroom"],"hours":{"type":"unknown"}},{"id":"gplace_ChIJrxBivRZljEcRAU8WaJ1cIZE","lat":46.2011943,"lon":6.1314372,"name":"The Barista Lab","city":"Genf","category":"gastro","tags":["barrierefrei","google_entrance_accessible"],"hours":{"type":"unknown"}},{"id":"gplace_ChIJ4YrMTNBkjEcRhu2hiiUnf5s","lat":46.205288599999996,"lon":6.1315523,"name":"Na Village","city":"Genf","category":"gastro","tags":["google_has_restroom"],"hours":{"type":"unknown"}},{"id":"gplace_ChIJlYPyvgBljEcRZ4rv6LJdbOM","lat":46.2054963,"lon":6.127675099999999,"name":"Le Picotin","city":"Genf","category":"gastro","tags":["barrierefrei","google_wc_accessible"],"hours":{"type":"unknown"}},{"id":"gplace_ChIJD0KuNtBkjEcRoTKFmN4Qe5k","lat":46.2058174,"lon":6.1313299,"name":"Les Tilleuls","city":"Genf","category":"gastro","tags":["google_has_restroom"],"hours":{"type":"unknown"}},{"id":"gplace_ChIJS7BgxqxkjEcRJC3mpnES9qE","lat":46.200595,"lon":6.1028459,"name":"Valais-style Tavern","city":"Genf","category":"gastro","tags":["barrierefrei","google_wc_accessible"],"hours":{"type":"unknown"}},{"id":"gplace_ChIJr3y_3s9kjEcRtG_Lva32QiM","lat":46.2065008,"lon":6.1301736,"name":"Café de la Limite","city":"Genf","category":"gastro","tags":["google_has_restroom"],"hours":{"type":"unknown"}},{"id":"gplace_ChIJnVC-ZNJkjEcRtX5PeXDJSl4","lat":46.2016401,"lon":6.1302528,"name":"NonStop Gym Jonction","city":"Genf","category":"other","tags":["google_has_restroom"],"hours":{"type":"unknown"}},{"id":"gplace_ChIJ_8qGQMhkjEcRXkHKQ_Q5Bo0","lat":46.207083399999995,"lon":6.1207657,"name":"Au Furet","city":"Genf","category":"gastro","tags":["barrierefrei","google_wc_accessible"],"hours":{"type":"unknown"}},{"id":"gplace_ChIJ-Zs39HNljEcRuesV2k5wCZo","lat":46.2083029,"lon":6.1262193,"name":"Calia","city":"Genf","category":"gastro","tags":["barrierefrei","google_wc_accessible"],"hours":{"type":"unknown"}},{"id":"gplace_ChIJnarUzZFljEcR_ihT-Eh5NKU","lat":46.2086,"lon":6.1236,"name":"ALDI SUISSE","city":"Genf","category":"other","tags":["barrierefrei","google_wc_accessible"],"hours":{"type":"unknown"}},{"id":"gplace_ChIJJa8rOMFkjEcR1NVq9KbCLTA","lat":46.2136974,"lon":6.1248149,"name":"Restaurant Le Figuier libanais - مطعم التينة جنيف مطعم لبناني شرقي حلال","city":"Genf","category":"gastro","tags":["barrierefrei","google_entrance_accessible"],"hours":{"type":"unknown"}},{"id":"gplace_ChIJ57Ox0ZdkjEcRsCjktGKcv9Y","lat":46.218896,"lon":6.113389,"name":"Balexert","city":"Genf","category":"other","tags":["barrierefrei","google_wc_accessible"],"hours":{"type":"unknown"}},{"id":"gplace_ChIJMwpcEOxkjEcRd_2UofasmUM","lat":46.223233199999996,"lon":6.1276722,"name":"Café du Soleil","city":"Genf","category":"gastro","tags":["barrierefrei","google_wc_accessible"],"hours":{"type":"unknown"}},{"id":"gplace_ChIJTZ3OtcxljEcRJkBhGJJ-794","lat":46.2191112,"lon":6.1020992000000005,"name":"Restaurant Royal Châtelaine-Vernier 皇家","city":"Genf","category":"gastro","tags":["barrierefrei","google_wc_accessible"],"hours":{"type":"unknown"}},{"id":"gplace_ChIJOzC1ZfdljEcRjbulzE9zFTQ","lat":46.2242965,"lon":6.1261572,"name":"Luigia","city":"Genf","category":"gastro","tags":["barrierefrei","google_wc_accessible"],"hours":{"type":"unknown"}},{"id":"gplace_ChIJOS1BjJlkjEcR20p-mA5Hd20","lat":46.2232563,"lon":6.1100705,"name":"Le P'tit Music Hohl","city":"Genf","category":"gastro","tags":["barrierefrei","google_entrance_accessible"],"hours":{"type":"unknown"}},{"id":"gplace_ChIJR1ruzZdkjEcReswSeLb3a18","lat":46.2179926,"lon":6.114938899999999,"name":"McDonald’s","city":"Genf","category":"gastro","tags":["barrierefrei","google_wc_accessible"],"hours":{"type":"unknown"}},{"id":"gplace_ChIJlzZFeQBljEcRWlJa_UevRUs","lat":46.2133933,"lon":6.129671399999999,"name":"McDonald’s","city":"Genf","category":"gastro","tags":["barrierefrei","google_wc_accessible"],"hours":{"type":"unknown"}},{"id":"gplace_ChIJ9XFbAplkjEcR4kxrQsTyOQw","lat":46.2201404,"lon":6.1091731,"name":"ALDI","city":"Genf","category":"other","tags":["barrierefrei","google_wc_accessible"],"hours":{"type":"unknown"}},{"id":"gplace_ChIJCTrhy-5kjEcRZyIEamvKcAQ","lat":46.2225021,"lon":6.130090399999999,"name":"Chez ma cousine Petit-Saconnex","city":"Genf","category":"gastro","tags":["barrierefrei","google_wc_accessible"],"hours":{"type":"unknown"}},{"id":"gplace_ChIJgfjp8o1kjEcRx8vG6cCoWgk","lat":46.2289539,"lon":6.1198115,"name":"MIGROS","city":"Genf","category":"other","tags":["barrierefrei","google_wc_accessible"],"hours":{"type":"unknown"}},{"id":"gplace_ChIJvdTULJpkjEcR6zw2G5T_SIg","lat":46.223923199999994,"lon":6.108973199999999,"name":"Restaurant Royal Oriental","city":"Genf","category":"gastro","tags":["barrierefrei","google_wc_accessible"],"hours":{"type":"unknown"}},{"id":"gplace_ChIJJTII6p1ljEcR-Rbe6bu68xo","lat":46.216798700000005,"lon":6.103970299999999,"name":"NonStop Gym Étang","city":"Genf","category":"other","tags":["barrierefrei","google_wc_accessible"],"hours":{"type":"unknown"}},{"id":"gplace_ChIJq_1y3cJkjEcRf5PevZ3oOjE","lat":46.2155897,"lon":6.131157099999999,"name":"Charly O’Neills Irish Pub & Restaurant","city":"Genf","category":"gastro","tags":["barrierefrei","google_entrance_accessible"],"hours":{"type":"unknown"}},{"id":"gplace_ChIJLTjweZxkjEcRMbjUGqvPp_E","lat":46.225646,"lon":6.105801,"name":"La Gioconda","city":"Genf","category":"gastro","tags":["barrierefrei","google_wc_accessible"],"hours":{"type":"unknown"}},{"id":"gplace_ChIJr0Yon41kjEcRiBMBTakwnj0","lat":46.228719299999995,"lon":6.1208502,"name":"Le Pommier","city":"Genf","category":"gastro","tags":["barrierefrei","google_wc_accessible"],"hours":{"type":"unknown"}},{"id":"gplace_ChIJBxxhkJtkjEcRJ0Wo8mtFK6M","lat":46.2252772,"lon":6.1073011,"name":"Migrol Service","city":"Genf","category":"tankstelle","tags":["barrierefrei","google_wc_accessible"],"hours":{"type":"unknown"}},{"id":"gplace_ChIJBZ1R1CB7jEcRBlgH6B7Oc9Q","lat":46.184799299999995,"lon":6.1339501,"name":"MParc La Praille","city":"Genf","category":"other","tags":["barrierefrei","google_wc_accessible"],"hours":{"type":"unknown"}},{"id":"gplace_ChIJW3ZYkCp7jEcRcbEB9Amhs-0","lat":46.1962489,"lon":6.1385613999999995,"name":"Madame","city":"Genf","category":"gastro","tags":["barrierefrei","google_wc_accessible"],"hours":{"type":"unknown"}},{"id":"gplace_ChIJuxiwIyF7jEcRWAVFZhD7BGs","lat":46.182442300000005,"lon":6.1343879999999995,"name":"Supermarché Migros","city":"Genf","category":"other","tags":["barrierefrei","google_wc_accessible"],"hours":{"type":"unknown"}},{"id":"gplace_ChIJIc8VY9l6jEcRYaZRtpi-tDw","lat":46.184999999999995,"lon":6.1425,"name":"Chat Noir Club","city":"Genf","category":"gastro","tags":["google_has_restroom"],"hours":{"type":"unknown"}},{"id":"gplace_ChIJExNJVndljEcRfVvV32aiRFE","lat":46.200657799999995,"lon":6.1357485,"name":"Yvonne & Nala \"Asian & Bedouin Flavors\"","city":"Genf","category":"gastro","tags":["barrierefrei","google_wc_accessible"],"hours":{"type":"unknown"}},{"id":"gplace_ChIJy9P2iIN7jEcRAgwtHkvPPf0","lat":46.196217999999995,"lon":6.1420756,"name":"PRETTY PATTY - Smash Burger - Plainpalais","city":"Genf","category":"gastro","tags":["barrierefrei","google_wc_accessible"],"hours":{"type":"unknown"}},{"id":"gplace_ChIJbeprz9R6jEcRytlL_p3DwAc","lat":46.1968841,"lon":6.1427974,"name":"Coop City Genève Plainpalais","city":"Genf","category":"other","tags":["barrierefrei","google_wc_accessible"],"hours":{"type":"unknown"}},{"id":"gplace_ChIJU8dq9CN7jEcRgiU0bRji_tk","lat":46.1833979,"lon":6.1296146,"name":"PAV Bar","city":"Genf","category":"gastro","tags":["barrierefrei","google_wc_accessible"],"hours":{"type":"unknown"}},{"id":"gplace_ChIJdxpTHdR6jEcRic21QYx-aXQ","lat":46.1928795,"lon":6.1428031,"name":"Supermarché Migros","city":"Genf","category":"other","tags":["barrierefrei","google_wc_accessible"],"hours":{"type":"unknown"}},{"id":"gplace_ChIJX0o-rCp7jEcRQPSw9kpgx-A","lat":46.197605300000006,"lon":6.1391637999999995,"name":"L’Éléphant dans la Canette","city":"Genf","category":"gastro","tags":["google_has_restroom"],"hours":{"type":"unknown"}},{"id":"gplace_ChIJuyC6-h57jEcR55DzTqePkc4","lat":46.196132399999996,"lon":6.144214,"name":"MAME Plainpalais","city":"Genf","category":"gastro","tags":["barrierefrei","google_entrance_accessible"],"hours":{"type":"unknown"}},{"id":"gplace_ChIJ0fphLSt7jEcRniFISXQ-if0","lat":46.1980208,"lon":6.1361528,"name":"Umamido Plainpalais - Ramen Shop","city":"Genf","category":"gastro","tags":["google_has_restroom"],"hours":{"type":"unknown"}},{"id":"gplace_ChIJtbLrA9VkjEcR6-Tfyl88Ll4","lat":46.1999825,"lon":6.137737899999999,"name":"Birdie Food & Coffee","city":"Genf","category":"gastro","tags":["barrierefrei","google_entrance_accessible"],"hours":{"type":"unknown"}},{"id":"gplace_ChIJf2CC_CdljEcRcvb8eM1qsgY","lat":46.2074048,"lon":6.1424207,"name":"MANOR Genève","city":"Genf","category":"other","tags":["barrierefrei","google_wc_accessible"],"hours":{"type":"unknown"}},{"id":"gplace_ChIJ26xzGClljEcRJCZHsWPAexA","lat":46.2040739,"lon":6.1451774,"name":"Coop City Genève Fusterie","city":"Genf","category":"other","tags":["barrierefrei","google_wc_accessible"],"hours":{"type":"unknown"}},{"id":"gplace_ChIJs0uxLltljEcRnJK_c3ovCPE","lat":46.211176599999995,"lon":6.1420309,"name":"Oh Martine !","city":"Genf","category":"gastro","tags":["google_has_restroom"],"hours":{"type":"unknown"}},{"id":"gplace_ChIJDbzfeitljEcRrg6ATs7itGk","lat":46.200738,"lon":6.1445653,"name":"Kiosque des Bastions","city":"Genf","category":"gastro","tags":["barrierefrei","google_wc_accessible"],"hours":{"type":"unknown"}},{"id":"gplace_ChIJpSAtailljEcRGuoirUiSGGs","lat":46.2034504,"lon":6.1445523,"name":"Confédération Centre","city":"Genf","category":"gastro","tags":["barrierefrei","google_wc_accessible"],"hours":{"type":"unknown"}},{"id":"gplace_ChIJn4u7gPlljEcRBEb19QCtx2o","lat":46.2030135,"lon":6.1347534999999995,"name":"La Jonquille","city":"Genf","category":"gastro","tags":["barrierefrei","google_wc_accessible"],"hours":{"type":"unknown"}},{"id":"gplace_ChIJv8qguidljEcRVDkD5q6xF-M","lat":46.209119799999996,"lon":6.1441506,"name":"McDonald’s Genève Mont-Blanc","city":"Genf","category":"gastro","tags":["barrierefrei","google_entrance_accessible","google_wc_accessible"],"hours":{"type":"unknown"}},{"id":"gplace_ChIJwVsiHtZkjEcRrt7i0fNVYkM","lat":46.2035169,"lon":6.140884,"name":"Boréal Coffee Shop","city":"Genf","category":"gastro","tags":["barrierefrei","google_wc_accessible"],"hours":{"type":"unknown"}},{"id":"gplace_ChIJTWDoIzNljEcRfQTF1XGIIgU","lat":46.207888499999996,"lon":6.140702699999999,"name":"Restaurant Kung Fu","city":"Genf","category":"gastro","tags":["barrierefrei","google_wc_accessible"],"hours":{"type":"unknown"}},{"id":"gplace_ChIJ_RQ_P0ZljEcR67_-RWwnYB4","lat":46.2070352,"lon":6.1448762,"name":"White Rabbit - Brunch & Co","city":"Genf","category":"gastro","tags":["barrierefrei","google_entrance_accessible"],"hours":{"type":"unknown"}},{"id":"gplace_ChIJU4kzY_ZljEcRRB0e5Hjg4-Y","lat":46.2091553,"lon":6.143094700000001,"name":"Coop Supermarché Genève Gare Mont-Blanc","city":"Genf","category":"other","tags":["barrierefrei","google_wc_accessible"],"hours":{"type":"unknown"}},{"id":"gplace_ChIJ-UM1LytljEcRdent7yEk_zk","lat":46.1983907,"lon":6.1428166,"name":"McDonald's","city":"Genf","category":"gastro","tags":["barrierefrei","google_entrance_accessible"],"hours":{"type":"unknown"}},{"id":"gplace_ChIJBwX-oOFkjEcRkl6_5ZzelzY","lat":46.220295799999995,"lon":6.1418121999999995,"name":"Coop Supermarché Genève Montbrillant","city":"Genf","category":"other","tags":["barrierefrei","google_wc_accessible"],"hours":{"type":"unknown"}},{"id":"gplace_ChIJPSCx-qZljEcRxvhIyIEvzV0","lat":46.2094935,"lon":6.1346107,"name":"Spinella","city":"Genf","category":"gastro","tags":["barrierefrei","google_entrance_accessible"],"hours":{"type":"unknown"}},{"id":"gplace_ChIJh6wps6NljEcR9gqthKySwM0","lat":46.22110800000001,"lon":6.1399402,"name":"Medusa Restaurant","city":"Genf","category":"gastro","tags":["barrierefrei","google_entrance_accessible"],"hours":{"type":"unknown"}},{"id":"gplace_ChIJUXIEg3dljEcRHTFtgtIj3cw","lat":46.2126136,"lon":6.1379771000000005,"name":"Le Jules-Edouard Restaurant","city":"Genf","category":"gastro","tags":["barrierefrei","google_entrance_accessible"],"hours":{"type":"unknown"}},{"id":"gplace_ChIJgTAh6u5ljEcRl9PXMB5yPJA","lat":46.2195616,"lon":6.137059799999999,"name":"Mama & Zita","city":"Genf","category":"gastro","tags":["barrierefrei","google_wc_accessible"],"hours":{"type":"unknown"}},{"id":"gplace_ChIJ4Yu5Jd1kjEcRqlOdMx6o8s4","lat":46.215435899999996,"lon":6.133057099999999,"name":"NonStop Gym Servette","city":"Genf","category":"other","tags":["barrierefrei","google_entrance_accessible"],"hours":{"type":"unknown"}},{"id":"gplace_ChIJ_b-GVcNkjEcRnSztlErRtLE","lat":46.212406099999995,"lon":6.1311607,"name":"Coop Supermarché Genève Servette","city":"Genf","category":"other","tags":["barrierefrei","google_wc_accessible"],"hours":{"type":"unknown"}},{"id":"gplace_ChIJg3NBF9lkjEcRGYrTR0jtrUM","lat":46.2108876,"lon":6.138996,"name":"Saveurs et Couleurs","city":"Genf","category":"gastro","tags":["google_has_restroom"],"hours":{"type":"unknown"}},{"id":"gplace_ChIJEXC3QulkjEcRZRYeUchEeFc","lat":46.220877699999996,"lon":6.1293726,"name":"Boulangerie pâtisserie Eric Emery","city":"Genf","category":"gastro","tags":["barrierefrei","google_wc_accessible"],"hours":{"type":"unknown"}},{"id":"gplace_ChIJi471wOFkjEcRJYtop-ZGbjE","lat":46.220050199999996,"lon":6.1432429,"name":"Let's Go Fitness","city":"Genf","category":"other","tags":["barrierefrei","google_wc_accessible"],"hours":{"type":"unknown"}},{"id":"gplace_ChIJT1kBGeFkjEcRFPEyt715mNo","lat":46.22012,"lon":6.140445499999999,"name":"Shell","city":"Genf","category":"gastro","tags":["barrierefrei","google_wc_accessible"],"hours":{"type":"unknown"}},{"id":"gplace_ChIJrdQEe9lkjEcRCH1BIftMZJI","lat":46.2104533,"lon":6.1373421,"name":"Maison d'Asie","city":"Genf","category":"gastro","tags":["google_has_restroom"],"hours":{"type":"unknown"}},{"id":"gplace_ChIJAUj6qcN6jEcR7z_JZ9V_U9k","lat":46.1807604,"lon":6.1500504,"name":"Le Jardin de Pinchat","city":"Genf","category":"gastro","tags":["barrierefrei","google_wc_accessible"],"hours":{"type":"unknown"}},{"id":"gplace_ChIJT5xxttt6jEcRsJ-9ydJiGFE","lat":46.185657,"lon":6.1437833,"name":"Centre commercial de Carouge","city":"Genf","category":"other","tags":["barrierefrei","google_wc_accessible"],"hours":{"type":"unknown"}},{"id":"gplace_ChIJ7WGWAiF7jEcRJCQJ2MpchoQ","lat":46.1818821,"lon":6.1334347,"name":"Bouchon","city":"Genf","category":"gastro","tags":["barrierefrei","google_wc_accessible"],"hours":{"type":"unknown"}},{"id":"gplace_ChIJy2OQNMd7jEcRIACfGKtF5Iw","lat":46.1862607,"lon":6.144032,"name":"Le Catalpa Bar","city":"Genf","category":"gastro","tags":["barrierefrei","google_wc_accessible"],"hours":{"type":"unknown"}},{"id":"gplace_ChIJOXDY82Z7jEcRTU8VfWBrvXw","lat":46.1762996,"lon":6.1294387,"name":"Rooftop 105","city":"Genf","category":"gastro","tags":["google_has_restroom"],"hours":{"type":"unknown"}},{"id":"gplace_ChIJVzCLQNl6jEcRxx6QWdmJCss","lat":46.18434630000001,"lon":6.1411508,"name":"Café du Marché","city":"Genf","category":"gastro","tags":["barrierefrei","google_wc_accessible"],"hours":{"type":"unknown"}},{"id":"gplace_ChIJq1cUaOp6jEcR48CzXIG7DcY","lat":46.1766922,"lon":6.1539157,"name":"Restaurant Il Mirtillo","city":"Genf","category":"gastro","tags":["barrierefrei","google_wc_accessible"],"hours":{"type":"unknown"}},{"id":"gplace_ChIJj18Srd56jEcRVPBSJ8XzhMg","lat":46.1831886,"lon":6.141654099999999,"name":"Qu'importe","city":"Genf","category":"gastro","tags":["barrierefrei","google_entrance_accessible"],"hours":{"type":"unknown"}},{"id":"gplace_ChIJYyyvTdd6jEcRd47g4Fmyv60","lat":46.188728,"lon":6.143159900000001,"name":"Le Saint Honoré","city":"Genf","category":"gastro","tags":["barrierefrei","google_entrance_accessible"],"hours":{"type":"unknown"}},{"id":"gplace_ChIJ_cVmj956jEcRKYZtysP6ge0","lat":46.1813922,"lon":6.1410342,"name":"Auberge Communale de Carouge","city":"Genf","category":"gastro","tags":["barrierefrei","google_entrance_accessible"],"hours":{"type":"unknown"}},{"id":"gplace_ChIJs5H1rx97jEcRD4TseTt5Ikw","lat":46.1858733,"lon":6.142231799999999,"name":"Gueuleton Genève","city":"Genf","category":"gastro","tags":["barrierefrei","google_entrance_accessible"],"hours":{"type":"unknown"}},{"id":"gplace_ChIJ9-PvLjx7jEcRzVGw7JCTChM","lat":46.184981099999995,"lon":6.1410513,"name":"Tablard","city":"Genf","category":"gastro","tags":["google_has_restroom"],"hours":{"type":"unknown"}},{"id":"gplace_ChIJ1QXRZ956jEcRJ5UdEEts0Vo","lat":46.1804105,"lon":6.140257699999999,"name":"Bistrot du Lion d'Or","city":"Genf","category":"gastro","tags":["barrierefrei","google_entrance_accessible"],"hours":{"type":"unknown"}},{"id":"gplace_ChIJc6gbX956jEcRxWTnSPqI7Fs","lat":46.1808913,"lon":6.1400749999999995,"name":"Indian Rasoi","city":"Genf","category":"gastro","tags":["barrierefrei","google_entrance_accessible"],"hours":{"type":"unknown"}},{"id":"gplace_ChIJbSQsbSxljEcRCwq4DNUIkO0","lat":46.2013286,"lon":6.147213,"name":"Restaurant Les Armures","city":"Genf","category":"gastro","tags":["barrierefrei","google_wc_accessible","google_entrance_accessible"],"hours":{"type":"unknown"}},{"id":"gplace_ChIJ1SVdV6V7jEcRdhQSL_l8eLQ","lat":46.1945865,"lon":6.147480799999999,"name":"Les petites artisanes","city":"Genf","category":"gastro","tags":["barrierefrei","google_entrance_accessible"],"hours":{"type":"unknown"}},{"id":"gplace_ChIJAezhxC1ljEcReHJ0ioQPWv8","lat":46.201467799999996,"lon":6.1497945,"name":"Pasta People","city":"Genf","category":"gastro","tags":["barrierefrei","google_entrance_accessible"],"hours":{"type":"unknown"}},{"id":"gplace_ChIJ7fS4rC1ljEcRNGeYMx-Tl0E","lat":46.2002314,"lon":6.148802600000001,"name":"Café La Clémence","city":"Genf","category":"gastro","tags":["barrierefrei","google_entrance_accessible"],"hours":{"type":"unknown"}},{"id":"gplace_ChIJ43vhti1ljEcRO6m3jAwMvAg","lat":46.2007185,"lon":6.1492897,"name":"Chez ma cousine Bourg-de-four","city":"Genf","category":"gastro","tags":["google_has_restroom"],"hours":{"type":"unknown"}},{"id":"gplace_ChIJB7gU7dVkjEcRBojSKznAaAc","lat":46.2015149,"lon":6.1401451,"name":"Café Remor","city":"Genf","category":"gastro","tags":["barrierefrei","google_entrance_accessible"],"hours":{"type":"unknown"}},{"id":"gplace_ChIJ_2D-ECRljEcRyNWplKSRJE4","lat":46.2109345,"lon":6.1491337,"name":"Auberge de Savièse","city":"Genf","category":"gastro","tags":["barrierefrei","google_entrance_accessible"],"hours":{"type":"unknown"}},{"id":"gplace_ChIJgb6n2i5ljEcR4DNtswL-GNA","lat":46.2039354,"lon":6.147291,"name":"Globus Genève Grand Magasin","city":"Genf","category":"other","tags":["barrierefrei","google_wc_accessible"],"hours":{"type":"unknown"}},{"id":"gplace_ChIJl4ICQipuqkERHFfJKR4I888","lat":46.2025278,"lon":6.153518699999999,"name":"Le Relais de l'Entrecôte","city":"Genf","category":"gastro","tags":["barrierefrei","google_wc_accessible"],"hours":{"type":"unknown"}},{"id":"gplace_ChIJ-wXg9zFljEcROYaIkweg4dE","lat":46.2020349,"lon":6.1526247,"name":"McDonald’s","city":"Genf","category":"gastro","tags":["barrierefrei","google_wc_accessible"],"hours":{"type":"unknown"}},{"id":"gplace_ChIJv6lj8CZljEcR1E9cpiKmAfM","lat":46.2099658,"lon":6.1458357,"name":"Parfums de Beyrouth","city":"Genf","category":"gastro","tags":["barrierefrei","google_entrance_accessible"],"hours":{"type":"unknown"}},{"id":"gplace_ChIJB3MxxTBljEcRduCOecxA12c","lat":46.204721,"lon":6.1571739999999995,"name":"Da Paolo","city":"Genf","category":"gastro","tags":["barrierefrei","google_entrance_accessible"],"hours":{"type":"unknown"}},{"id":"gplace_ChIJm-zLgjNljEcRvsG6ftvZ84w","lat":46.1993241,"lon":6.1561736,"name":"Luigia","city":"Genf","category":"gastro","tags":["barrierefrei","google_wc_accessible"],"hours":{"type":"unknown"}},{"id":"gplace_ChIJZ4NTMBhljEcRQB_-3fpJNJY","lat":46.2038012,"lon":6.1556824,"name":"Melrose Kitchen - Eaux-vives","city":"Genf","category":"gastro","tags":["barrierefrei","google_wc_accessible"],"hours":{"type":"unknown"}},{"id":"gplace_ChIJYWxPfKFljEcR2lmMXygVN2k","lat":46.2154761,"lon":6.1486893,"name":"Hotel N’vy","city":"Genf","category":"gastro","tags":["barrierefrei","google_entrance_accessible"],"hours":{"type":"unknown"}},{"id":"gplace_ChIJoS3kXx9ljEcRzafkfDRHaPs","lat":46.216640299999995,"lon":6.148071,"name":"Mr Pickwick Pub","city":"Genf","category":"gastro","tags":["barrierefrei","google_wc_accessible"],"hours":{"type":"unknown"}},{"id":"gplace_ChIJIXPDoSFljEcRU-8H3JkDpoU","lat":46.2144574,"lon":6.147551699999999,"name":"El Catrín","city":"Genf","category":"gastro","tags":["barrierefrei","google_entrance_accessible"],"hours":{"type":"unknown"}},{"id":"gplace_ChIJKYP_Er9ljEcR2dgUmNNiKbE","lat":46.211441699999995,"lon":6.1458005,"name":"Restaurant Tehran Center","city":"Genf","category":"gastro","tags":["barrierefrei","google_wc_accessible"],"hours":{"type":"unknown"}},{"id":"gplace_ChIJw2qIzyVljEcRD2N-BU01yls","lat":46.2087146,"lon":6.1485205999999994,"name":"Cottage Café","city":"Genf","category":"gastro","tags":["barrierefrei","google_entrance_accessible"],"hours":{"type":"unknown"}},{"id":"gplace_ChIJb76cnydljEcRrTEyfcEu6pA","lat":46.2095726,"lon":6.1452354,"name":"Au Petit Chalet","city":"Genf","category":"gastro","tags":["google_has_restroom"],"hours":{"type":"unknown"}},{"id":"gplace_ChIJQfQ50QJljEcRbVBdMaRex9I","lat":46.2266307,"lon":6.1488917,"name":"UN Port beach club","city":"Genf","category":"gastro","tags":["barrierefrei","google_wc_accessible"],"hours":{"type":"unknown"}},{"id":"gplace_ChIJu1frMyVljEcRX8h8p5OexkU","lat":46.2323789,"lon":6.1400266,"name":"Jardin de Penthes","city":"Genf","category":"gastro","tags":["barrierefrei","google_wc_accessible"],"hours":{"type":"unknown"}},{"id":"gplace_ChIJ12MAeQFljEcRcp0BhSigTlo","lat":46.231344899999996,"lon":6.1499302,"name":"Restaurant de la plage Le Reposoir","city":"Genf","category":"gastro","tags":["barrierefrei","google_entrance_accessible"],"hours":{"type":"unknown"}},{"id":"gplace_ChIJMfBKevlkjEcRmDKhqAWygqQ","lat":46.231941299999995,"lon":6.1395569,"name":"International Tennis Club","city":"Genf","category":"gastro","tags":["barrierefrei","google_wc_accessible"],"hours":{"type":"unknown"}},{"id":"gplace_ChIJl1nfK_tkjEcRC8zlfezkJaU","lat":46.226945,"lon":6.1380729999999994,"name":"Restaurant Vieux Bois","city":"Genf","category":"gastro","tags":["barrierefrei","google_wc_accessible"],"hours":{"type":"unknown"}},{"id":"gplace_ChIJrcqVYPpkjEcRdQXb7R4jqIo","lat":46.229434999999995,"lon":6.1366665,"name":"La Vie des Champs","city":"Genf","category":"gastro","tags":["barrierefrei","google_entrance_accessible"],"hours":{"type":"unknown"}},{"id":"gplace_ChIJOwUjOEtljEcRLnSAfV5t32Y","lat":46.2223869,"lon":6.1489417,"name":"CHi LE MA PLUS 吃了吗+","city":"Genf","category":"gastro","tags":["barrierefrei","google_wc_accessible"],"hours":{"type":"unknown"}},{"id":"gplace_ChIJr5jw3qpljEcReo-YKYHou0Y","lat":46.237984100000006,"lon":6.149328000000001,"name":"Station Service Eni","city":"Genf","category":"tankstelle","tags":["barrierefrei","google_wc_accessible"],"hours":{"type":"unknown"}},{"id":"gplace_ChIJzQbHotNljEcRx1lZI0LSEkI","lat":46.227127599999996,"lon":6.14678,"name":"Restaurant Amarante","city":"Genf","category":"gastro","tags":["barrierefrei","google_wc_accessible"],"hours":{"type":"unknown"}},{"id":"gplace_ChIJbam_STdljEcRWRWeOd4n2tU","lat":46.222298099999996,"lon":6.1502672,"name":"Pavillon Barton - Comptoir Basque - Lake House","city":"Genf","category":"gastro","tags":["barrierefrei","google_wc_accessible"],"hours":{"type":"unknown"}},{"id":"gplace_ChIJVwbinQhljEcRYNW0YkNbCz8","lat":46.227528199999995,"lon":6.1367115,"name":"lerestaurant - Restaurant of ICRC","city":"Genf","category":"gastro","tags":["barrierefrei","google_wc_accessible","google_entrance_accessible"],"hours":{"type":"unknown"}},{"id":"gplace_ChIJ0Ve-H7pljEcRP_IFd56QsnY","lat":46.2276266,"lon":6.1491435999999995,"name":"Restaurant de la Plage de l'ONU","city":"Genf","category":"gastro","tags":["barrierefrei","google_entrance_accessible"],"hours":{"type":"unknown"}},{"id":"gplace_ChIJM1gsNABljEcRaGXNGJg3VIM","lat":46.223721,"lon":6.1481438,"name":"Kysko","city":"Genf","category":"other","tags":["google_has_restroom"],"hours":{"type":"unknown"}},{"id":"gplace_ChIJafjtZlFkjEcR2HJ8WRcy2es","lat":46.242329,"lon":6.1431178,"name":"Le Relais de Chambésy","city":"Genf","category":"gastro","tags":["barrierefrei","google_wc_accessible"],"hours":{"type":"unknown"}},{"id":"gplace_ChIJLZxRYfhkjEcRw_Zm7j0oJi0","lat":46.2353915,"lon":6.139146800000001,"name":"Restaurant La Fontaine","city":"Genf","category":"gastro","tags":["barrierefrei","google_entrance_accessible"],"hours":{"type":"unknown"}},{"id":"gplace_ChIJmTKvFeJkjEcRf-OgDbSP844","lat":46.222293099999995,"lon":6.1437661,"name":"Maison de la Paix Restaurant","city":"Genf","category":"gastro","tags":["google_has_restroom"],"hours":{"type":"unknown"}},{"id":"gplace_ChIJrTnczKpljEcRXhZJZSGOVIs","lat":46.237415999999996,"lon":6.148327999999999,"name":"Station service Eni (Jura)","city":"Genf","category":"tankstelle","tags":["barrierefrei","google_wc_accessible"],"hours":{"type":"unknown"}},{"id":"gplace_ChIJ5QudBjx7jEcRutCjNntkZ4A","lat":46.199864,"lon":6.162668,"name":"Oh Martine!","city":"Genf","category":"gastro","tags":["google_has_restroom"],"hours":{"type":"unknown"}},{"id":"gplace_ChIJuWuMzDVljEcRe58areN_Uig","lat":46.2005862,"lon":6.1598961999999995,"name":"Coop","city":"Genf","category":"other","tags":["barrierefrei","google_wc_accessible"],"hours":{"type":"unknown"}},{"id":"gplace_ChIJgc9pojNljEcRdV6IgwuyEZ4","lat":46.1997831,"lon":6.1556416,"name":"Bains de l'Est","city":"Genf","category":"gastro","tags":["google_has_restroom"],"hours":{"type":"unknown"}},{"id":"gplace_ChIJWaoVjLV6jEcRUaWt5aBNv28","lat":46.193348199999996,"lon":6.161439499999999,"name":"Coop Supermarché Genève Florissant","city":"Genf","category":"gastro","tags":["barrierefrei","google_wc_accessible"],"hours":{"type":"unknown"}},{"id":"gplace_ChIJxcsoqYl7jEcRKHWwS2xypW0","lat":46.194567199999995,"lon":6.1458433999999995,"name":"Suahoy","city":"Genf","category":"gastro","tags":["barrierefrei","google_entrance_accessible"],"hours":{"type":"unknown"}},{"id":"gplace_ChIJwzaVGTJljEcRL6krXIHKph8","lat":46.201410499999994,"lon":6.1528072,"name":"Black Tap","city":"Genf","category":"gastro","tags":["barrierefrei","google_entrance_accessible"],"hours":{"type":"unknown"}},{"id":"gplace_ChIJ-UxNy0pljEcRg0dsBoA7nTI","lat":46.196505,"lon":6.163404,"name":"Pâtisserie Mage","city":"Genf","category":"gastro","tags":["barrierefrei","google_entrance_accessible"],"hours":{"type":"unknown"}},{"id":"gplace_ChIJIcdp1jNljEcRgl79rwl3Tk8","lat":46.20165600000001,"lon":6.155056,"name":"Soleil Rouge","city":"Genf","category":"gastro","tags":["barrierefrei","google_entrance_accessible"],"hours":{"type":"unknown"}},{"id":"gplace_ChIJV41tBfJljEcR8HEnDOeQYto","lat":46.2010259,"lon":6.1552481,"name":"ferdi","city":"Genf","category":"gastro","tags":["barrierefrei","google_entrance_accessible"],"hours":{"type":"unknown"}},{"id":"gplace_ChIJt2JaSDtljEcRIq1Zafl8h3M","lat":46.210266,"lon":6.154090999999999,"name":"Buvette des Bains","city":"Genf","category":"gastro","tags":["google_has_restroom"],"hours":{"type":"unknown"}},{"id":"gplace_ChIJJ7GmPOVljEcRSprqG8PtcKs","lat":46.211908099999995,"lon":6.16716,"name":"Restaurant de la Plage & Buvette","city":"Genf","category":"gastro","tags":["barrierefrei","google_wc_accessible"],"hours":{"type":"unknown"}},{"id":"gplace_ChIJ7_72dBlljEcRW2JfynJbcds","lat":46.220110999999996,"lon":6.1527579,"name":"Restaurant la Perle du Lac","city":"Genf","category":"gastro","tags":["barrierefrei","google_wc_accessible"],"hours":{"type":"unknown"}},{"id":"gplace_ChIJuR9PriZljEcRqgBtxdibw40","lat":46.2113553,"lon":6.147692500000001,"name":"Seoul","city":"Genf","category":"gastro","tags":["barrierefrei","google_entrance_accessible"],"hours":{"type":"unknown"}},{"id":"gplace_ChIJheUAWCNljEcR0PYOqhO77pY","lat":46.2117359,"lon":6.153169999999999,"name":"La Terrasse","city":"Genf","category":"gastro","tags":["barrierefrei","google_entrance_accessible"],"hours":{"type":"unknown"}},{"id":"gplace_ChIJW3ZMKlBljEcR6-78Lf36EjQ","lat":46.221422499999996,"lon":6.1480049,"name":"My Little Cup","city":"Genf","category":"gastro","tags":["google_has_restroom"],"hours":{"type":"unknown"}},{"id":"gplace_ChIJQ2NmVh5ljEcRhGLm2vJ14lk","lat":46.219422699999996,"lon":6.1471523,"name":"Le Fix","city":"Genf","category":"gastro","tags":["barrierefrei","google_wc_accessible"],"hours":{"type":"unknown"}},{"id":"gplace_ChIJyX9KHlFljEcRTep2M0JDT2c","lat":46.211386999999995,"lon":6.149979,"name":"Edelweiss restaurant","city":"Genf","category":"gastro","tags":["barrierefrei","google_wc_accessible","google_entrance_accessible"],"hours":{"type":"unknown"}},{"id":"gplace_ChIJPSPnQCRljEcRd_ZHbqNqDag","lat":46.210367000000005,"lon":6.1494383,"name":"Grand Duke Pub","city":"Genf","category":"gastro","tags":["barrierefrei","google_wc_accessible"],"hours":{"type":"unknown"}},{"id":"gplace_ChIJL0ES1hNljEcRt8nDWJ1hxuk","lat":46.2011512,"lon":6.1662368999999995,"name":"Gigi Cucina & Bar","city":"Genf","category":"gastro","tags":["barrierefrei","google_wc_accessible"],"hours":{"type":"unknown"}},{"id":"gplace_ChIJs9hDfbB7jEcRzPJHHTxdpI8","lat":46.195820399999995,"lon":6.156987,"name":"Beau Coffee","city":"Genf","category":"gastro","tags":["google_has_restroom"],"hours":{"type":"unknown"}},{"id":"gplace_ChIJ6XsChuBljEcR5xSRAdxnG1A","lat":46.2007751,"lon":6.1653008,"name":"GVA Eaux-vives train station & mallstation &","city":"Genf","category":"other","tags":["barrierefrei","google_wc_accessible"],"hours":{"type":"unknown"}},{"id":"gplace_ChIJC0ex8-d7jEcR5PI9c6bVB4k","lat":46.1864584,"lon":6.1598387,"name":"Centre sportif universitaire (CSU) - Bâtiment 1","city":"Genf","category":"other","tags":["barrierefrei","google_wc_accessible"],"hours":{"type":"unknown"}},{"id":"gplace_ChIJN8YLhjZljEcRFwLVskDThQ8","lat":46.199887499999996,"lon":6.165742,"name":"Laser Game","city":"Genf","category":"gastro","tags":["barrierefrei","google_wc_accessible"],"hours":{"type":"unknown"}},{"id":"gplace_ChIJQenlwqV7jEcRlqM9LO7l3UM","lat":46.1934373,"lon":6.165828299999999,"name":"NonStop Gym Champel","city":"Genf","category":"other","tags":["barrierefrei","google_entrance_accessible"],"hours":{"type":"unknown"}},{"id":"gplace_ChIJmV19Wl1ljEcRQwFXEfeG-RU","lat":46.200312,"lon":6.163688199999999,"name":"Scaramù","city":"Genf","category":"gastro","tags":["barrierefrei","google_wc_accessible"],"hours":{"type":"unknown"}},{"id":"gplace_ChIJwWDYbbtljEcRySenSEfF8MU","lat":46.20055310000001,"lon":6.166576500000001,"name":"Caracol","city":"Genf","category":"gastro","tags":["google_has_restroom"],"hours":{"type":"unknown"}},{"id":"gplace_ChIJAUTyz3dljEcRwqUiL_gAicI","lat":46.197930299999996,"lon":6.1606764,"name":"Bistro Coco","city":"Genf","category":"gastro","tags":["barrierefrei","google_wc_accessible"],"hours":{"type":"unknown"}},{"id":"gplace_ChIJUcL1-TZljEcRbO2ZU8UmJ9E","lat":46.203338699999996,"lon":6.1602105,"name":"Taqueria Los Cuñados","city":"Genf","category":"gastro","tags":["barrierefrei","google_entrance_accessible"],"hours":{"type":"unknown"}},{"id":"gplace_ChIJwXtt-9pljEcRlsjpqTfMaps","lat":46.2044084,"lon":6.1579261,"name":"Noon Café Céramique","city":"Genf","category":"gastro","tags":["barrierefrei","google_wc_accessible"],"hours":{"type":"unknown"}},{"id":"gplace_ChIJlyqjtjZljEcRmN_3ZpaSOJk","lat":46.202538499999996,"lon":6.158017,"name":"ALMA Restaurant","city":"Genf","category":"gastro","tags":["barrierefrei","google_wc_accessible"],"hours":{"type":"unknown"}},{"id":"gplace_ChIJB4lPsDJljEcRR5UluQnWxwk","lat":46.205622299999995,"lon":6.1582829,"name":"Hunch","city":"Genf","category":"gastro","tags":["google_has_restroom"],"hours":{"type":"unknown"}},{"id":"gplace_ChIJi284wjZljEcRc3-h6fQBKCk","lat":46.20317420000001,"lon":6.1589366,"name":"Maison Balkii","city":"Genf","category":"gastro","tags":["google_has_restroom"],"hours":{"type":"unknown"}},{"id":"gplace_ChIJyRax_FlljEcRLjWqtTF0QDs","lat":46.2053517,"lon":6.1819466,"name":"Supermarché Migros","city":"Genf","category":"other","tags":["barrierefrei","google_wc_accessible"],"hours":{"type":"unknown"}},{"id":"gplace_ChIJtW8VekZljEcRHMTm4W0SQoo","lat":46.207746,"lon":6.169275,"name":"Hôtel du Parc des Eaux-Vives","city":"Genf","category":"gastro","tags":["barrierefrei","google_wc_accessible"],"hours":{"type":"unknown"}},{"id":"gplace_ChIJ5UEoAfNljEcROlcilTZRQf4","lat":46.2021686,"lon":6.1574838000000005,"name":"Khora","city":"Genf","category":"gastro","tags":["barrierefrei","google_entrance_accessible"],"hours":{"type":"unknown"}},{"id":"gplace_ChIJL8uA74JljEcR30n-G3iWmaA","lat":46.2045089,"lon":6.1621714,"name":"Pizzeria Dagli Amici","city":"Genf","category":"gastro","tags":["barrierefrei","google_wc_accessible"],"hours":{"type":"unknown"}},{"id":"gplace_ChIJ60CiO3tljEcRZp2Ns6O7jFE","lat":46.225254299999996,"lon":6.182814,"name":"Yacht Club de Genève","city":"Genf","category":"gastro","tags":["barrierefrei","google_wc_accessible"],"hours":{"type":"unknown"}},{"id":"gplace_ChIJF5hGDGdljEcRkmK_mpVnL44","lat":46.216257000000006,"lon":6.1804286,"name":"Restaurant Le Lion d'Or","city":"Genf","category":"gastro","tags":["barrierefrei","google_entrance_accessible"],"hours":{"type":"unknown"}},{"id":"gplace_ChIJFVY2_UNljEcRkTweEUHkbXw","lat":46.211128699999996,"lon":6.1703763,"name":"Allianz Cinema Genève","city":"Genf","category":"gastro","tags":["barrierefrei","google_wc_accessible"],"hours":{"type":"unknown"}},{"id":"gplace_ChIJ67LCzGBljEcRS4EtxP6kWjw","lat":46.2163399,"lon":6.1829623,"name":"La Closerie","city":"Genf","category":"gastro","tags":["barrierefrei","google_wc_accessible"],"hours":{"type":"unknown"}},{"id":"gplace_ChIJM1jhcWdljEcRgEz8OJ6oVBo","lat":46.215692,"lon":6.180736,"name":"Mr. Philippe Taillé","city":"Genf","category":"gastro","tags":["barrierefrei","google_entrance_accessible"],"hours":{"type":"unknown"}},{"id":"gplace_ChIJJXCiR_NljEcRK5Wa9SgY35U","lat":46.214071,"lon":6.1745266,"name":"Les Terrasses de la Plage","city":"Genf","category":"gastro","tags":["barrierefrei","google_entrance_accessible"],"hours":{"type":"unknown"}},{"id":"gplace_ChIJ75K1c7xljEcRIYiwc1rIYow","lat":46.2131548,"lon":6.1735492999999995,"name":"Bistro","city":"Genf","category":"gastro","tags":["barrierefrei","google_entrance_accessible"],"hours":{"type":"unknown"}},{"id":"gplace_ChIJEaJf28QvjEcRf55RNcQlR9A","lat":46.504867999999995,"lon":6.6274342,"name":"The Lacustre","city":"Lausanne","category":"gastro","tags":["barrierefrei","google_wc_accessible"],"hours":{"type":"unknown"}},{"id":"gplace_ChIJ9be9-9cvjEcRuYwRzTjTJww","lat":46.5087498,"lon":6.6165129,"name":"Jetée de la Compagnie","city":"Lausanne","category":"gastro","tags":["barrierefrei","google_wc_accessible"],"hours":{"type":"unknown"}},{"id":"gplace_ChIJMRopTSkwjEcR_uZIU-MzjUU","lat":46.512851,"lon":6.610838299999999,"name":"Théâtre Vidy-Lausanne","city":"Lausanne","category":"gastro","tags":["barrierefrei","google_wc_accessible"],"hours":{"type":"unknown"}},{"id":"gplace_ChIJIRNEgtIvjEcRZkPEKNs6wCA","lat":46.5152778,"lon":6.6286111,"name":"Café de Grancy","city":"Lausanne","category":"gastro","tags":["barrierefrei","google_wc_accessible"],"hours":{"type":"unknown"}},{"id":"gplace_ChIJf4_WZhwvjEcRUIbF434IUN4","lat":46.5118513,"lon":6.628768399999999,"name":"Fripsquare café & Vintage store","city":"Lausanne","category":"gastro","tags":["google_has_restroom"],"hours":{"type":"unknown"}},{"id":"gplace_ChIJhTUWqnIvjEcRZcMeb4RZ4qY","lat":46.5163244,"lon":6.6265111999999995,"name":"Umamido Grancy - Ramen Shop","city":"Lausanne","category":"gastro","tags":["barrierefrei","google_wc_accessible"],"hours":{"type":"unknown"}},{"id":"gplace_ChIJvao3CQAxjEcRjXzh9HUJDhg","lat":46.5117816,"lon":6.609328100000001,"name":"HOKKAÏDO","city":"Lausanne","category":"gastro","tags":["barrierefrei","google_entrance_accessible"],"hours":{"type":"unknown"}},{"id":"gplace_ChIJoc5kzAEvjEcR-dB76ip1cho","lat":46.5118185,"lon":6.625619599999999,"name":"Lupaia Osteria","city":"Lausanne","category":"gastro","tags":["google_has_restroom"],"hours":{"type":"unknown"}},{"id":"gplace_ChIJSaJ1UMUvjEcRMyMZcLgE-SM","lat":46.50722220000001,"lon":6.6277778,"name":"Vieil Ouchy","city":"Lausanne","category":"gastro","tags":["barrierefrei","google_entrance_accessible","google_wc_accessible"],"hours":{"type":"unknown"}},{"id":"gplace_ChIJn7NHcc4vjEcRJppax5wPYmQ","lat":46.5116824,"lon":6.6297102,"name":"La Croix d'Ouchy","city":"Lausanne","category":"gastro","tags":["barrierefrei","google_entrance_accessible"],"hours":{"type":"unknown"}},{"id":"gplace_ChIJsdqp3zIvjEcRkAUnntvX_rY","lat":46.515900099999996,"lon":6.627998799999999,"name":"Inglewood Grancy","city":"Lausanne","category":"gastro","tags":["barrierefrei","google_entrance_accessible"],"hours":{"type":"unknown"}},{"id":"gplace_ChIJS69iIdMvjEcRbCXSpcMsLik","lat":46.516531,"lon":6.62589,"name":"Le Milan","city":"Lausanne","category":"gastro","tags":["barrierefrei","google_entrance_accessible"],"hours":{"type":"unknown"}},{"id":"gplace_ChIJs_J19TIujEcRAr8G9B1OxWU","lat":46.5194027,"lon":6.6307199,"name":"Lausanne Palace","city":"Lausanne","category":"gastro","tags":["barrierefrei","google_entrance_accessible"],"hours":{"type":"unknown"}},{"id":"gplace_ChIJCVMf-DEujEcRXWFepgYfFUI","lat":46.522236,"lon":6.6313569,"name":"MANOR Lausanne","city":"Lausanne","category":"other","tags":["barrierefrei","google_wc_accessible"],"hours":{"type":"unknown"}},{"id":"gplace_ChIJ_XZHhi4ujEcRpl3WsdDxyVo","lat":46.5224317,"lon":6.6274552,"name":"Métropole Lausanne","city":"Lausanne","category":"other","tags":["barrierefrei","google_wc_accessible"],"hours":{"type":"unknown"}},{"id":"gplace_ChIJPcvaZCwujEcREkNMSMORhZE","lat":46.5205136,"lon":6.6248083,"name":"Brasserie de Montbenon","city":"Lausanne","category":"gastro","tags":["barrierefrei","google_wc_accessible"],"hours":{"type":"unknown"}},{"id":"gplace_ChIJm5uuAi4ujEcRdh4SZ1ZxLzA","lat":46.522742099999995,"lon":6.6303887999999995,"name":"Coop City Lausanne Au Centre","city":"Lausanne","category":"other","tags":["barrierefrei","google_wc_accessible"],"hours":{"type":"unknown"}},{"id":"gplace_ChIJf-p1t8QvjEcRq1kQpcsjU10","lat":46.523334399999996,"lon":6.6290343,"name":"Kung-fu Cuisine 功夫小厨","city":"Lausanne","category":"gastro","tags":["barrierefrei","google_wc_accessible","google_has_restroom"],"hours":{"type":"unknown"}},{"id":"gplace_ChIJ9aR3nDEujEcRNxO8wCyA7w0","lat":46.5227149,"lon":6.6331685,"name":"The Great Escape","city":"Lausanne","category":"gastro","tags":["google_has_restroom"],"hours":{"type":"unknown"}},{"id":"gplace_ChIJfcJs0SwujEcRsZ9tjf1SslQ","lat":46.517978899999996,"lon":6.6254456,"name":"Cantonal museum of fine arts Lausanne","city":"Lausanne","category":"gastro","tags":["barrierefrei","google_wc_accessible"],"hours":{"type":"unknown"}},{"id":"gplace_ChIJATLJ0TMujEcRzotgkVmQyyc","lat":46.5211111,"lon":6.6336110999999995,"name":"Globus","city":"Lausanne","category":"other","tags":["barrierefrei","google_wc_accessible"],"hours":{"type":"unknown"}},{"id":"gplace_ChIJFeNYM48vjEcRVbzsQruaR2o","lat":46.518239,"lon":6.6338247,"name":"COFFEE PAGE","city":"Lausanne","category":"gastro","tags":["google_has_restroom"],"hours":{"type":"unknown"}},{"id":"gplace_ChIJoUb-XVkvjEcRq2_quTfvjbk","lat":46.5212292,"lon":6.6299931999999995,"name":"KFC","city":"Lausanne","category":"gastro","tags":["barrierefrei","google_wc_accessible"],"hours":{"type":"unknown"}},{"id":"gplace_ChIJu819Uq0xjEcR531XmrzzMio","lat":46.5348437,"lon":6.6062071,"name":"Prilly Centre","city":"Lausanne","category":"other","tags":["barrierefrei","google_wc_accessible"],"hours":{"type":"unknown"}},{"id":"gplace_ChIJoSa580oxjEcRpTDU8cdues4","lat":46.538021,"lon":6.6217711,"name":"Histoire Sans Faim - Restaurant Italien Lausanne","city":"Lausanne","category":"gastro","tags":["barrierefrei","google_wc_accessible"],"hours":{"type":"unknown"}},{"id":"gplace_ChIJraPqwtAxjEcR2vNBd4FCV-Q","lat":46.5261985,"lon":6.6127861999999995,"name":"Café de Prélaz","city":"Lausanne","category":"gastro","tags":["barrierefrei","google_entrance_accessible"],"hours":{"type":"unknown"}},{"id":"gplace_ChIJdYiLISYujEcRJxxOdtTCg3w","lat":46.527525499999996,"lon":6.6244137,"name":"L'Auberge de Beaulieu","city":"Lausanne","category":"gastro","tags":["barrierefrei","google_wc_accessible"],"hours":{"type":"unknown"}},{"id":"gplace_ChIJMSSTcm8xjEcRwqZlcwrEe7g","lat":46.523800699999995,"lon":6.6148117,"name":"FOOD HALLE 15","city":"Lausanne","category":"gastro","tags":["barrierefrei","google_wc_accessible"],"hours":{"type":"unknown"}},{"id":"gplace_ChIJu6gJ4tcxjEcRaquR2AijShU","lat":46.526654900000004,"lon":6.6200031,"name":"L'Atelier","city":"Lausanne","category":"gastro","tags":["barrierefrei","google_entrance_accessible"],"hours":{"type":"unknown"}},{"id":"gplace_ChIJ6csC5y0vjEcRyPPsl6HHulw","lat":46.526133099999996,"lon":6.6213769,"name":"Bạn","city":"Lausanne","category":"gastro","tags":["barrierefrei","google_entrance_accessible"],"hours":{"type":"unknown"}},{"id":"gplace_ChIJI_XDODYxjEcRvgFtOJZAoJo","lat":46.524219099999996,"lon":6.6176965999999995,"name":":Maison66","city":"Lausanne","category":"gastro","tags":["barrierefrei","google_entrance_accessible"],"hours":{"type":"unknown"}},{"id":"gplace_ChIJL37WytUxjEcRzuUXcK6OsPE","lat":46.531265999999995,"lon":6.6186739999999995,"name":"Supermarché Migros - Lausanne - Bergières","city":"Lausanne","category":"other","tags":["barrierefrei","google_wc_accessible"],"hours":{"type":"unknown"}},{"id":"gplace_ChIJ_7nkE4AxjEcR08dxFdS-lGY","lat":46.5275165,"lon":6.6125164,"name":"MEALZ ( SlurpBurger x SukiSando x Cotcotte )","city":"Lausanne","category":"gastro","tags":["barrierefrei","google_entrance_accessible"],"hours":{"type":"unknown"}},{"id":"gplace_ChIJGYOyNnEvjEcRWl33_s1epQU","lat":46.526108699999995,"lon":6.623313899999999,"name":"La Station","city":"Lausanne","category":"gastro","tags":["barrierefrei","google_wc_accessible"],"hours":{"type":"unknown"}},{"id":"gplace_ChIJOU_2jygujEcRStaWwwp7lvU","lat":46.526651,"lon":6.623574,"name":"Petit Boeuf","city":"Lausanne","category":"gastro","tags":["barrierefrei","google_wc_accessible"],"hours":{"type":"unknown"}},{"id":"gplace_ChIJqVxEsNIvjEcRrCuERs3UL3I","lat":46.5260964,"lon":6.631322,"name":"Fitness Wellness Sport Club Lausanne","city":"Lausanne","category":"other","tags":["barrierefrei","google_wc_accessible"],"hours":{"type":"unknown"}},{"id":"gplace_ChIJQWPElNAxjEcRLAHHzEnRfcg","lat":46.526643,"lon":6.6125066,"name":"Coop Supermarché Lausanne Prélaz","city":"Lausanne","category":"other","tags":["barrierefrei","google_wc_accessible"],"hours":{"type":"unknown"}},{"id":"gplace_ChIJCaKpgi8ujEcRs0oJQq86NKU","lat":46.526105,"lon":6.629333000000001,"name":"Herat","city":"Lausanne","category":"gastro","tags":["google_has_restroom"],"hours":{"type":"unknown"}},{"id":"gplace_ChIJT1vrHSkujEcRKuYwaw4dyyQ","lat":46.5248408,"lon":6.623503899999999,"name":"IRIS Lausanne Café-restaurant-Bar","city":"Lausanne","category":"gastro","tags":["barrierefrei","google_wc_accessible"],"hours":{"type":"unknown"}},{"id":"gplace_ChIJue-XNtExjEcRcwSGimHLNMc","lat":46.5242972,"lon":6.6137748,"name":"Mami Pizza","city":"Lausanne","category":"gastro","tags":["barrierefrei","google_entrance_accessible"],"hours":{"type":"unknown"}},{"id":"gplace_ChIJW4WvAs0vjEcRQJJh6cq4BqI","lat":46.515312699999996,"lon":6.6316035,"name":"Coop Supermarché Lausanne Grancy","city":"Lausanne","category":"other","tags":["barrierefrei","google_wc_accessible"],"hours":{"type":"unknown"}},{"id":"gplace_ChIJNe7Im8kvjEcRzCWGbMZ9ZMo","lat":46.5113801,"lon":6.6369216,"name":"Café des Avenues","city":"Lausanne","category":"gastro","tags":["google_has_restroom"],"hours":{"type":"unknown"}},{"id":"gplace_ChIJ92SJa80vjEcRF0n8ITebwfQ","lat":46.5158333,"lon":6.63,"name":"Café du Simplon","city":"Lausanne","category":"gastro","tags":["barrierefrei","google_wc_accessible"],"hours":{"type":"unknown"}},{"id":"gplace_ChIJfe-ssMwvjEcRzibxd1Koxic","lat":46.5164057,"lon":6.633572,"name":"NonStop Gym Lausanne Gare","city":"Lausanne","category":"other","tags":["barrierefrei","google_wc_accessible"],"hours":{"type":"unknown"}},{"id":"gplace_ChIJjz5f_s8vjEcRbzaMCWBeFJM","lat":46.507850399999995,"lon":6.6272527,"name":"White Horse","city":"Lausanne","category":"gastro","tags":["barrierefrei","google_entrance_accessible"],"hours":{"type":"unknown"}},{"id":"gplace_ChIJXwedWzQujEcR9LcRTzOwtSs","lat":46.519649099999995,"lon":6.6370968999999995,"name":"Luigia Lausanne","city":"Lausanne","category":"gastro","tags":["barrierefrei","google_wc_accessible"],"hours":{"type":"unknown"}},{"id":"gplace_ChIJNfDYd8EvjEcRGjC8TAVXQ2s","lat":46.520051099999996,"lon":6.640147,"name":"Doki Doki","city":"Lausanne","category":"gastro","tags":["barrierefrei","google_entrance_accessible"],"hours":{"type":"unknown"}},{"id":"gplace_ChIJa5TElL4vjEcRGPVO1nHC_Zk","lat":46.531443,"lon":6.639326,"name":"Restaurant Chalet Suisse","city":"Lausanne","category":"gastro","tags":["barrierefrei","google_wc_accessible"],"hours":{"type":"unknown"}},{"id":"gplace_ChIJd5pW3jEujEcRzW3IWxz-u-k","lat":46.523385000000005,"lon":6.630869799999999,"name":"Le Pointu","city":"Lausanne","category":"gastro","tags":["barrierefrei","google_entrance_accessible"],"hours":{"type":"unknown"}},{"id":"gplace_ChIJwazb3AQvjEcRJiEezanQj1s","lat":46.5241449,"lon":6.632387500000001,"name":"Un Po' Di Più Trattoria","city":"Lausanne","category":"gastro","tags":["barrierefrei","google_wc_accessible"],"hours":{"type":"unknown"}},{"id":"gplace_ChIJUYM1KI8vjEcRSkFD5N4-kZY","lat":46.5258277,"lon":6.6352132,"name":"Black Market Ramen","city":"Lausanne","category":"gastro","tags":["google_has_restroom"],"hours":{"type":"unknown"}},{"id":"gplace_ChIJwWgZWDAujEcRrCywzQJFjwI","lat":46.525039,"lon":6.633762,"name":"Café La Couronne d'Or","city":"Lausanne","category":"gastro","tags":["google_has_restroom"],"hours":{"type":"unknown"}},{"id":"gplace_ChIJl3lbJOYvjEcRs2Bzx-1dAuo","lat":46.5236325,"lon":6.635605699999999,"name":"Sisterfields Café","city":"Lausanne","category":"gastro","tags":["barrierefrei","google_entrance_accessible"],"hours":{"type":"unknown"}},{"id":"gplace_ChIJVVVZPDcujEcRpqpZtetA-0s","lat":46.5247988,"lon":6.6378182,"name":"Man'Ouchy","city":"Lausanne","category":"gastro","tags":["barrierefrei","google_wc_accessible"],"hours":{"type":"unknown"}},{"id":"gplace_ChIJs_EuCR8vjEcR2Xsy9vnk-J0","lat":46.524078,"lon":6.629582000000001,"name":"le Cazard","city":"Lausanne","category":"gastro","tags":["barrierefrei","google_wc_accessible"],"hours":{"type":"unknown"}},{"id":"gplace_ChIJew7_NaovjEcR2cfl_Wji4_E","lat":46.51153250000001,"lon":6.6598277999999995,"name":"Supermarché Migros","city":"Lausanne","category":"other","tags":["barrierefrei","google_wc_accessible"],"hours":{"type":"unknown"}},{"id":"gplace_ChIJD5mcmhYvjEcR86jKhZijdYE","lat":46.5055288,"lon":6.6613378999999995,"name":"Bar La Générale","city":"Lausanne","category":"gastro","tags":["barrierefrei","google_entrance_accessible"],"hours":{"type":"unknown"}},{"id":"gplace_ChIJDdkE3AcvjEcRuz5CKVzDiMA","lat":46.5059487,"lon":6.662597099999999,"name":"Restaurant du Port de Pully","city":"Lausanne","category":"gastro","tags":["barrierefrei","google_wc_accessible"],"hours":{"type":"unknown"}},{"id":"gplace_ChIJuaXxlzYvjEcRjRVllf7kog8","lat":46.506386,"lon":6.6361903,"name":"Bar Côté Lac Lausanne","city":"Lausanne","category":"gastro","tags":["google_has_restroom"],"hours":{"type":"unknown"}},{"id":"gplace_ChIJK3gJANIvjEcR0WcivoDh03M","lat":46.5086198,"lon":6.6340974,"name":"Restaurant du Musée Olympique (TOM Café)","city":"Lausanne","category":"gastro","tags":["barrierefrei","google_wc_accessible"],"hours":{"type":"unknown"}},{"id":"gplace_ChIJ81uTsXYvjEcRuBMRb4QIFk8","lat":46.506751099999995,"lon":6.6560944,"name":"East Side Pully","city":"Lausanne","category":"gastro","tags":["barrierefrei","google_wc_accessible"],"hours":{"type":"unknown"}},{"id":"gplace_ChIJFcOR1JMvjEcRr1zaop6uEyY","lat":46.5166841,"lon":6.6448374999999995,"name":"Café Restaurant Shiraz","city":"Lausanne","category":"gastro","tags":["barrierefrei","google_wc_accessible"],"hours":{"type":"unknown"}},{"id":"gplace_ChIJbZ64McovjEcRYiI7EjRhUJU","lat":46.512633099999995,"lon":6.6371036,"name":"Fondue chinoise Tang Roulou","city":"Lausanne","category":"gastro","tags":["google_has_restroom"],"hours":{"type":"unknown"}},{"id":"gplace_ChIJ8XbM2bIvjEcRsumePxY7158","lat":46.515440999999996,"lon":6.6493204,"name":"Le Rossignol","city":"Lausanne","category":"gastro","tags":["barrierefrei","google_wc_accessible"],"hours":{"type":"unknown"}},{"id":"gplace_ChIJUUILFa0vjEcRIAVrsjkzdc0","lat":46.514603799999996,"lon":6.6530990999999995,"name":"Keyann Lebanese café","city":"Lausanne","category":"gastro","tags":["google_has_restroom"],"hours":{"type":"unknown"}},{"id":"gplace_ChIJVatEHQAzjEcRTxqMnid2zxQ","lat":46.5058702,"lon":6.659999099999999,"name":"Bambino","city":"Lausanne","category":"gastro","tags":["barrierefrei","google_wc_accessible"],"hours":{"type":"unknown"}},{"id":"gplace_ChIJJUW5yjkvjEcRd9sPkxvOuRA","lat":46.5123286,"lon":6.638839,"name":"Rumah","city":"Lausanne","category":"gastro","tags":["barrierefrei","google_wc_accessible"],"hours":{"type":"unknown"}},{"id":"gplace_ChIJm5uuAi4ujEcRdV7tDLdiYNc","lat":46.5208593,"lon":6.6376033,"name":"Coop Supermarché Lausanne Caroline","city":"Lausanne","category":"other","tags":["barrierefrei","google_wc_accessible"],"hours":{"type":"unknown"}},{"id":"gplace_ChIJE0bt5YwvjEcR-vw3s1HcmU4","lat":46.5206502,"lon":6.6355794999999995,"name":"The Sweet Sage Pâtisserie","city":"Lausanne","category":"gastro","tags":["barrierefrei","google_wc_accessible"],"hours":{"type":"unknown"}},{"id":"gplace_ChIJ5z9zZjEujEcRAX3kUZZ3X3w","lat":46.522385899999996,"lon":6.6343339,"name":"Vieux-Lausanne Restaurant & Giraf Bar","city":"Lausanne","category":"gastro","tags":["barrierefrei","google_entrance_accessible"],"hours":{"type":"unknown"}},{"id":"gplace_ChIJz1bX4zMujEcRDLSYjd7SNyk","lat":46.521627599999995,"lon":6.6347133,"name":"Crêperie la Chandeleur","city":"Lausanne","category":"gastro","tags":["google_has_restroom"],"hours":{"type":"unknown"}},{"id":"gplace_ChIJkx47qjIujEcR5RZ1b3CMPZs","lat":46.520039999999995,"lon":6.6364038999999995,"name":"McDonald’s","city":"Lausanne","category":"gastro","tags":["barrierefrei","google_wc_accessible"],"hours":{"type":"unknown"}},{"id":"gplace_ChIJ98mcgjQujEcRpyAHAeO9NFk","lat":46.518541,"lon":6.635155000000001,"name":"Coop City Lausanne St. François","city":"Lausanne","category":"other","tags":["barrierefrei","google_wc_accessible"],"hours":{"type":"unknown"}},{"id":"gplace_ChIJcV4yVTEujEcR-4IC1sGzVzg","lat":46.521896,"lon":6.6359721,"name":"L'Evêché - Café-Restaurant","city":"Lausanne","category":"gastro","tags":["barrierefrei","google_wc_accessible"],"hours":{"type":"unknown"}},{"id":"gplace_ChIJEfE7ATQujEcR9a3grdltbMg","lat":46.521482999999996,"lon":6.6365419,"name":"ALDI","city":"Lausanne","category":"other","tags":["barrierefrei","google_wc_accessible"],"hours":{"type":"unknown"}},{"id":"gplace_ChIJh9xZVkAujEcRC2BT5VsWMc8","lat":46.5272222,"lon":6.651666700000001,"name":"Supermarché Migros","city":"Lausanne","category":"other","tags":["barrierefrei","google_wc_accessible"],"hours":{"type":"unknown"}},{"id":"gplace_ChIJz7R9U_ovjEcR_LTVTRo774M","lat":46.518459299999996,"lon":6.6370806,"name":"TAOLÉ Table Libanaise","city":"Lausanne","category":"gastro","tags":["barrierefrei","google_entrance_accessible"],"hours":{"type":"unknown"}},{"id":"gplace_ChIJgxf0RTQujEcRRlTHq9EySJ0","lat":46.5201463,"lon":6.6377261999999995,"name":"Bleu Lézard","city":"Lausanne","category":"gastro","tags":["barrierefrei","google_entrance_accessible"],"hours":{"type":"unknown"}},{"id":"gplace_ChIJ_cTByD0vjEcRGgM1mWLfkl8","lat":46.5176883,"lon":6.6443143,"name":"La Esquina","city":"Lausanne","category":"gastro","tags":["google_has_restroom"],"hours":{"type":"unknown"}},{"id":"gplace_ChIJo4iQG2gujEcRWana8qUGXzc","lat":46.53546,"lon":6.655259999999999,"name":"ALDI SUISSE Lausanne","city":"Lausanne","category":"other","tags":["barrierefrei","google_wc_accessible"],"hours":{"type":"unknown"}},{"id":"gplace_ChIJbeFPSp8vjEcRQF-6ghgtbA8","lat":46.527215399999996,"lon":6.6410934,"name":"Le Marrakech","city":"Lausanne","category":"gastro","tags":["barrierefrei","google_wc_accessible"],"hours":{"type":"unknown"}},{"id":"gplace_ChIJT8qCDOwvjEcR-wU9UEPI8h4","lat":46.543511699999996,"lon":6.6474025999999995,"name":"🔥 VOTRA – 🍽️🔥 Restaurant Albanais & Balkanique à Lausanne (Isabelle-de-Montolieu) | Restorant Shqiptar në Zvicër 🔴⚫✅","city":"Lausanne","category":"gastro","tags":["barrierefrei","google_wc_accessible"],"hours":{"type":"unknown"}},{"id":"gplace_ChIJv8HScBYujEcRZkpU-JNmMqw","lat":46.537221699999996,"lon":6.6389842,"name":"Pinte du Lac de Sauvabelin","city":"Lausanne","category":"gastro","tags":["barrierefrei","google_wc_accessible"],"hours":{"type":"unknown"}},{"id":"gplace_ChIJpWXD5EAujEcRShheiGG-cNQ","lat":46.5328825,"lon":6.646652100000001,"name":"Coop Supermarché La Sallaz","city":"Lausanne","category":"other","tags":["barrierefrei","google_wc_accessible"],"hours":{"type":"unknown"}},{"id":"gplace_ChIJYSwJ5BcujEcRhB4gJcjpLgo","lat":46.5366545,"lon":6.634818900000001,"name":"la Forêt","city":"Lausanne","category":"gastro","tags":["barrierefrei","google_wc_accessible"],"hours":{"type":"unknown"}},{"id":"gplace_ChIJ66SJwzkujEcRydaPxWh63Vw","lat":46.527212999999996,"lon":6.639037,"name":"Restaurant Dalat","city":"Lausanne","category":"gastro","tags":["google_has_restroom"],"hours":{"type":"unknown"}},{"id":"gplace_ChIJ66G4rTAujEcRatOFHIPxWZM","lat":46.5260368,"lon":6.6367236,"name":"à la Bossette","city":"Lausanne","category":"gastro","tags":["barrierefrei","google_wc_accessible"],"hours":{"type":"unknown"}},{"id":"gplace_ChIJ7Ud5bAAvjEcRjvFqihX6IrI","lat":46.531448,"lon":6.6460034,"name":"Top Beef","city":"Lausanne","category":"gastro","tags":["barrierefrei","google_entrance_accessible"],"hours":{"type":"unknown"}},{"id":"gplace_ChIJPaVKjl57jEcR8hvw-y_vd_A","lat":46.1838798,"lon":6.0967370999999995,"name":"Auberge d'Onex","city":"Genf","category":"gastro","tags":["barrierefrei","google_wc_accessible"],"hours":{"type":"unknown"}},{"id":"gplace_ChIJ_fvetV17jEcRxBOy7pX3KRQ","lat":46.1829354,"lon":6.0989067,"name":"Restaurant La Ferme","city":"Genf","category":"gastro","tags":["barrierefrei","google_wc_accessible"],"hours":{"type":"unknown"}},{"id":"gplace_ChIJKVaRrqt9jEcR2p8Wz69Jhzs","lat":46.189332199999996,"lon":6.0911976999999995,"name":"Restaurant des Evaux","city":"Genf","category":"gastro","tags":["barrierefrei","google_wc_accessible"],"hours":{"type":"unknown"}},{"id":"gplace_ChIJ0zit3V17jEcRa90oWwpPi3Y","lat":46.1822763,"lon":6.0977293999999995,"name":"Shell","city":"Genf","category":"gastro","tags":["barrierefrei","google_wc_accessible"],"hours":{"type":"unknown"}},{"id":"gplace_ChIJ-xjluB97jEcRk3ZEJaG7MMg","lat":46.1900081,"lon":6.09915,"name":"Brasserie Onesienne","city":"Genf","category":"gastro","tags":["barrierefrei","google_wc_accessible","google_entrance_accessible"],"hours":{"type":"unknown"}},{"id":"gplace_ChIJM2PoCFB7jEcRoyb0qvn5bBs","lat":46.1903813,"lon":6.1037634999999995,"name":"Restaurant Asmara","city":"Genf","category":"gastro","tags":["barrierefrei","google_entrance_accessible"],"hours":{"type":"unknown"}},{"id":"gplace_ChIJ6yVJfFx7jEcRpDH19xqcsJc","lat":46.185007899999995,"lon":6.1006415,"name":"Onex Kebap - Pizza au feu de bois","city":"Genf","category":"gastro","tags":["barrierefrei","google_entrance_accessible"],"hours":{"type":"unknown"}},{"id":"gplace_ChIJtwqbz117jEcRlLOyQWXby-k","lat":46.1828447,"lon":6.0982255,"name":"Restaurant Bar à Tapas La Courte-Paille","city":"Genf","category":"gastro","tags":["barrierefrei","google_entrance_accessible"],"hours":{"type":"unknown"}},{"id":"gplace_ChIJ_S_cQKF8jEcRZvhriq6xU_A","lat":46.185317399999995,"lon":6.08817,"name":"CressyPhysio SARL","city":"Genf","category":"other","tags":["barrierefrei","google_wc_accessible"],"hours":{"type":"unknown"}},{"id":"gplace_ChIJ69uPNAJ9jEcRWjr2e3rp62k","lat":46.181913699999996,"lon":6.0900213,"name":"Hills Coffee","city":"Genf","category":"gastro","tags":["barrierefrei","google_entrance_accessible"],"hours":{"type":"unknown"}},{"id":"gplace_ChIJuVNhR1B7jEcR9o7g7r9p9Oo","lat":46.1919288,"lon":6.103631699999999,"name":"Kebab du Marché","city":"Genf","category":"gastro","tags":["barrierefrei","google_entrance_accessible"],"hours":{"type":"unknown"}},{"id":"gplace_ChIJMbgrqFt7jEcRVSGY931125A","lat":46.186912,"lon":6.1019467999999994,"name":"Restaurant de la Piscine d'Onex","city":"Genf","category":"gastro","tags":["barrierefrei","google_wc_accessible"],"hours":{"type":"unknown"}},{"id":"gplace_ChIJndtAP-B7jEcRDhlJREL-tfc","lat":46.188804,"lon":6.103555,"name":"MAJESTIC BOULANGERIE TEA ROOM CAFE","city":"Genf","category":"gastro","tags":["barrierefrei","google_entrance_accessible"],"hours":{"type":"unknown"}},{"id":"gplace_ChIJCWPbHAV7jEcRY1sdx9LD1NA","lat":46.197253499999995,"lon":6.098334599999999,"name":"Brasserie du Parc","city":"Genf","category":"gastro","tags":["barrierefrei","google_entrance_accessible"],"hours":{"type":"unknown"}},{"id":"gplace_ChIJU3RJJWl7jEcR3gXPaFtJtaI","lat":46.1867038,"lon":6.0977698,"name":"Salle coin des bois","city":"Genf","category":"gastro","tags":["barrierefrei","google_entrance_accessible"],"hours":{"type":"unknown"}},{"id":"gplace_ChIJD400lqlkjEcRALpmOeCXubE","lat":46.205968399999996,"lon":6.098786,"name":"McDonald’s","city":"Genf","category":"gastro","tags":["barrierefrei","google_wc_accessible"],"hours":{"type":"unknown"}},{"id":"gplace_ChIJq3P-eURjjEcR2GP9JFY6DDo","lat":46.214821799999996,"lon":6.0839975,"name":"Auberge de la Mairie","city":"Genf","category":"gastro","tags":["barrierefrei","google_wc_accessible"],"hours":{"type":"unknown"}},{"id":"gplace_ChIJmx5YMqhkjEcRuHTwfWYrOUA","lat":46.2038969,"lon":6.0967747,"name":"Centre commercial du Lignon","city":"Genf","category":"other","tags":["barrierefrei","google_wc_accessible"],"hours":{"type":"unknown"}},{"id":"gplace_ChIJr9h_TKlkjEcRJYVaI9yy7Xw","lat":46.2056745,"lon":6.101947699999999,"name":"La Cité des Vents SA","city":"Genf","category":"gastro","tags":["barrierefrei","google_wc_accessible"],"hours":{"type":"unknown"}},{"id":"gplace_ChIJGUDEJURjjEcRyYBkfQUjbEY","lat":46.2136279,"lon":6.082038,"name":"Au Vieux Vernier","city":"Genf","category":"gastro","tags":["barrierefrei","google_wc_accessible"],"hours":{"type":"unknown"}},{"id":"gplace_ChIJxxm6yyNjjEcRjl7pkTZb8UU","lat":46.2116057,"lon":6.092664399999999,"name":"Le Deck - Buvette","city":"Genf","category":"gastro","tags":["google_has_restroom"],"hours":{"type":"unknown"}},{"id":"gplace_ChIJ52fGxaZljEcRZJ0QVH84HzQ","lat":46.2061436,"lon":6.1026521,"name":"Doppiozero Restaurant Pizzeria","city":"Genf","category":"gastro","tags":["barrierefrei","google_wc_accessible"],"hours":{"type":"unknown"}},{"id":"gplace_ChIJc5VrgEZjjEcR881X-niXX3E","lat":46.212843799999995,"lon":6.0814236,"name":"Café de l'Etoile","city":"Genf","category":"gastro","tags":["barrierefrei","google_wc_accessible","google_has_restroom"],"hours":{"type":"unknown"}},{"id":"gplace_ChIJN5PUz8JjjEcRLvThDBHM-gE","lat":46.211014600000006,"lon":6.0939725,"name":"Place de barbecue","city":"Genf","category":"gastro","tags":["barrierefrei","google_entrance_accessible"],"hours":{"type":"unknown"}},{"id":"gplace_ChIJSzCV3atkjEcROJNtvPKhM7A","lat":46.20436,"lon":6.100504,"name":"Restaurant de la Piscine du Lignon","city":"Genf","category":"gastro","tags":["barrierefrei","google_wc_accessible"],"hours":{"type":"unknown"}},{"id":"gplace_ChIJm9CByFVjjEcRpVfZL5FKAC0","lat":46.2039446,"lon":6.0942468000000005,"name":"Centre sportif du Lignon","city":"Genf","category":"other","tags":["barrierefrei","google_entrance_accessible"],"hours":{"type":"unknown"}},{"id":"gplace_ChIJkegOLLhljEcRrt7SkGt-GSs","lat":46.2043989,"lon":6.0972501999999995,"name":"Restaurant Da Toni","city":"Genf","category":"gastro","tags":["barrierefrei","google_entrance_accessible"],"hours":{"type":"unknown"}},{"id":"gplace_ChIJRXH2VmBjjEcRed8W5JYHd4s","lat":46.2211818,"lon":6.095882899999999,"name":"Centre Commercial de Blandonnet","city":"Genf","category":"other","tags":["barrierefrei","google_wc_accessible"],"hours":{"type":"unknown"}},{"id":"gplace_ChIJz1QSxENjjEcRwqqvg5e7HEo","lat":46.2168272,"lon":6.0832646,"name":"Arcenter","city":"Genf","category":"other","tags":["barrierefrei","google_wc_accessible"],"hours":{"type":"unknown"}},{"id":"gplace_ChIJFaeLfG5jjEcRpCBpvegc0VQ","lat":46.2273165,"lon":6.0858151000000005,"name":"McDonald's Restaurant","city":"Genf","category":"gastro","tags":["barrierefrei","google_wc_accessible"],"hours":{"type":"unknown"}},{"id":"gplace_ChIJwzLc4GBjjEcRMLoDWuMb_go","lat":46.2216307,"lon":6.095666,"name":"Coop Supermarché","city":"Genf","category":"other","tags":["barrierefrei","google_wc_accessible"],"hours":{"type":"unknown"}},{"id":"gplace_ChIJB6EhdlZjjEcRaSy6Puo6gOs","lat":46.21379,"lon":6.07899,"name":"Lidl","city":"Genf","category":"other","tags":["barrierefrei","google_wc_accessible"],"hours":{"type":"unknown"}},{"id":"gplace_ChIJDQwxzWZjjEcRMT-rIxwRnEg","lat":46.2225608,"lon":6.094456999999999,"name":"Café Restaurant de l'Aviation","city":"Genf","category":"gastro","tags":["barrierefrei","google_wc_accessible"],"hours":{"type":"unknown"}},{"id":"gplace_ChIJ4f4PcWFjjEcR3Ly_cC3t10Y","lat":46.2231434,"lon":6.0970032000000005,"name":"NonStop Gym Blandonnet","city":"Genf","category":"other","tags":["barrierefrei","google_wc_accessible"],"hours":{"type":"unknown"}},{"id":"gplace_ChIJk7E3XLxjjEcRvEW1ibQJ7_E","lat":46.219543699999996,"lon":6.0946603999999995,"name":"IKEA Vernier Restaurant","city":"Genf","category":"gastro","tags":["barrierefrei","google_wc_accessible"],"hours":{"type":"unknown"}},{"id":"gplace_ChIJlWt2ymdjjEcRzWqxMCM42cw","lat":46.2218768,"lon":6.0901828,"name":"Casa dos Frangos 2 in Portugalia","city":"Genf","category":"gastro","tags":["barrierefrei","google_wc_accessible"],"hours":{"type":"unknown"}},{"id":"gplace_ChIJDz25UV5jjEcRjeljtaMidio","lat":46.2174905,"lon":6.0959663,"name":"Longe et Perto","city":"Genf","category":"gastro","tags":["barrierefrei","google_wc_accessible"],"hours":{"type":"unknown"}},{"id":"gplace_ChIJc5d231x7jEcRRocY-ofJji4","lat":46.183427099999996,"lon":6.102077599999999,"name":"Restaurant des Fourneaux du Manège","city":"Genf","category":"gastro","tags":["barrierefrei","google_wc_accessible"],"hours":{"type":"unknown"}},{"id":"gplace_ChIJAZIFF117jEcRW9QngaU60kI","lat":46.1674498,"lon":6.1037821999999995,"name":"Gradi24 Restaurant","city":"Genf","category":"gastro","tags":["barrierefrei","google_wc_accessible"],"hours":{"type":"unknown"}},{"id":"gplace_ChIJMboKPXx7jEcRT8Yv1Qky2nA","lat":46.1677398,"lon":6.1031818,"name":"Let's Go Fitness","city":"Genf","category":"other","tags":["google_has_restroom"],"hours":{"type":"unknown"}},{"id":"gplace_ChIJIetPyQN7jEcRClRsvkv5lNY","lat":46.1761051,"lon":6.118326499999999,"name":"Restaurant des Semailles","city":"Genf","category":"gastro","tags":["barrierefrei","google_entrance_accessible"],"hours":{"type":"unknown"}},{"id":"gplace_ChIJYYQI4xN7jEcR3xKl3PTPG9s","lat":46.174287799999995,"lon":6.1176787,"name":"Body Performance","city":"Genf","category":"other","tags":["barrierefrei","google_entrance_accessible"],"hours":{"type":"unknown"}},{"id":"gplace_ChIJgT3o3wB7jEcRh-VzRo9-UD4","lat":46.186879999999995,"lon":6.108668300000001,"name":"Thaï Artisans","city":"Genf","category":"gastro","tags":["google_has_restroom"],"hours":{"type":"unknown"}},{"id":"gplace_ChIJW4eQw0R7jEcRuRELF9zIOV8","lat":46.186913999999994,"lon":6.1049491,"name":"Felicita","city":"Genf","category":"gastro","tags":["barrierefrei","google_wc_accessible"],"hours":{"type":"unknown"}},{"id":"gplace_ChIJF9P5d3J7jEcRNwYyRvaQz94","lat":46.1708183,"lon":6.1086401,"name":"Restaurant ANTES","city":"Genf","category":"gastro","tags":["barrierefrei","google_wc_accessible"],"hours":{"type":"unknown"}},{"id":"gplace_ChIJG9k3SkN7jEcRQUD19PN5zWY","lat":46.1842918,"lon":6.1035132,"name":"Martins, Restaurant du Tennis club d’Onex","city":"Genf","category":"gastro","tags":["barrierefrei","google_wc_accessible"],"hours":{"type":"unknown"}},{"id":"gplace_ChIJJ0IL6-t7jEcRWYsYRAMQEvU","lat":46.1888454,"lon":6.1147048999999996,"name":"ACTIV FITNESS Petit-Lancy","city":"Genf","category":"other","tags":["google_has_restroom"],"hours":{"type":"unknown"}},{"id":"gplace_ChIJJ5_QvKZkjEcRqp7ZIkLayQ4","lat":46.21311,"lon":6.10316,"name":"bp","city":"Genf","category":"gastro","tags":["barrierefrei","google_wc_accessible"],"hours":{"type":"unknown"}},{"id":"gplace_ChIJD_aFtbFkjEcRiisqvBCou_4","lat":46.206478999999995,"lon":6.109639,"name":"Shell","city":"Genf","category":"gastro","tags":["barrierefrei","google_wc_accessible"],"hours":{"type":"unknown"}},{"id":"gplace_ChIJhTmcKrpkjEcRtvwoZq2K8yw","lat":46.2112927,"lon":6.1146562,"name":"La Terrazza Restaurant - Pizzeria","city":"Genf","category":"gastro","tags":["google_has_restroom"],"hours":{"type":"unknown"}},{"id":"gplace_ChIJyZwxu7tkjEcRjCc224kKQbU","lat":46.2122631,"lon":6.1132807,"name":"Arte Andaluz","city":"Genf","category":"gastro","tags":["barrierefrei","google_entrance_accessible"],"hours":{"type":"unknown"}},{"id":"gplace_ChIJEbzC4KNkjEcRMBIHx86As-Y","lat":46.214904999999995,"lon":6.104215,"name":"Station-service TAMOIL","city":"Genf","category":"gastro","tags":["barrierefrei","google_wc_accessible"],"hours":{"type":"unknown"}},{"id":"gplace_ChIJ1eBaMQBljEcRxvwOyLB16AA","lat":46.209588000000004,"lon":6.1103096,"name":"Restaurant Lys Doré","city":"Genf","category":"gastro","tags":["google_has_restroom"],"hours":{"type":"unknown"}},{"id":"gplace_ChIJd6kh67ZkjEcRC1IQourQOyo","lat":46.205224,"lon":6.114957899999999,"name":"Restaurant la Tentation","city":"Genf","category":"gastro","tags":["barrierefrei","google_wc_accessible"],"hours":{"type":"unknown"}},{"id":"gplace_ChIJqRv7utdljEcRFX-ZMEnxvvI","lat":46.2289927,"lon":6.1058549,"name":"ENI","city":"Genf","category":"tankstelle","tags":["barrierefrei","google_wc_accessible"],"hours":{"type":"unknown"}},{"id":"gplace_ChIJ1VHhTYRkjEcRHwvgYjH3Xd8","lat":46.2325711,"lon":6.1123948,"name":"Migros Airport Supermarket","city":"Genf","category":"other","tags":["barrierefrei","google_wc_accessible"],"hours":{"type":"unknown"}},{"id":"gplace_ChIJa34McYNkjEcRintzWglRyls","lat":46.2297417,"lon":6.10682,"name":"McDonald’s","city":"Genf","category":"gastro","tags":["barrierefrei","google_wc_accessible"],"hours":{"type":"unknown"}},{"id":"gplace_ChIJY-1Nt9lljEcReQPNd_p59qk","lat":46.224669899999995,"lon":6.1081768,"name":"Restaurant Scalo 34","city":"Genf","category":"gastro","tags":["barrierefrei","google_wc_accessible"],"hours":{"type":"unknown"}},{"id":"gplace_ChIJcQUf-xhljEcRZBb7Usj6leM","lat":46.230329999999995,"lon":6.1089199999999995,"name":"Starbucks","city":"Genf","category":"gastro","tags":["barrierefrei","google_wc_accessible"],"hours":{"type":"unknown"}},{"id":"gplace_ChIJoxBlYoNkjEcRLO-K_T6Mem8","lat":46.229863099999996,"lon":6.1075494,"name":"Montreux Jazz Café Arrivées","city":"Genf","category":"gastro","tags":["barrierefrei","google_wc_accessible"],"hours":{"type":"unknown"}},{"id":"gplace_ChIJ8QpRnI5kjEcRRYDKa8NPE5M","lat":46.230855999999996,"lon":6.118831999999999,"name":"RESTAURANT LE GRIZZLY Sàrl","city":"Genf","category":"gastro","tags":["barrierefrei","google_wc_accessible"],"hours":{"type":"unknown"}},{"id":"gplace_ChIJPzwaUoRkjEcR989f0nCdqgM","lat":46.2309372,"lon":6.109958799999999,"name":"Al Volo Pizzeria","city":"Genf","category":"gastro","tags":["barrierefrei","google_wc_accessible"],"hours":{"type":"unknown"}},{"id":"gplace_ChIJjXgMcYNkjEcRIkRlIKvtd9o","lat":46.2302759,"lon":6.106971,"name":"Bistrot","city":"Genf","category":"gastro","tags":["barrierefrei","google_wc_accessible"],"hours":{"type":"unknown"}},{"id":"gplace_ChIJ4eOXc5N7jEcRP2cef8iD4t4","lat":46.164958299999995,"lon":6.1097588,"name":"Fresha Restaurant, Bar & Coffee Shop","city":"Genf","category":"gastro","tags":["barrierefrei","google_wc_accessible"],"hours":{"type":"unknown"}},{"id":"gplace_ChIJuVp8MQx7jEcRODwRuVZLSjE","lat":46.1671116,"lon":6.1142962999999995,"name":"Supermarché Migros","city":"Genf","category":"other","tags":["barrierefrei","google_wc_accessible"],"hours":{"type":"unknown"}},{"id":"gplace_ChIJWRUEJp57jEcR582T0ZRY-Zs","lat":46.160990899999994,"lon":6.105933599999999,"name":"Garden & Cooking","city":"Genf","category":"gastro","tags":["google_has_restroom"],"hours":{"type":"unknown"}},{"id":"gplace_ChIJOZU4k3Z7jEcRHMG7LW_71oA","lat":46.164575,"lon":6.10289,"name":"ACTIV FITNESS","city":"Genf","category":"other","tags":["barrierefrei","google_wc_accessible"],"hours":{"type":"unknown"}},{"id":"gplace_ChIJh1s6SQt7jEcRG-RsKDJHbOc","lat":46.1650223,"lon":6.110888800000001,"name":"Migrol","city":"Genf","category":"tankstelle","tags":["barrierefrei","google_wc_accessible"],"hours":{"type":"unknown"}},{"id":"gplace_ChIJa03FPsp7jEcR44ZeszpEsgM","lat":46.1660111,"lon":6.102318599999999,"name":"Restaurant Le Tourbillon","city":"Genf","category":"gastro","tags":["barrierefrei","google_wc_accessible"],"hours":{"type":"unknown"}},{"id":"gplace_ChIJY_1hRNd7jEcR7OlBShoxRFQ","lat":46.166187199999996,"lon":6.1088609,"name":"Mezze Factory Plan-les-Ouates","city":"Genf","category":"gastro","tags":["barrierefrei","google_wc_accessible"],"hours":{"type":"unknown"}},{"id":"gplace_ChIJ0Vy8mXN7jEcR8Ym8aagR3wE","lat":46.1670419,"lon":6.1075344,"name":"Restaurant Le Cinq","city":"Genf","category":"gastro","tags":["barrierefrei","google_wc_accessible"],"hours":{"type":"unknown"}},{"id":"gplace_ChIJ497-DtpkjEcRN5xbeFi7288","lat":46.165817999999994,"lon":6.108244099999999,"name":"L'Industrie - Swisswash","city":"Genf","category":"gastro","tags":["barrierefrei","google_entrance_accessible"],"hours":{"type":"unknown"}},{"id":"gplace_ChIJqyT3XAV7jEcRDg9CYVsMS3c","lat":46.1716072,"lon":6.123708499999999,"name":"Suprême tacos","city":"Genf","category":"gastro","tags":["barrierefrei","google_entrance_accessible"],"hours":{"type":"unknown"}},{"id":"gplace_ChIJx7hTZg57jEcR8wF7I_zzqiM","lat":46.1682694,"lon":6.1176740999999994,"name":"Café de la Place","city":"Genf","category":"gastro","tags":["barrierefrei","google_entrance_accessible"],"hours":{"type":"unknown"}},{"id":"gplace_ChIJa4ENcyJ7jEcRIaOUj2G9XvA","lat":46.1801922,"lon":6.1281121,"name":"La Praille, Centre Commercial et de Loisirs","city":"Genf","category":"gastro","tags":["barrierefrei","google_wc_accessible"],"hours":{"type":"unknown"}},{"id":"gplace_ChIJZwoYpEB7jEcRC3RlYVuJOEY","lat":46.173557699999996,"lon":6.1285112999999996,"name":"Addó Papa Fratelli Scalea","city":"Genf","category":"gastro","tags":["barrierefrei","google_wc_accessible"],"hours":{"type":"unknown"}},{"id":"gplace_ChIJw9NcJBd7jEcRY_v4kVJ6yXA","lat":46.175640099999995,"lon":6.1214638,"name":"Les Palettes","city":"Genf","category":"gastro","tags":["barrierefrei","google_wc_accessible"],"hours":{"type":"unknown"}},{"id":"gplace_ChIJfb2cQDF7jEcRj4P_cu4QA30","lat":46.1818667,"lon":6.1304327999999995,"name":"Brasserie Calvinus","city":"Genf","category":"gastro","tags":["barrierefrei","google_wc_accessible"],"hours":{"type":"unknown"}},{"id":"gplace_ChIJba3tJ3FljEcRGHn1nWTf1zY","lat":46.2309427,"lon":6.1283461,"name":"EVO Fitness Genève Green Village","city":"Genf","category":"other","tags":["barrierefrei","google_entrance_accessible"],"hours":{"type":"unknown"}},{"id":"gplace_ChIJbUPmkopkjEcRoAYnLfIj7ro","lat":46.2362004,"lon":6.1241598,"name":"bp","city":"Genf","category":"gastro","tags":["barrierefrei","google_wc_accessible"],"hours":{"type":"unknown"}},{"id":"gplace_ChIJw9HEZbRljEcRKvjLnpVp-ig","lat":46.2364825,"lon":6.1266539,"name":"Restaurants Pizzeria I SAPORI","city":"Genf","category":"gastro","tags":["barrierefrei","google_entrance_accessible"],"hours":{"type":"unknown"}},{"id":"gplace_ChIJraODZSpljEcRImgqWyS3PKs","lat":46.225604999999995,"lon":6.122199999999999,"name":"Le P'tit Océan Genève Gambas à GOGO","city":"Genf","category":"gastro","tags":["barrierefrei","google_entrance_accessible"],"hours":{"type":"unknown"}},{"id":"gplace_ChIJraKkeHJkjEcRsgEG1rHLp28","lat":46.254419999999996,"lon":6.12009,"name":"Carrefour Ferney Voltaire","city":"Genf","category":"gastro","tags":["barrierefrei","google_wc_accessible"],"hours":{"type":"unknown"}},{"id":"gplace_ChIJ--ekmnNkjEcRCpyHBdqT2D4","lat":46.252854799999994,"lon":6.115251799999999,"name":"Buffalo Grill","city":"Genf","category":"gastro","tags":["barrierefrei","google_wc_accessible"],"hours":{"type":"unknown"}},{"id":"gplace_ChIJX1t_qopkjEcR5ktp8DdYXoM","lat":46.2370478,"lon":6.1255633,"name":"Le Coin du Pain","city":"Genf","category":"gastro","tags":["barrierefrei","google_entrance_accessible"],"hours":{"type":"unknown"}},{"id":"gplace_ChIJhwzyJJFljEcR3I3NNVgxp4Y","lat":46.238469099999996,"lon":6.1221518,"name":"Octagon by Genecand","city":"Genf","category":"gastro","tags":["barrierefrei","google_wc_accessible"],"hours":{"type":"unknown"}},{"id":"gplace_ChIJL4qoonVkjEcRA_ZOdF8p67o","lat":46.254109,"lon":6.108528,"name":"Le Bee Maï","city":"Genf","category":"gastro","tags":["barrierefrei","google_wc_accessible"],"hours":{"type":"unknown"}},{"id":"gplace_ChIJIcN28YlkjEcRoK520YOnj9U","lat":46.236356199999996,"lon":6.1193781,"name":"L'Olivo","city":"Genf","category":"gastro","tags":["barrierefrei","google_wc_accessible"],"hours":{"type":"unknown"}},{"id":"gplace_ChIJf6QZiV5kjEcRJ2LwnMGEmKg","lat":46.2403179,"lon":6.1296162999999995,"name":"Restaurant Tennis Club Grand-Saconnex","city":"Genf","category":"gastro","tags":["barrierefrei","google_wc_accessible"],"hours":{"type":"unknown"}},{"id":"gplace_ChIJX1t_qopkjEcR-ucYuK6tEcM","lat":46.2365396,"lon":6.1251009,"name":"RJ Training","city":"Genf","category":"other","tags":["google_has_restroom"],"hours":{"type":"unknown"}},{"id":"gplace_ChIJA11feZ1ljEcRS8ZOmk-MYBc","lat":46.245917,"lon":6.1296287,"name":"Boxygène Sport Club - Chambésy","city":"Genf","category":"other","tags":["google_has_restroom"],"hours":{"type":"unknown"}},{"id":"gplace_ChIJga01sClljEcRAwZLSTfbtto","lat":46.2381896,"lon":6.1174528,"name":"Eurest / Restaurant Du Fret","city":"Genf","category":"gastro","tags":["barrierefrei","google_entrance_accessible"],"hours":{"type":"unknown"}},{"id":"gplace_ChIJEy9k-A17jEcR4fN5yoM9V-0","lat":46.1634593,"lon":6.1451582,"name":"Aux terrasses de Troinex","city":"Genf","category":"gastro","tags":["barrierefrei","google_wc_accessible"],"hours":{"type":"unknown"}},{"id":"gplace_ChIJZRtUzeR6jEcR5fZlLvEvs6Y","lat":46.16896870000001,"lon":6.1408238,"name":"René Piccand & Fils SA","city":"Genf","category":"gastro","tags":["barrierefrei","google_entrance_accessible"],"hours":{"type":"unknown"}},{"id":"gplace_ChIJkXnj7yd7jEcRxt7lD39IybY","lat":46.1689262,"lon":6.1192798,"name":"Auberge de Plan-les-Ouates","city":"Genf","category":"gastro","tags":["barrierefrei","google_entrance_accessible"],"hours":{"type":"unknown"}},{"id":"gplace_ChIJOWwf0Q97jEcRPdxacosEclA","lat":46.169751999999995,"lon":6.119822,"name":"SUPERFOOD Smashburger artisanal","city":"Genf","category":"gastro","tags":["barrierefrei","google_wc_accessible","google_has_restroom"],"hours":{"type":"unknown"}},{"id":"gplace_ChIJL2OdJ6t7jEcRWRytZFEwdDg","lat":46.173123399999994,"lon":6.1230061,"name":"Tamaris Food","city":"Genf","category":"gastro","tags":["barrierefrei","google_entrance_accessible"],"hours":{"type":"unknown"}},{"id":"gplace_ChIJQULZlA97jEcRZsawIo30SXM","lat":46.16860020000001,"lon":6.1208453,"name":"Les Aviateurs Pause Gourmande","city":"Genf","category":"gastro","tags":["barrierefrei","google_entrance_accessible"],"hours":{"type":"unknown"}},{"id":"gplace_ChIJ5_fDCBp7jEcRIiQmJ4KptcY","lat":46.1740333,"lon":6.1238167,"name":"D'Ka","city":"Genf","category":"gastro","tags":["barrierefrei","google_entrance_accessible"],"hours":{"type":"unknown"}},{"id":"gplace_ChIJR7yj05V7jEcRrl4rSEbeA0k","lat":46.1728758,"lon":6.1223361999999995,"name":"Singto Muay Thaï Gym","city":"Genf","category":"other","tags":["google_has_restroom"],"hours":{"type":"unknown"}},{"id":"gplace_ChIJ1VX76N56jEcR6fBMWKDSj_o","lat":46.1820796,"lon":6.1401289,"name":"La Huchette","city":"Genf","category":"gastro","tags":["barrierefrei","google_entrance_accessible"],"hours":{"type":"unknown"}},{"id":"gplace_ChIJr-jZHyJljEcRsI7VX6i-qxw","lat":46.2326475,"lon":6.1207423,"name":"Sarasin Villa and Park","city":"Genf","category":"gastro","tags":["barrierefrei","google_entrance_accessible"],"hours":{"type":"unknown"}},{"id":"gplace_ChIJ-YJIbPVkjEcRgm0KURWCZGM","lat":46.235935999999995,"lon":6.127422999999999,"name":"Délice Ange'Vin","city":"Genf","category":"gastro","tags":["google_has_restroom"],"hours":{"type":"unknown"}},{"id":"gplace_ChIJ47e78aJljEcRF7fDNLVEjHI","lat":46.2469697,"lon":6.141678199999999,"name":"La Pirogue","city":"Genf","category":"gastro","tags":["google_has_restroom"],"hours":{"type":"unknown"}},{"id":"gplace_ChIJG3t-cddljEcRtSauiZSEB2g","lat":46.244056799999996,"lon":6.130984,"name":"ZenFitGourmet Ceylan - Yoga, Ayurveda & Menopause Coach","city":"Genf","category":"other","tags":["google_has_restroom"],"hours":{"type":"unknown"}},{"id":"gplace_ChIJ7UyWk_Z6jEcRQbLX5Jug5R0","lat":46.162287,"lon":6.147655299999999,"name":"La Chaumière","city":"Genf","category":"gastro","tags":["barrierefrei","google_wc_accessible"],"hours":{"type":"unknown"}},{"id":"gplace_ChIJ8ddv3fV6jEcR-BYn9OXSY_8","lat":46.1604239,"lon":6.1487691,"name":"Aux Délices de la Grand-Cour","city":"Genf","category":"gastro","tags":["barrierefrei","google_entrance_accessible"],"hours":{"type":"unknown"}},{"id":"gplace_ChIJq6qqfR17jEcRu5axO5pYkFw","lat":46.171411299999995,"lon":6.1341076999999995,"name":"pause gourmande","city":"Genf","category":"gastro","tags":["barrierefrei","google_entrance_accessible"],"hours":{"type":"unknown"}},{"id":"gplace_ChIJkwJUa-R6jEcRloTy5mhIFdg","lat":46.1725609,"lon":6.1409386,"name":"Clair de Lune","city":"Genf","category":"gastro","tags":["barrierefrei","google_entrance_accessible"],"hours":{"type":"unknown"}},{"id":"gplace_ChIJA1a-BPd6jEcR4EQVfrcF8mI","lat":46.162082399999996,"lon":6.1455421999999995,"name":"Yoga et Coaching","city":"Genf","category":"other","tags":["google_has_restroom"],"hours":{"type":"unknown"}},{"id":"gplace_ChIJJ85GMZZ7jEcRMLtQgWmmWnE","lat":46.1657301,"lon":6.147096899999999,"name":"La Table des Crêts","city":"Genf","category":"gastro","tags":["google_has_restroom"],"hours":{"type":"unknown"}},{"id":"gplace_ChIJ34ayxPB7jEcRrvTq1Fh4pUg","lat":46.1677489,"lon":6.1328942,"name":"La Caverne de Jouvence","city":"Genf","category":"gastro","tags":["google_has_restroom"],"hours":{"type":"unknown"}},{"id":"gplace_ChIJL33CE6NljEcR6Ewo4wLTpeI","lat":46.253440399999995,"lon":6.153401199999999,"name":"Buvette Port Gitana","city":"Genf","category":"gastro","tags":["barrierefrei","google_wc_accessible"],"hours":{"type":"unknown"}},{"id":"gplace_ChIJyftQYUtkjEcRhmOkfSa3ZxI","lat":46.2504255,"lon":6.1493736,"name":"Le Tsé Fung","city":"Genf","category":"gastro","tags":["barrierefrei","google_wc_accessible"],"hours":{"type":"unknown"}},{"id":"gplace_ChIJhdc1iIVljEcRPBJggftQwfI","lat":46.2496047,"lon":6.1484049,"name":"Chez Nos Filles","city":"Genf","category":"gastro","tags":["barrierefrei","google_entrance_accessible"],"hours":{"type":"unknown"}},{"id":"gplace_ChIJlTruJZd6jEcR1ZdHF8v9B-8","lat":46.1721213,"lon":6.164123000000001,"name":"Auberge Grand Donzel","city":"Genf","category":"gastro","tags":["barrierefrei","google_wc_accessible"],"hours":{"type":"unknown"}},{"id":"gplace_ChIJuc7ZEet6jEcRI0swadSffGk","lat":46.1746088,"lon":6.155284099999999,"name":"Zio","city":"Genf","category":"gastro","tags":["barrierefrei","google_wc_accessible"],"hours":{"type":"unknown"}},{"id":"gplace_ChIJL7qpYLB7jEcR8LKkY9Mhtxg","lat":46.183029000000005,"lon":6.1455945,"name":"O' my sushi","city":"Genf","category":"gastro","tags":["barrierefrei","google_entrance_accessible"],"hours":{"type":"unknown"}},{"id":"gplace_ChIJTbkYLcF6jEcRicpVUKtY6OE","lat":46.182515099999996,"lon":6.155442799999999,"name":"Restaurant Drizia Miremont","city":"Genf","category":"gastro","tags":["barrierefrei","google_wc_accessible"],"hours":{"type":"unknown"}},{"id":"gplace_ChIJVWK2nhx7jEcRfQL3oovt-dE","lat":46.184697799999995,"lon":6.1480341,"name":"Nena Caffè","city":"Genf","category":"gastro","tags":["barrierefrei","google_wc_accessible"],"hours":{"type":"unknown"}},{"id":"gplace_ChIJz0kDnt97jEcRiudD0xMq2eQ","lat":46.1835501,"lon":6.1522264,"name":"Cafétéria du Bureau des Autos","city":"Genf","category":"gastro","tags":["barrierefrei","google_entrance_accessible"],"hours":{"type":"unknown"}},{"id":"gplace_ChIJ9Q0CM8R6jEcR8X82TH2HJnA","lat":46.185004799999994,"lon":6.1528583,"name":"La Guinguette au bord de l'Arve","city":"Genf","category":"gastro","tags":["barrierefrei","google_wc_accessible"],"hours":{"type":"unknown"}},{"id":"gplace_ChIJf_Eh5cd6jEcR1IKdbolRp_c","lat":46.1866327,"lon":6.1592218999999995,"name":"Café Restaurant CITE-JARDIN + Pizzeria CITE-JARDIN","city":"Genf","category":"gastro","tags":["barrierefrei","google_wc_accessible"],"hours":{"type":"unknown"}},{"id":"gplace_ChIJ20ZOhdx6jEcRz3pr86D_kQE","lat":46.182572,"lon":6.145493999999999,"name":"Léopard","city":"Genf","category":"gastro","tags":["barrierefrei","google_entrance_accessible"],"hours":{"type":"unknown"}},{"id":"gplace_ChIJDXQ_OKN6jEcRCnBp2K-Zh2A","lat":46.1804847,"lon":6.1703174,"name":"Restaurant Tennis Club de Champel","city":"Genf","category":"gastro","tags":["barrierefrei","google_wc_accessible"],"hours":{"type":"unknown"}},{"id":"gplace_ChIJCV8v2C7JLUIR2RSzkA68umg","lat":46.1833071,"lon":6.145077000000001,"name":"Espace Léopard","city":"Genf","category":"other","tags":["barrierefrei","google_entrance_accessible"],"hours":{"type":"unknown"}},{"id":"gplace_ChIJO1Uib5h7jEcRurL2DICVy9A","lat":46.1852279,"lon":6.1464305999999995,"name":"Restaurant Pizzeria La Fontenette","city":"Genf","category":"gastro","tags":["barrierefrei","google_entrance_accessible"],"hours":{"type":"unknown"}},{"id":"gplace_ChIJJ0GIceBljEcR7Kq9JemD6VU","lat":46.254157899999996,"lon":6.154340599999999,"name":"Auberge Port-Gitana","city":"Genf","category":"gastro","tags":["barrierefrei","google_wc_accessible"],"hours":{"type":"unknown"}},{"id":"gplace_ChIJKzwgY8pljEcRU6otQmXWhYQ","lat":46.2553062,"lon":6.1551771,"name":"Brasserie Port Saladin","city":"Genf","category":"gastro","tags":["barrierefrei","google_wc_accessible"],"hours":{"type":"unknown"}},{"id":"gplace_ChIJGfnNhspljEcRFI3hJYHP6vc","lat":46.254897299999996,"lon":6.1546176,"name":"Marmotte 333","city":"Genf","category":"gastro","tags":["barrierefrei","google_entrance_accessible"],"hours":{"type":"unknown"}},{"id":"gplace_ChIJ5fDbqUVljEcRd7Y47js0ZXY","lat":46.2549734,"lon":6.1557348,"name":"Buvette du Port Saladin","city":"Genf","category":"gastro","tags":["barrierefrei","google_entrance_accessible"],"hours":{"type":"unknown"}},{"id":"gplace_ChIJj3JCZ3dwjEcRT2bplDewJ8A","lat":46.1671608,"lon":6.1819504,"name":"Harmony Fitness – Veyrier","city":"Genf","category":"other","tags":["barrierefrei","google_entrance_accessible","google_wc_accessible"],"hours":{"type":"unknown"}},{"id":"gplace_ChIJt8gRuGJxjEcRhtaHkoLDoNc","lat":46.160797099999996,"lon":6.1814431999999995,"name":"Blyfit - Room Sport Musculation Boxing Crosstraining - Pilates Yoga","city":"Genf","category":"other","tags":["barrierefrei","google_entrance_accessible"],"hours":{"type":"unknown"}},{"id":"gplace_ChIJrzWynnBwjEcRrRvYpyQCuHs","lat":46.166847999999995,"lon":6.184699999999999,"name":"Café de la Réunion","city":"Genf","category":"gastro","tags":["barrierefrei","google_wc_accessible"],"hours":{"type":"unknown"}},{"id":"gplace_ChIJHeyG245xjEcRHRpPYsAvfHI","lat":46.166761300000005,"lon":6.1856051999999995,"name":"Le Cercle du Salève","city":"Genf","category":"gastro","tags":["barrierefrei","google_entrance_accessible"],"hours":{"type":"unknown"}},{"id":"gplace_ChIJ6467unBwjEcRkhyQSASyPrs","lat":46.1672981,"lon":6.1841725,"name":"Brasserie \"À l'Union\"","city":"Genf","category":"gastro","tags":["barrierefrei","google_entrance_accessible"],"hours":{"type":"unknown"}},{"id":"gplace_ChIJ8QW15pt6jEcRLqwSsmIuPHQ","lat":46.1718743,"lon":6.1725375,"name":"Restaurant Scolaire du Bois- Gourmand","city":"Genf","category":"gastro","tags":["barrierefrei","google_entrance_accessible"],"hours":{"type":"unknown"}},{"id":"gplace_ChIJqa7ABRhxjEcRWkPgGoxopU0","lat":46.1667566,"lon":6.1808022,"name":"Marscha Pilates","city":"Genf","category":"other","tags":["google_has_restroom"],"hours":{"type":"unknown"}},{"id":"gplace_ChIJEz3l5TBxjEcR1sd4rmstYhs","lat":46.167930999999996,"lon":6.1852263999999995,"name":"Gaia Light Bauquis Lalita Therapy Natural And Energetic Yoga","city":"Genf","category":"other","tags":["google_has_restroom"],"hours":{"type":"unknown"}},{"id":"gplace_ChIJQ36ZqhRxjEcR0UAqGTRhA3Q","lat":46.1788715,"lon":6.1821249,"name":"Mango Lounge Genève","city":"Genf","category":"gastro","tags":["barrierefrei","google_entrance_accessible"],"hours":{"type":"unknown"}},{"id":"gplace_ChIJ8zV0M6R6jEcR0s2Xqe-DfDQ","lat":46.1838451,"lon":6.1747879999999995,"name":"Restaurant Le Vallon Genève","city":"Genf","category":"gastro","tags":["barrierefrei","google_entrance_accessible"],"hours":{"type":"unknown"}},{"id":"gplace_ChIJ6VqRt6V6jEcR4IjAzlfnwyQ","lat":46.1845058,"lon":6.1744628,"name":"Café de la République/ Revendeur TPG","city":"Genf","category":"gastro","tags":["google_has_restroom"],"hours":{"type":"unknown"}},{"id":"gplace_ChIJO4VcfMB6jEcRY5MZOgu1Cu0","lat":46.1798721,"lon":6.1577342,"name":"Restaurant le Bdm","city":"Genf","category":"gastro","tags":["google_has_restroom"],"hours":{"type":"unknown"}},{"id":"gplace_ChIJo-T5r35vjEcRuv6Z7qjzYSs","lat":46.195969,"lon":6.1962188,"name":"Supermarché Migros - Chêne-Vert","city":"Genf","category":"other","tags":["barrierefrei","google_wc_accessible"],"hours":{"type":"unknown"}},{"id":"gplace_ChIJ5-mCWx1wjEcRG3nFCH0UXBI","lat":46.194286999999996,"lon":6.196306,"name":"ALDI","city":"Genf","category":"other","tags":["barrierefrei","google_wc_accessible"],"hours":{"type":"unknown"}},{"id":"gplace_ChIJvwZ4FP5vjEcRKV2Jce0OM_o","lat":46.197029699999995,"lon":6.1891628999999995,"name":"Le Gruyérien - Chêne-Bougeries","city":"Genf","category":"gastro","tags":["barrierefrei","google_wc_accessible"],"hours":{"type":"unknown"}},{"id":"gplace_ChIJH5czD6lvjEcRgdR1doE7RpQ","lat":46.195077,"lon":6.196681,"name":"La Fattoria","city":"Genf","category":"gastro","tags":["barrierefrei","google_entrance_accessible"],"hours":{"type":"unknown"}},{"id":"gplace_ChIJNTb-ihtwjEcRAh6p1scPNfY","lat":46.189748099999996,"lon":6.1979372999999995,"name":"bp","city":"Genf","category":"gastro","tags":["barrierefrei","google_wc_accessible"],"hours":{"type":"unknown"}},{"id":"gplace_ChIJV9y3L1BvjEcR4b-uPx-WjOw","lat":46.195422699999995,"lon":6.197751299999999,"name":"Chêne Bourger","city":"Genf","category":"gastro","tags":["barrierefrei","google_wc_accessible"],"hours":{"type":"unknown"}},{"id":"gplace_ChIJJd9P1_xvjEcRCTSlpH0eKb8","lat":46.1975264,"lon":6.194961999999999,"name":"Café du plateau","city":"Genf","category":"gastro","tags":["barrierefrei","google_wc_accessible"],"hours":{"type":"unknown"}},{"id":"gplace_ChIJXyDUmv1vjEcRfg8he-M2a8I","lat":46.1958285,"lon":6.1920961,"name":"Restaurant Grand-Chêne","city":"Genf","category":"gastro","tags":["barrierefrei","google_wc_accessible"],"hours":{"type":"unknown"}},{"id":"gplace_ChIJe6eRDNlxjEcRh0c5g_e7xXY","lat":46.194135599999996,"lon":6.195242299999999,"name":"Bistrot Collette","city":"Genf","category":"gastro","tags":["barrierefrei","google_entrance_accessible"],"hours":{"type":"unknown"}},{"id":"gplace_ChIJz8qC3PlvjEcRIK297EMjyuU","lat":46.196134900000004,"lon":6.190366699999999,"name":"Ajito Sushi","city":"Genf","category":"gastro","tags":["barrierefrei","google_entrance_accessible"],"hours":{"type":"unknown"}},{"id":"gplace_ChIJN-0qEVJljEcR34z73PN9zUU","lat":46.199770799999996,"lon":6.1745603,"name":"La courbe du goût, café restaurant de Grange-Canal","city":"Genf","category":"gastro","tags":["barrierefrei","google_entrance_accessible","google_has_restroom"],"hours":{"type":"unknown"}},{"id":"gplace_ChIJYTYpuDdvjEcRvpH8W5m18BE","lat":46.196968999999996,"lon":6.191209,"name":"L'angolo Della Pizza","city":"Genf","category":"gastro","tags":["barrierefrei","google_wc_accessible"],"hours":{"type":"unknown"}},{"id":"gplace_ChIJOWtflP1vjEcRBdj44o9IUms","lat":46.1960765,"lon":6.1914969,"name":"O Bom Gosto (Oak-Bougeries)","city":"Genf","category":"gastro","tags":["barrierefrei","google_entrance_accessible"],"hours":{"type":"unknown"}},{"id":"gplace_ChIJLdq7LjdljEcRYT7gIQ6MhK0","lat":46.2024531,"lon":6.1696314,"name":"EVO Fitness Genève Eaux Vives CEVA","city":"Genf","category":"other","tags":["barrierefrei","google_wc_accessible"],"hours":{"type":"unknown"}},{"id":"gplace_ChIJibr0bvhvjEcRG827b_zDDkU","lat":46.2038516,"lon":6.186991099999999,"name":"Shell","city":"Genf","category":"gastro","tags":["barrierefrei","google_wc_accessible"],"hours":{"type":"unknown"}},{"id":"gplace_ChIJ_dbBbGJljEcRes-c-ySe2Xc","lat":46.201997,"lon":6.174106999999999,"name":"Restaurant Le Frisco","city":"Genf","category":"gastro","tags":["google_has_restroom","barrierefrei","google_entrance_accessible"],"hours":{"type":"unknown"}},{"id":"gplace_ChIJh2_T3FdljEcR_AmwCosGzEc","lat":46.2036215,"lon":6.1850451,"name":"Entre Amigos","city":"Genf","category":"gastro","tags":["barrierefrei","google_entrance_accessible"],"hours":{"type":"unknown"}},{"id":"gplace_ChIJ19uVLnxvjEcRHa1tp7qcJvw","lat":46.2381246,"lon":6.1965607,"name":"MANOR Vésenaz","city":"Genf","category":"other","tags":["barrierefrei","google_wc_accessible"],"hours":{"type":"unknown"}},{"id":"gplace_ChIJiZO7fYBljEcRylM2X7Vkz14","lat":46.235726899999996,"lon":6.1922706,"name":"La Belotte","city":"Genf","category":"gastro","tags":["barrierefrei","google_wc_accessible"],"hours":{"type":"unknown"}},{"id":"gplace_ChIJ28mf7ytljEcRGCvX7_AZNtk","lat":46.2291987,"lon":6.1874239,"name":"Cologny Wellness Club","city":"Genf","category":"other","tags":["google_has_restroom"],"hours":{"type":"unknown"}},{"id":"gplace_ChIJR6ivL29xjEcRK-DplrqVQYQ","lat":46.1916611,"lon":6.2122071,"name":"Noodles Noodles","city":"Genf","category":"gastro","tags":["barrierefrei","google_wc_accessible"],"hours":{"type":"unknown"}},{"id":"gplace_ChIJRRVUv95vjEcRAXKKv7H04qI","lat":46.196048,"lon":6.1992749,"name":"NonStop Gym Chêne-Bourg","city":"Genf","category":"other","tags":["barrierefrei","google_wc_accessible"],"hours":{"type":"unknown"}},{"id":"gplace_ChIJKURYQh5wjEcRu84A0PH3qmU","lat":46.192845,"lon":6.201715,"name":"Centre Commercial de Thônex","city":"Genf","category":"gastro","tags":["barrierefrei","google_wc_accessible"],"hours":{"type":"unknown"}},{"id":"gplace_ChIJ_cUR5x9wjEcRbIZ3s94PeWg","lat":46.1939634,"lon":6.2045756999999995,"name":"Auberge de Thônex","city":"Genf","category":"gastro","tags":["barrierefrei","google_wc_accessible"],"hours":{"type":"unknown"}},{"id":"gplace_ChIJNx6oKidwjEcROFH3EWPZGL4","lat":46.1915384,"lon":6.2111771,"name":"Restaurant indien Bollywood","city":"Genf","category":"gastro","tags":["barrierefrei","google_wc_accessible"],"hours":{"type":"unknown"}},{"id":"gplace_ChIJFfHYQ2xxjEcRu638mxV7Cco","lat":46.1870696,"lon":6.1994982,"name":"Restaurant Pizzeria Le 26","city":"Genf","category":"gastro","tags":["barrierefrei","google_wc_accessible"],"hours":{"type":"unknown"}},{"id":"gplace_ChIJRzuWFuJvjEcRxYV7kHsJUdc","lat":46.195439500000006,"lon":6.199800499999999,"name":"bp","city":"Genf","category":"gastro","tags":["barrierefrei","google_wc_accessible"],"hours":{"type":"unknown"}},{"id":"gplace_ChIJ096pT5BvjEcRBTQRQWZe5cc","lat":46.2213012,"lon":6.2027982999999995,"name":"Auberge de Vandœuvres","city":"Genf","category":"gastro","tags":["barrierefrei","google_wc_accessible"],"hours":{"type":"unknown"}},{"id":"gplace_ChIJLcntnJBvjEcRPyihubSvoYc","lat":46.2229209,"lon":6.204756000000001,"name":"Centre communal","city":"Genf","category":"other","tags":["barrierefrei","google_entrance_accessible"],"hours":{"type":"unknown"}}]