[{"id":"fuel_66793111","lat":52.5956306,"lon":12.8869601,"name":"Total","city":"","category":"tankstelle","tags":[],"opening_hours":"PH,Mo-Su 00:00-24:00","operator":"Total","hours":{"type":"unknown","original":"PH,Mo-Su 00:00-24:00"}},{"id":"fuel_81537419","lat":52.289084,"lon":12.4642914,"name":"Aral","city":"","category":"tankstelle","tags":[],"operator":"Aral","opening_hours":"Su 00:00+","gplace_id":"ChIJhShpQxe8qEcRk45j4k2VMJQ","hours":{"type":"unknown","original":"Su 00:00+"}},{"id":"fuel_259842675","lat":52.1446031,"lon":12.6128247,"name":"Aral","city":"Bad Belzig","category":"tankstelle","tags":[],"operator":"Aral","opening_hours":"Su 06:00-22:00; Mo 05:00-22:00; Tu 05:00-22:00; We 05:00-22:00; Th 05:00-22:00; Fr 05:00-22:00; Sa 06:00-22:00","gplace_id":"ChIJW3VsNH2ZqEcRCdroZq1Y4Kg","hours":{"type":"weekly","weekly":{"0":{"isOpen":true,"periods":[{"open":360,"close":1320}]},"1":{"isOpen":true,"periods":[{"open":300,"close":1320}]},"2":{"isOpen":true,"periods":[{"open":300,"close":1320}]},"3":{"isOpen":true,"periods":[{"open":300,"close":1320}]},"4":{"isOpen":true,"periods":[{"open":300,"close":1320}]},"5":{"isOpen":true,"periods":[{"open":300,"close":1320}]},"6":{"isOpen":true,"periods":[{"open":360,"close":1320}]}},"original":"Su 06:00-22:00; Mo 05:00-22:00; Tu 05:00-22:00; We 05:00-22:00; Th 05:00-22:00; Fr 05:00-22:00; Sa 06:00-22:00"}},{"id":"fuel_265978684","lat":52.8058312,"lon":12.7857259,"name":"Agip","city":"Fehrbellin","category":"tankstelle","tags":[],"operator":"Agip","opening_hours":"Su 07:00-21:00; Mo 06:00-22:00; Tu 06:00-22:00; We 06:00-22:00; Th 06:00-22:00; Fr 06:00-22:00; Sa 06:00-22:00","gplace_id":"ChIJBYyghRIiqUcRHhddq3JktSs","hours":{"type":"weekly","weekly":{"0":{"isOpen":true,"periods":[{"open":420,"close":1260}]},"1":{"isOpen":true,"periods":[{"open":360,"close":1320}]},"2":{"isOpen":true,"periods":[{"open":360,"close":1320}]},"3":{"isOpen":true,"periods":[{"open":360,"close":1320}]},"4":{"isOpen":true,"periods":[{"open":360,"close":1320}]},"5":{"isOpen":true,"periods":[{"open":360,"close":1320}]},"6":{"isOpen":true,"periods":[{"open":360,"close":1320}]}},"original":"Su 07:00-21:00; Mo 06:00-22:00; Tu 06:00-22:00; We 06:00-22:00; Th 06:00-22:00; Fr 06:00-22:00; Sa 06:00-22:00"}},{"id":"fuel_267034336","lat":52.0874506,"lon":12.8494727,"name":"Total","city":"Treuenbrietzen","category":"tankstelle","tags":[],"opening_hours":"Mo-Fr 05:00-22:00; Sa, SU 07:00-22:00","operator":"TotalEnergies","hours":{"type":"weekly","weekly":{"0":{"isOpen":true,"periods":[{"open":420,"close":1320}]},"1":{"isOpen":true,"periods":[{"open":300,"close":1320}]},"2":{"isOpen":true,"periods":[{"open":300,"close":1320}]},"3":{"isOpen":true,"periods":[{"open":300,"close":1320}]},"4":{"isOpen":true,"periods":[{"open":300,"close":1320}]},"5":{"isOpen":true,"periods":[{"open":300,"close":1320}]},"6":{"isOpen":true,"periods":[{"open":420,"close":1320}]}},"original":"Mo-Fr 05:00-22:00; Sa, SU 07:00-22:00"}},{"id":"fuel_275053701","lat":52.1018819,"lon":12.6628482,"name":"Hoyer Tank-Treff","city":"Planetal","category":"tankstelle","tags":[],"opening_hours":"Mo 06:00-14:00; Tu 06:00-14:00; We 06:00-14:00; Th 06:00-14:00; Fr 06:00-14:00","gplace_id":"ChIJF6U6pXtRsEcRaGbwKg6UNLE","hours":{"type":"weekly","weekly":{"0":{"isOpen":false,"periods":[]},"1":{"isOpen":true,"periods":[{"open":360,"close":840}]},"2":{"isOpen":true,"periods":[{"open":360,"close":840}]},"3":{"isOpen":true,"periods":[{"open":360,"close":840}]},"4":{"isOpen":true,"periods":[{"open":360,"close":840}]},"5":{"isOpen":true,"periods":[{"open":360,"close":840}]},"6":{"isOpen":false,"periods":[]}},"original":"Mo 06:00-14:00; Tu 06:00-14:00; We 06:00-14:00; Th 06:00-14:00; Fr 06:00-14:00"}},{"id":"fuel_276553119","lat":52.0359247,"lon":12.1020957,"name":"Hoyer","city":"","category":"tankstelle","tags":[],"operator":"Anna Boos","opening_hours":"Su 07:00-12:00; Mo 06:00-18:00; Tu 06:00-18:00; We 06:00-18:00; Th 06:00-18:00; Fr 06:00-18:00; Sa 07:00-18:00","gplace_id":"ChIJX2EMQs0DpkcRu_5t8eW03qg","hours":{"type":"weekly","weekly":{"0":{"isOpen":true,"periods":[{"open":420,"close":720}]},"1":{"isOpen":true,"periods":[{"open":360,"close":1080}]},"2":{"isOpen":true,"periods":[{"open":360,"close":1080}]},"3":{"isOpen":true,"periods":[{"open":360,"close":1080}]},"4":{"isOpen":true,"periods":[{"open":360,"close":1080}]},"5":{"isOpen":true,"periods":[{"open":360,"close":1080}]},"6":{"isOpen":true,"periods":[{"open":420,"close":1080}]}},"original":"Su 07:00-12:00; Mo 06:00-18:00; Tu 06:00-18:00; We 06:00-18:00; Th 06:00-18:00; Fr 06:00-18:00; Sa 07:00-18:00"}},{"id":"fuel_277616873","lat":52.2687951,"lon":12.2846612,"name":"HEM","city":"","category":"tankstelle","tags":[],"operator":"Dingel","opening_hours":"Su 00:00+","gplace_id":"ChIJ54UY8GawqEcRv8HSDLv2_Co","hours":{"type":"unknown","original":"Su 00:00+"}},{"id":"fuel_277961991","lat":52.1505331,"lon":12.6001924,"name":"Total","city":"Bad Belzig","category":"tankstelle","tags":[],"operator":"Total","opening_hours":"Su 08:00-16:00; Mo 05:30-22:00; Tu 05:30-22:00; We 05:30-22:00; Th 05:30-22:00; Fr 05:30-22:00; Sa 08:00-16:00","gplace_id":"ChIJ044LyIpRZUERse-yn3-Q6_4","hours":{"type":"weekly","weekly":{"0":{"isOpen":true,"periods":[{"open":480,"close":960}]},"1":{"isOpen":true,"periods":[{"open":330,"close":1320}]},"2":{"isOpen":true,"periods":[{"open":330,"close":1320}]},"3":{"isOpen":true,"periods":[{"open":330,"close":1320}]},"4":{"isOpen":true,"periods":[{"open":330,"close":1320}]},"5":{"isOpen":true,"periods":[{"open":330,"close":1320}]},"6":{"isOpen":true,"periods":[{"open":480,"close":960}]}},"original":"Su 08:00-16:00; Mo 05:30-22:00; Tu 05:30-22:00; We 05:30-22:00; Th 05:30-22:00; Fr 05:30-22:00; Sa 08:00-16:00"}},{"id":"fuel_279158830","lat":52.252399,"lon":12.985963,"name":"Total","city":"Beelitz","category":"tankstelle","tags":[],"opening_hours":"24/7","operator":"Total","hours":{"type":"24_7"}},{"id":"fuel_279484109","lat":52.9895992,"lon":12.9732864,"name":"Heidegasthof","city":"","category":"other","tags":[],"gplace_id":"not_found","hours":{"type":"unknown"}},{"id":"fuel_301727997","lat":52.3909366,"lon":12.8447168,"name":"Total","city":"Werder (Havel)","category":"tankstelle","tags":[],"operator":"Total","opening_hours":"Su 00:00+","gplace_id":"ChIJH0Sp_wanpUcRWhX1ysJza-E","hours":{"type":"unknown","original":"Su 00:00+"}},{"id":"fuel_331323443","lat":52.9519861,"lon":12.6579536,"name":"Total","city":"","category":"tankstelle","tags":[],"opening_hours":"Mo-Su 00:00-18:00+","operator":"Total","hours":{"type":"weekly","weekly":{"0":{"isOpen":true,"periods":[{"open":0,"close":1080}]},"1":{"isOpen":true,"periods":[{"open":0,"close":1080}]},"2":{"isOpen":true,"periods":[{"open":0,"close":1080}]},"3":{"isOpen":true,"periods":[{"open":0,"close":1080}]},"4":{"isOpen":true,"periods":[{"open":0,"close":1080}]},"5":{"isOpen":true,"periods":[{"open":0,"close":1080}]},"6":{"isOpen":true,"periods":[{"open":0,"close":1080}]}},"original":"Mo-Su 00:00-18:00+"}},{"id":"fuel_335414191","lat":52.4301451,"lon":12.553138,"name":"Aral","city":"Brandenburg an der Havel","category":"tankstelle","tags":[],"opening_hours":"24/7","operator":"Aral","hours":{"type":"24_7"}},{"id":"fuel_401547335","lat":52.2527897,"lon":12.3103103,"name":"Shell Buckautal Nord","city":"","category":"tankstelle","tags":[],"opening_hours":"24/7","operator":"Shell","hours":{"type":"24_7"}},{"id":"fuel_423861888","lat":52.4167198,"lon":12.4865784,"name":"Total","city":"Brandenburg an der Havel","category":"tankstelle","tags":[],"opening_hours":"05:00-22:00","operator":"Total","hours":{"type":"weekly","weekly":{"0":{"isOpen":true,"periods":[{"open":300,"close":1320}]},"1":{"isOpen":true,"periods":[{"open":300,"close":1320}]},"2":{"isOpen":true,"periods":[{"open":300,"close":1320}]},"3":{"isOpen":true,"periods":[{"open":300,"close":1320}]},"4":{"isOpen":true,"periods":[{"open":300,"close":1320}]},"5":{"isOpen":true,"periods":[{"open":300,"close":1320}]},"6":{"isOpen":true,"periods":[{"open":300,"close":1320}]}},"original":"05:00-22:00"}},{"id":"fuel_423882750","lat":52.4053867,"lon":12.5771918,"name":"Shell","city":"Brandenburg an der Havel","category":"tankstelle","tags":["barrierefrei","google_wc_accessible"],"opening_hours":"24/7","operator":"Shell","hours":{"type":"24_7"}},{"id":"fuel_423882924","lat":52.4015389,"lon":12.5900294,"name":"Esso","city":"Brandenburg an der Havel","category":"tankstelle","tags":["barrierefrei","google_wc_accessible"],"opening_hours":"24/7","operator":"Esso","hours":{"type":"24_7"}},{"id":"fuel_423888845","lat":52.4304696,"lon":12.5312476,"name":"LEO-Tankstelle","city":"Brandenburg an der Havel","category":"tankstelle","tags":[],"opening_hours":"24/7","operator":"Löwentank GmbH","hours":{"type":"24_7"}},{"id":"fuel_423905142","lat":52.4286633,"lon":12.5151434,"name":"Hoth e.K. Brennstoffhandel","city":"","category":"other","tags":[],"operator":"Hoth e.K. Brennstoffhandel","opening_hours":"Mo 06:00-18:00; Tu 06:00-18:00; We 06:00-18:00; Th 06:00-18:00; Fr 06:00-18:00; Sa 06:00-12:00","gplace_id":"ChIJYZFB4ijBqEcRuScnTC0V_uI","hours":{"type":"weekly","weekly":{"0":{"isOpen":false,"periods":[]},"1":{"isOpen":true,"periods":[{"open":360,"close":1080}]},"2":{"isOpen":true,"periods":[{"open":360,"close":1080}]},"3":{"isOpen":true,"periods":[{"open":360,"close":1080}]},"4":{"isOpen":true,"periods":[{"open":360,"close":1080}]},"5":{"isOpen":true,"periods":[{"open":360,"close":1080}]},"6":{"isOpen":true,"periods":[{"open":360,"close":720}]}},"original":"Mo 06:00-18:00; Tu 06:00-18:00; We 06:00-18:00; Th 06:00-18:00; Fr 06:00-18:00; Sa 06:00-12:00"}},{"id":"fuel_440295255","lat":52.4060131,"lon":12.5754676,"name":"Aral","city":"Brandenburg an der Havel","category":"tankstelle","tags":[],"opening_hours":"24/7","operator":"Aral","hours":{"type":"24_7"}},{"id":"fuel_444580499","lat":52.1592272,"lon":12.7813615,"name":"Esso","city":"Linthe","category":"tankstelle","tags":[],"opening_hours":"Su 00:00+","gplace_id":"ChIJBWNupmyFqEcRBZ4PwngHrFk","hours":{"type":"unknown","original":"Su 00:00+"}},{"id":"fuel_538878119","lat":52.1779056,"lon":12.7589678,"name":"Tankstelle","city":"","category":"tankstelle","tags":[],"opening_hours":"24/7","hours":{"type":"24_7"}},{"id":"fuel_605049406","lat":52.5325893,"lon":12.3449088,"name":"Erdgas Tankstelle","city":"Premnitz","category":"tankstelle","tags":[],"operator":"Stadtwerke Premnitz GmbH","gplace_id":"not_found","hours":{"type":"unknown"}},{"id":"fuel_677316553","lat":52.1684566,"lon":12.7693072,"name":"tankpool24","city":"","category":"tankstelle","tags":[],"opening_hours":"24/7","operator":"Tankpool24","hours":{"type":"24_7"}},{"id":"fuel_693924772","lat":52.9503968,"lon":12.6627866,"name":"Total","city":"","category":"tankstelle","tags":["sanifair","barrierefrei","kostenpflichtig"],"operator":"Michael Fröhlich","opening_hours":"Su 00:00+","gplace_id":"ChIJ9TJfar87qUcR6v3BeD7Bqsg","hours":{"type":"unknown","original":"Su 00:00+"},"fee":"yes"},{"id":"fuel_705938453","lat":52.8526104,"lon":12.4494363,"name":"bft Tankstelle König & Platen","city":"Neustadt (Dosse)","category":"tankstelle","tags":[],"opening_hours":"Mo-Fr 06:00-20:00; Sa 07:00-20:00; Su 08:00-20:00","hours":{"type":"weekly","weekly":{"0":{"isOpen":true,"periods":[{"open":480,"close":1200}]},"1":{"isOpen":true,"periods":[{"open":360,"close":1200}]},"2":{"isOpen":true,"periods":[{"open":360,"close":1200}]},"3":{"isOpen":true,"periods":[{"open":360,"close":1200}]},"4":{"isOpen":true,"periods":[{"open":360,"close":1200}]},"5":{"isOpen":true,"periods":[{"open":360,"close":1200}]},"6":{"isOpen":true,"periods":[{"open":420,"close":1200}]}},"original":"Mo-Fr 06:00-20:00; Sa 07:00-20:00; Su 08:00-20:00"}},{"id":"fuel_732712611","lat":52.2498046,"lon":12.269277,"name":"Scania Servicepartner","city":"","category":"other","tags":[],"gplace_id":"ChIJ63Zhjj2wqEcRtT7iNS7FWeM","hours":{"type":"unknown"}},{"id":"fuel_732712783","lat":52.8961328,"lon":12.4524967,"name":"ad Autodienst Gubalski L...","city":"","category":"other","tags":[],"opening_hours":"Mo-Fr 08:00-18:00; Sa 08:00-12:00","hours":{"type":"weekly","weekly":{"0":{"isOpen":false,"periods":[]},"1":{"isOpen":true,"periods":[{"open":480,"close":1080}]},"2":{"isOpen":true,"periods":[{"open":480,"close":1080}]},"3":{"isOpen":true,"periods":[{"open":480,"close":1080}]},"4":{"isOpen":true,"periods":[{"open":480,"close":1080}]},"5":{"isOpen":true,"periods":[{"open":480,"close":1080}]},"6":{"isOpen":true,"periods":[{"open":480,"close":720}]}},"original":"Mo-Fr 08:00-18:00; Sa 08:00-12:00"}},{"id":"fuel_732712793","lat":52.3976316,"lon":12.8229651,"name":"Flüssiggas J. Ritter","city":"Werder (Havel)","category":"other","tags":[],"opening_hours":"Su 00:00+","gplace_id":"ChIJO-8kPaLtqEcRXig0HrDSFxk","hours":{"type":"unknown","original":"Su 00:00+"}},{"id":"fuel_732715181","lat":52.39522,"lon":12.540375,"name":"Total","city":"Brandenburg an der Havel","category":"tankstelle","tags":["barrierefrei","google_wc_accessible"],"opening_hours":"24/7","operator":"Total","hours":{"type":"24_7"}},{"id":"fuel_732715601","lat":52.9130808,"lon":12.7718015,"name":"Autohaus Freyer","city":"","category":"other","tags":[],"opening_hours":"Mo-Fr 07:00-18:00; Sa 09:00-13:30","hours":{"type":"weekly","weekly":{"0":{"isOpen":false,"periods":[]},"1":{"isOpen":true,"periods":[{"open":420,"close":1080}]},"2":{"isOpen":true,"periods":[{"open":420,"close":1080}]},"3":{"isOpen":true,"periods":[{"open":420,"close":1080}]},"4":{"isOpen":true,"periods":[{"open":420,"close":1080}]},"5":{"isOpen":true,"periods":[{"open":420,"close":1080}]},"6":{"isOpen":true,"periods":[{"open":540,"close":810}]}},"original":"Mo-Fr 07:00-18:00; Sa 09:00-13:30"}},{"id":"fuel_732715845","lat":52.9365353,"lon":12.4079308,"name":"Star","city":"Hansestadt Kyritz","category":"tankstelle","tags":[],"opening_hours":"Mo-Fr 06:00-22:00; Sa,Su 07:00-22:00","hours":{"type":"weekly","weekly":{"0":{"isOpen":true,"periods":[{"open":420,"close":1320}]},"1":{"isOpen":true,"periods":[{"open":360,"close":1320}]},"2":{"isOpen":true,"periods":[{"open":360,"close":1320}]},"3":{"isOpen":true,"periods":[{"open":360,"close":1320}]},"4":{"isOpen":true,"periods":[{"open":360,"close":1320}]},"5":{"isOpen":true,"periods":[{"open":360,"close":1320}]},"6":{"isOpen":true,"periods":[{"open":420,"close":1320}]}},"original":"Mo-Fr 06:00-22:00; Sa,Su 07:00-22:00"}},{"id":"fuel_732715858","lat":52.9448057,"lon":12.847886,"name":"Autohaus Wernicke GmbH","city":"","category":"other","tags":[],"opening_hours":"Mo-Fr 06:30-19:00; Sa 08:00-13:00","hours":{"type":"weekly","weekly":{"0":{"isOpen":false,"periods":[]},"1":{"isOpen":true,"periods":[{"open":390,"close":1140}]},"2":{"isOpen":true,"periods":[{"open":390,"close":1140}]},"3":{"isOpen":true,"periods":[{"open":390,"close":1140}]},"4":{"isOpen":true,"periods":[{"open":390,"close":1140}]},"5":{"isOpen":true,"periods":[{"open":390,"close":1140}]},"6":{"isOpen":true,"periods":[{"open":480,"close":780}]}},"original":"Mo-Fr 06:30-19:00; Sa 08:00-13:00"}},{"id":"fuel_732716084","lat":52.28377,"lon":12.603,"name":"Tankstelle","city":"Golzow","category":"tankstelle","tags":[],"opening_hours":"24/7","operator":"Agravis Ost GmbH & Co. KG","hours":{"type":"24_7"}},{"id":"fuel_732716840","lat":52.0804809,"lon":12.7065061,"name":"Hoyer","city":"Niemegk","category":"tankstelle","tags":[],"opening_hours":"24/7","operator":"Hoyer","hours":{"type":"24_7"}},{"id":"fuel_732716960","lat":52.1178385,"lon":12.4666152,"name":"bft","city":"Wiesenburg/Mark","category":"tankstelle","tags":[],"opening_hours":"Mo-Su 06:00-18:00; 24/7","operator":"Liero GmbH","hours":{"type":"weekly","weekly":{"0":{"isOpen":true,"periods":[{"open":360,"close":1080}]},"1":{"isOpen":true,"periods":[{"open":360,"close":1080}]},"2":{"isOpen":true,"periods":[{"open":360,"close":1080}]},"3":{"isOpen":true,"periods":[{"open":360,"close":1080}]},"4":{"isOpen":true,"periods":[{"open":360,"close":1080}]},"5":{"isOpen":true,"periods":[{"open":360,"close":1080}]},"6":{"isOpen":true,"periods":[{"open":360,"close":1080}]}},"original":"Mo-Su 06:00-18:00; 24/7"}},{"id":"fuel_732717808","lat":52.9059512,"lon":12.7322417,"name":"Abschlepp Service GmbH","city":"","category":"other","tags":[],"opening_hours":"24/7","hours":{"type":"24_7"}},{"id":"fuel_806394571","lat":52.5596265,"lon":12.9710751,"name":"Automatic Diesel Station (LKW)","city":"","category":"tankstelle","tags":[],"opening_hours":"24/7","operator":"Aral","hours":{"type":"24_7"}},{"id":"fuel_1389949669","lat":52.4833845,"lon":12.8462824,"name":"Tamoil","city":"","category":"tankstelle","tags":[],"opening_hours":"Mo-Fr 05:00-22:00; Sa-Su 06:00-22:00","operator":"Tamoil","hours":{"type":"weekly","weekly":{"0":{"isOpen":true,"periods":[{"open":360,"close":1320}]},"1":{"isOpen":true,"periods":[{"open":300,"close":1320}]},"2":{"isOpen":true,"periods":[{"open":300,"close":1320}]},"3":{"isOpen":true,"periods":[{"open":300,"close":1320}]},"4":{"isOpen":true,"periods":[{"open":300,"close":1320}]},"5":{"isOpen":true,"periods":[{"open":300,"close":1320}]},"6":{"isOpen":true,"periods":[{"open":360,"close":1320}]}},"original":"Mo-Fr 05:00-22:00; Sa-Su 06:00-22:00"}},{"id":"fuel_1398178789","lat":52.004365,"lon":12.7824667,"name":"GO","city":"Treuenbrietzen","category":"other","tags":[],"opening_hours":"24/7","operator":"Siegfried Schmidt","hours":{"type":"24_7"}},{"id":"fuel_1991932206","lat":52.439516,"lon":12.5274126,"name":"SB Tankstelle","city":"","category":"tankstelle","tags":[],"opening_hours":"Su 08:00-21:00; Mo 05:00-21:00; Tu 05:00-21:00; We 05:00-21:00; Th 05:00-21:00; Fr 05:00-21:00; Sa 07:00-21:00","gplace_id":"ChIJHbwUe_LBqEcRVkT6ffwu3ZM","hours":{"type":"weekly","weekly":{"0":{"isOpen":true,"periods":[{"open":480,"close":1260}]},"1":{"isOpen":true,"periods":[{"open":300,"close":1260}]},"2":{"isOpen":true,"periods":[{"open":300,"close":1260}]},"3":{"isOpen":true,"periods":[{"open":300,"close":1260}]},"4":{"isOpen":true,"periods":[{"open":300,"close":1260}]},"5":{"isOpen":true,"periods":[{"open":300,"close":1260}]},"6":{"isOpen":true,"periods":[{"open":420,"close":1260}]}},"original":"Su 08:00-21:00; Mo 05:00-21:00; Tu 05:00-21:00; We 05:00-21:00; Th 05:00-21:00; Fr 05:00-21:00; Sa 07:00-21:00"}},{"id":"fuel_2045314035","lat":52.413428,"lon":12.1573995,"name":"Tankstelle","city":"","category":"tankstelle","tags":[],"opening_hours":"Mo 08:00-17:00; Tu 08:00-17:00; We 08:00-17:00; Th 08:00-17:00; Fr 08:00-17:00; Sa 08:00-12:00","gplace_id":"ChIJaWUC71u1qEcR2C3rmWcosQ4","hours":{"type":"weekly","weekly":{"0":{"isOpen":false,"periods":[]},"1":{"isOpen":true,"periods":[{"open":480,"close":1020}]},"2":{"isOpen":true,"periods":[{"open":480,"close":1020}]},"3":{"isOpen":true,"periods":[{"open":480,"close":1020}]},"4":{"isOpen":true,"periods":[{"open":480,"close":1020}]},"5":{"isOpen":true,"periods":[{"open":480,"close":1020}]},"6":{"isOpen":true,"periods":[{"open":480,"close":720}]}},"original":"Mo 08:00-17:00; Tu 08:00-17:00; We 08:00-17:00; Th 08:00-17:00; Fr 08:00-17:00; Sa 08:00-12:00"}},{"id":"fuel_2070484882","lat":52.2499665,"lon":12.3068978,"name":"Total","city":"","category":"tankstelle","tags":[],"opening_hours":"24/7","operator":"Total","hours":{"type":"24_7"}},{"id":"fuel_2375928268","lat":52.4301331,"lon":12.5323798,"name":"HEM","city":"Brandenburg an der Havel","category":"tankstelle","tags":["barrierefrei","google_wc_accessible"],"opening_hours":"Mo-Su,PH 05:00-23:00","operator":"HEM","hours":{"type":"weekly","weekly":{"0":{"isOpen":true,"periods":[{"open":300,"close":1380}]},"1":{"isOpen":true,"periods":[{"open":300,"close":1380}]},"2":{"isOpen":true,"periods":[{"open":300,"close":1380}]},"3":{"isOpen":true,"periods":[{"open":300,"close":1380}]},"4":{"isOpen":true,"periods":[{"open":300,"close":1380}]},"5":{"isOpen":true,"periods":[{"open":300,"close":1380}]},"6":{"isOpen":true,"periods":[{"open":300,"close":1380}]}},"original":"Mo-Su,PH 05:00-23:00"}},{"id":"fuel_2399823807","lat":52.8055517,"lon":12.7877744,"name":"Gulf","city":"Fehrbellin","category":"tankstelle","tags":[],"operator":"Gulf","opening_hours":"Su 07:00-22:00; Mo 05:00-22:00; Tu 05:00-22:00; We 05:00-22:00; Th 05:00-22:00; Fr 05:00-22:00; Sa 06:00-22:00","gplace_id":"ChIJA_BHdA0iqUcRRqi3AaQjr4M","hours":{"type":"weekly","weekly":{"0":{"isOpen":true,"periods":[{"open":420,"close":1320}]},"1":{"isOpen":true,"periods":[{"open":300,"close":1320}]},"2":{"isOpen":true,"periods":[{"open":300,"close":1320}]},"3":{"isOpen":true,"periods":[{"open":300,"close":1320}]},"4":{"isOpen":true,"periods":[{"open":300,"close":1320}]},"5":{"isOpen":true,"periods":[{"open":300,"close":1320}]},"6":{"isOpen":true,"periods":[{"open":360,"close":1320}]}},"original":"Su 07:00-22:00; Mo 05:00-22:00; Tu 05:00-22:00; We 05:00-22:00; Th 05:00-22:00; Fr 05:00-22:00; Sa 06:00-22:00"}},{"id":"fuel_2407379583","lat":52.9119524,"lon":12.7655276,"name":"Tankstelle","city":"Neuruppin","category":"tankstelle","tags":[],"gplace_id":"not_found","hours":{"type":"unknown"}},{"id":"fuel_3553441412","lat":52.3975,"lon":12.9157979,"name":"Sprint","city":"Werder (Havel)","category":"tankstelle","tags":[],"opening_hours":"Mo-Sa 06:00-22:00; Su 08:00-22:00","operator":"Sprint Tank GmbH","hours":{"type":"weekly","weekly":{"0":{"isOpen":true,"periods":[{"open":480,"close":1320}]},"1":{"isOpen":true,"periods":[{"open":360,"close":1320}]},"2":{"isOpen":true,"periods":[{"open":360,"close":1320}]},"3":{"isOpen":true,"periods":[{"open":360,"close":1320}]},"4":{"isOpen":true,"periods":[{"open":360,"close":1320}]},"5":{"isOpen":true,"periods":[{"open":360,"close":1320}]},"6":{"isOpen":true,"periods":[{"open":360,"close":1320}]}},"original":"Mo-Sa 06:00-22:00; Su 08:00-22:00"}},{"id":"fuel_3863524455","lat":52.8014455,"lon":12.7930398,"name":"Hoyer","city":"Fehrbellin","category":"tankstelle","tags":[],"opening_hours":"Su 00:00+","gplace_id":"ChIJ1ZtSrE58r0cReVTMdKwcTu0","hours":{"type":"unknown","original":"Su 00:00+"}},{"id":"fuel_4080032061","lat":52.3476946,"lon":12.901891,"name":"STAR-Tank","city":"Werder (Havel)","category":"tankstelle","tags":[],"opening_hours":"Mo-Su,PH 06:00-21:00","operator":"star","hours":{"type":"weekly","weekly":{"0":{"isOpen":true,"periods":[{"open":360,"close":1260}]},"1":{"isOpen":true,"periods":[{"open":360,"close":1260}]},"2":{"isOpen":true,"periods":[{"open":360,"close":1260}]},"3":{"isOpen":true,"periods":[{"open":360,"close":1260}]},"4":{"isOpen":true,"periods":[{"open":360,"close":1260}]},"5":{"isOpen":true,"periods":[{"open":360,"close":1260}]},"6":{"isOpen":true,"periods":[{"open":360,"close":1260}]}},"original":"Mo-Su,PH 06:00-21:00"}},{"id":"fuel_4284961779","lat":52.143881,"lon":12.6686709,"name":"Private","city":"","category":"other","tags":[],"operator":"Flugsportclub Charlottenburg (FCC) Berlin e.V.","gplace_id":"not_found","hours":{"type":"unknown"}},{"id":"fuel_4360780362","lat":52.4249892,"lon":12.554399,"name":"Tankstelle","city":"","category":"tankstelle","tags":[],"opening_hours":"Oct, Apr: Mo-Fr 09:00-16:30; May-Sep: Mo-Su 09:00-17:00","operator":"Stadtmarina Brandenburg","hours":{"type":"weekly","weekly":{"0":{"isOpen":true,"periods":[{"open":540,"close":1020}]},"1":{"isOpen":true,"periods":[{"open":540,"close":1020}]},"2":{"isOpen":true,"periods":[{"open":540,"close":1020}]},"3":{"isOpen":true,"periods":[{"open":540,"close":1020}]},"4":{"isOpen":true,"periods":[{"open":540,"close":1020}]},"5":{"isOpen":true,"periods":[{"open":540,"close":1020}]},"6":{"isOpen":true,"periods":[{"open":540,"close":1020}]}},"original":"Oct, Apr: Mo-Fr 09:00-16:30; May-Sep: Mo-Su 09:00-17:00"}},{"id":"fuel_4423642971","lat":52.7546323,"lon":12.8552241,"name":"Aral Linumner Bruch Nordseite","city":"Linum","category":"tankstelle","tags":["sanifair","barrierefrei","kostenpflichtig"],"opening_hours":"24/7","operator":"Ingo Fischer","hours":{"type":"24_7"},"fee":"yes"},{"id":"fuel_4593711349","lat":52.8465539,"lon":12.4496294,"name":"Raiffeisen","city":"","category":"tankstelle","tags":[],"opening_hours":"Su 08:00-20:00; Mo 06:00-20:00; Tu 06:00-20:00; We 06:00-20:00; Th 06:00-20:00; Fr 06:00-20:00; Sa 07:00-20:00","gplace_id":"ChIJU65_dyAsqUcRqAsO6pjwBVo","hours":{"type":"weekly","weekly":{"0":{"isOpen":true,"periods":[{"open":480,"close":1200}]},"1":{"isOpen":true,"periods":[{"open":360,"close":1200}]},"2":{"isOpen":true,"periods":[{"open":360,"close":1200}]},"3":{"isOpen":true,"periods":[{"open":360,"close":1200}]},"4":{"isOpen":true,"periods":[{"open":360,"close":1200}]},"5":{"isOpen":true,"periods":[{"open":360,"close":1200}]},"6":{"isOpen":true,"periods":[{"open":420,"close":1200}]}},"original":"Su 08:00-20:00; Mo 06:00-20:00; Tu 06:00-20:00; We 06:00-20:00; Th 06:00-20:00; Fr 06:00-20:00; Sa 07:00-20:00"}},{"id":"fuel_4788766549","lat":52.5643878,"lon":12.9729943,"name":"tankpool24","city":"Wustermark","category":"tankstelle","tags":[],"operator":"tankpool24 GmbH","opening_hours":"Su 00:00+","gplace_id":"ChIJow445hP7qEcRDBpobE2YTK0","hours":{"type":"unknown","original":"Su 00:00+"}},{"id":"fuel_5084501929","lat":52.3200378,"lon":12.7462368,"name":"City Tank","city":"Kloster Lehnin","category":"other","tags":[],"opening_hours":"Mo-Fr 06:00-22:00; Sa,Su,PH 07:00-22:00","operator":"Independent","hours":{"type":"weekly","weekly":{"0":{"isOpen":true,"periods":[{"open":420,"close":1320}]},"1":{"isOpen":true,"periods":[{"open":360,"close":1320}]},"2":{"isOpen":true,"periods":[{"open":360,"close":1320}]},"3":{"isOpen":true,"periods":[{"open":360,"close":1320}]},"4":{"isOpen":true,"periods":[{"open":360,"close":1320}]},"5":{"isOpen":true,"periods":[{"open":360,"close":1320}]},"6":{"isOpen":true,"periods":[{"open":420,"close":1320}]}},"original":"Mo-Fr 06:00-22:00; Sa,Su,PH 07:00-22:00"}},{"id":"fuel_5766524357","lat":52.8885875,"lon":12.8107561,"name":"Tankstelle","city":"","category":"tankstelle","tags":[],"opening_hours":"Mo-Fr 06:00-19:00; Sa 08:00-13:00","operator":"Allegro","hours":{"type":"weekly","weekly":{"0":{"isOpen":false,"periods":[]},"1":{"isOpen":true,"periods":[{"open":360,"close":1140}]},"2":{"isOpen":true,"periods":[{"open":360,"close":1140}]},"3":{"isOpen":true,"periods":[{"open":360,"close":1140}]},"4":{"isOpen":true,"periods":[{"open":360,"close":1140}]},"5":{"isOpen":true,"periods":[{"open":360,"close":1140}]},"6":{"isOpen":true,"periods":[{"open":480,"close":780}]}},"original":"Mo-Fr 06:00-19:00; Sa 08:00-13:00"}},{"id":"fuel_7047576701","lat":52.9061976,"lon":12.7505211,"name":"Total Autohof Neuruppin","city":"","category":"tankstelle","tags":[],"opening_hours":"24/7","operator":"Total","hours":{"type":"24_7"}},{"id":"fuel_7093517385","lat":52.796989,"lon":12.7909903,"name":"tankpool24","city":"Fehrbellin","category":"tankstelle","tags":[],"operator":"tankpool24","opening_hours":"Su 00:00+","gplace_id":"ChIJcxUzAAYiqUcRml2GfGJ7afM","hours":{"type":"unknown","original":"Su 00:00+"}},{"id":"fuel_7136040279","lat":52.9182005,"lon":12.7834081,"name":"Shell","city":"","category":"tankstelle","tags":[],"operator":"Shell","opening_hours":"Su 08:00-20:30; Mo 05:30-20:30; Tu 05:30-20:30; We 05:30-20:30; Th 05:30-20:30; Fr 05:30-20:30; Sa 07:00-20:30","gplace_id":"ChIJdxh42FU8qUcRE2H-BFYlju0","hours":{"type":"weekly","weekly":{"0":{"isOpen":true,"periods":[{"open":480,"close":1230}]},"1":{"isOpen":true,"periods":[{"open":330,"close":1230}]},"2":{"isOpen":true,"periods":[{"open":330,"close":1230}]},"3":{"isOpen":true,"periods":[{"open":330,"close":1230}]},"4":{"isOpen":true,"periods":[{"open":330,"close":1230}]},"5":{"isOpen":true,"periods":[{"open":330,"close":1230}]},"6":{"isOpen":true,"periods":[{"open":420,"close":1230}]}},"original":"Su 08:00-20:30; Mo 05:30-20:30; Tu 05:30-20:30; We 05:30-20:30; Th 05:30-20:30; Fr 05:30-20:30; Sa 07:00-20:30"}},{"id":"fuel_9083952021","lat":52.3033712,"lon":12.9708372,"name":"Total Energies","city":"Ferch","category":"tankstelle","tags":[],"operator":"TotalEnergies","opening_hours":"Su 00:00+","gplace_id":"ChIJV3g61YmLqEcRPDmnbYq3-5Q","hours":{"type":"unknown","original":"Su 00:00+"}},{"id":"fuel_9530994307","lat":52.41346,"lon":12.5243214,"name":"Total","city":"Brandenburg an der Havel","category":"tankstelle","tags":["barrierefrei","google_wc_accessible"],"opening_hours":"Mo-Fr 05:00-23:00; Sa,Su,PH 07:00-23:00","operator":"Total","hours":{"type":"weekly","weekly":{"0":{"isOpen":true,"periods":[{"open":420,"close":1380}]},"1":{"isOpen":true,"periods":[{"open":300,"close":1380}]},"2":{"isOpen":true,"periods":[{"open":300,"close":1380}]},"3":{"isOpen":true,"periods":[{"open":300,"close":1380}]},"4":{"isOpen":true,"periods":[{"open":300,"close":1380}]},"5":{"isOpen":true,"periods":[{"open":300,"close":1380}]},"6":{"isOpen":true,"periods":[{"open":420,"close":1380}]}},"original":"Mo-Fr 05:00-23:00; Sa,Su,PH 07:00-23:00"}},{"id":"fuel_11247707410","lat":52.799039,"lon":12.7910875,"name":"Diesel- und Biodieseltankstelle","city":"Fehrbellin","category":"other","tags":[],"opening_hours":"24/7","operator":"Kitsch Brennstoffhandel GmbH","hours":{"type":"24_7"}},{"id":"fuel_12570996299","lat":52.9394209,"lon":12.388289,"name":"star","city":"Hansestadt Kyritz","category":"tankstelle","tags":[],"operator":"Star","opening_hours":"Su 07:00-22:00; Mo 06:00-22:00; Tu 06:00-22:00; We 06:00-22:00; Th 06:00-22:00; Fr 06:00-22:00; Sa 07:00-22:00","gplace_id":"ChIJQeV5vccyqUcRBtKxDiAHhzk","hours":{"type":"weekly","weekly":{"0":{"isOpen":true,"periods":[{"open":420,"close":1320}]},"1":{"isOpen":true,"periods":[{"open":360,"close":1320}]},"2":{"isOpen":true,"periods":[{"open":360,"close":1320}]},"3":{"isOpen":true,"periods":[{"open":360,"close":1320}]},"4":{"isOpen":true,"periods":[{"open":360,"close":1320}]},"5":{"isOpen":true,"periods":[{"open":360,"close":1320}]},"6":{"isOpen":true,"periods":[{"open":420,"close":1320}]}},"original":"Su 07:00-22:00; Mo 06:00-22:00; Tu 06:00-22:00; We 06:00-22:00; Th 06:00-22:00; Fr 06:00-22:00; Sa 07:00-22:00"}},{"id":"fuel_12760289332","lat":52.5657276,"lon":12.9755884,"name":"Shell","city":"","category":"tankstelle","tags":[],"opening_hours":"24/7","operator":"Shell","hours":{"type":"24_7"}},{"id":"autobahn_DE-ST-002010","lat":52.24494999990636,"lon":12.147838000008637,"name":"Wüstenforst Nord (A2)","city":"","category":"public_24h","tags":["autobahn","a2","toilette"],"opening_hours":"24/7","operator":"Autobahn GmbH","hours":{"type":"24_7"}},{"id":"autobahn_DE-ST-002011","lat":52.24312599990723,"lon":12.142861000008658,"name":"Wüstenforst Sued (A2)","city":"","category":"public_24h","tags":["autobahn","a2","toilette"],"opening_hours":"24/7","operator":"Autobahn GmbH","hours":{"type":"24_7"}},{"id":"autobahn_DE-BB-373901","lat":52.25190799987397,"lon":12.307746000007342,"name":"Buckautal N (A2)","city":"","category":"tankstelle","tags":["autobahn","a2","toilette","tankstelle","raststätte","dusche"],"operator":"Tank & Rast","hours":{"type":"unknown"}},{"id":"autobahn_DE-BB-373902","lat":52.250983999873526,"lon":12.309836000007316,"name":"Buckautal S (A2)","city":"","category":"tankstelle","tags":["autobahn","a2","toilette","tankstelle","raststätte","dusche"],"operator":"Tank & Rast","hours":{"type":"unknown"}},{"id":"autobahn_DE-BB-364103","lat":52.3419929998186,"lon":12.515211000001482,"name":"Wendgräben (A2)","city":"","category":"public_24h","tags":["autobahn","a2","toilette"],"opening_hours":"24/7","operator":"Autobahn GmbH","hours":{"type":"24_7"}},{"id":"autobahn_DE-BB-364104","lat":52.341358999818105,"lon":12.516849000001422,"name":"Temnitz (A2)","city":"","category":"public_24h","tags":["autobahn","a2","toilette"],"opening_hours":"24/7","operator":"Autobahn GmbH","hours":{"type":"24_7"}},{"id":"autobahn_DE-BB-364102","lat":52.339921999775605,"lon":12.642374999995045,"name":"Rietzer See (A2)","city":"","category":"public_24h","tags":["autobahn","a2","toilette"],"opening_hours":"24/7","operator":"Autobahn GmbH","hours":{"type":"24_7"}},{"id":"autobahn_DE-BB-364101","lat":52.33815099977449,"lon":12.645403999994869,"name":"Grebser Heide (A2)","city":"","category":"public_24h","tags":["autobahn","a2","toilette"],"opening_hours":"24/7","operator":"Autobahn GmbH","hours":{"type":"24_7"}},{"id":"autobahn_DE-BB-394101","lat":52.04391199978033,"lon":12.629486999998504,"name":"Hagen (A9)","city":"","category":"public_24h","tags":["autobahn","a9","toilette"],"opening_hours":"24/7","operator":"Autobahn GmbH","hours":{"type":"24_7"}},{"id":"autobahn_DE-BB-394102","lat":52.03547399978336,"lon":12.62105699999904,"name":"Rabenstein (A9)","city":"","category":"public_24h","tags":["autobahn","a9","toilette"],"opening_hours":"24/7","operator":"Autobahn GmbH","hours":{"type":"24_7"}},{"id":"autobahn_DE-BB-384201","lat":52.13312999973209,"lon":12.751816999989085,"name":"Fläming W (A9)","city":"","category":"tankstelle","tags":["autobahn","a9","toilette","tankstelle","raststätte","dusche"],"operator":"Tank & Rast","hours":{"type":"unknown"}},{"id":"autobahn_DE-BB-384202","lat":52.13217799973166,"lon":12.752871999989004,"name":"Fläming O (A9)","city":"","category":"tankstelle","tags":["autobahn","a9","toilette","tankstelle","raststätte","dusche","sanifair","barrierefrei","kostenpflichtig"],"operator":"Tank & Rast","fee":"yes","hours":{"type":"unknown"}},{"id":"autobahn_DE-BB-374301","lat":52.20214999967033,"lon":12.884128999974264,"name":"Borker Heide (A9)","city":"","category":"public_24h","tags":["autobahn","a9","toilette"],"opening_hours":"24/7","operator":"Autobahn GmbH","hours":{"type":"24_7"}},{"id":"autobahn_DE-BB-374302","lat":52.20075299967007,"lon":12.884644999974215,"name":"Zauche (A9)","city":"","category":"public_24h","tags":["autobahn","a9","toilette"],"opening_hours":"24/7","operator":"Autobahn GmbH","hours":{"type":"24_7"}},{"id":"autobahn_DE-BB-364302","lat":52.320538999686235,"lon":12.852174999976588,"name":"Schwielowsee (A10)","city":"","category":"public_24h","tags":["autobahn","a10","toilette"],"opening_hours":"24/7","operator":"Autobahn GmbH","hours":{"type":"24_7"}},{"id":"autobahn_DE-BB-364303","lat":52.319159999682896,"lon":12.858979999975785,"name":"Caputh (A10)","city":"","category":"public_24h","tags":["autobahn","a10","toilette"],"opening_hours":"24/7","operator":"Autobahn GmbH","hours":{"type":"24_7"}},{"id":"autobahn_DE-BB-354301","lat":52.42068699964944,"lon":12.924288999965546,"name":"RA A10 km 121,09 Ri. Süd (A10)","city":"","category":"other","tags":["autobahn","a10"],"operator":"Autobahn GmbH","hours":{"type":"unknown"}},{"id":"autobahn_DE-BB-344302","lat":52.53237699962644,"lon":12.966271999957167,"name":"RA A10 km 134,315 Ri. West (A10)","city":"","category":"other","tags":["autobahn","a10"],"operator":"Autobahn GmbH","hours":{"type":"unknown"}},{"id":"autobahn_DE-BB-344301","lat":52.52227199962683,"lon":12.96559499995744,"name":"RA A10 km 133,179 Ri. Süd (A10)","city":"","category":"other","tags":["autobahn","a10"],"operator":"Autobahn GmbH","hours":{"type":"unknown"}},{"id":"autobahn_DE-BB-334301","lat":52.63113499961538,"lon":12.985800999952154,"name":"RA A10 km 145,604 Ri. Süd (A10)","city":"","category":"other","tags":["autobahn","a10"],"operator":"Autobahn GmbH","hours":{"type":"unknown"}},{"id":"autobahn_DE-BB-294104","lat":52.992026999787846,"lon":12.6091829999915,"name":"RA A24 km 192,5 (A24)","city":"","category":"public_24h","tags":["autobahn","a24","toilette"],"opening_hours":"24/7","operator":"Autobahn GmbH","hours":{"type":"24_7"}},{"id":"autobahn_DE-BB-304101","lat":52.95173399976881,"lon":12.66128099998812,"name":"Walsleben O (A24)","city":"","category":"tankstelle","tags":["autobahn","a24","toilette","tankstelle","raststätte","dusche"],"operator":"Tank & Rast","hours":{"type":"unknown"}},{"id":"autobahn_DE-BB-304102","lat":52.95105699976961,"lon":12.659174999988286,"name":"Walsleben W (A24)","city":"","category":"tankstelle","tags":["autobahn","a24","toilette","tankstelle","raststätte","dusche"],"operator":"Tank & Rast","hours":{"type":"unknown"}},{"id":"autobahn_DE-BB-304202","lat":52.88764399973157,"lon":12.75365999998058,"name":"Ruppiner See, km 207,95 li. RF (A24)","city":"","category":"other","tags":["autobahn","a24"],"operator":"Autobahn GmbH","hours":{"type":"unknown"}},{"id":"autobahn_DE-BB-324202","lat":52.766660999701266,"lon":12.821137999974583,"name":"RA A24 km 222,362 Ri. Hamburg (A24)","city":"","category":"other","tags":["autobahn","a24"],"operator":"Autobahn GmbH","hours":{"type":"unknown"}},{"id":"autobahn_DE-BB-324201","lat":52.76852599970319,"lon":12.81702599997505,"name":"RA A24 km 222,045 Ri. Dreieck Havelland (A24)","city":"","category":"other","tags":["autobahn","a24"],"operator":"Autobahn GmbH","hours":{"type":"unknown"}},{"id":"autobahn_DE-BB-324301","lat":52.75490899968539,"lon":12.8543179999706,"name":"Linumer Bruch N (A24)","city":"","category":"tankstelle","tags":["autobahn","a24","toilette","tankstelle","raststätte","dusche"],"operator":"Tank & Rast","hours":{"type":"unknown"}},{"id":"autobahn_DE-BB-324304","lat":52.72721999964254,"lon":12.937415999958908,"name":"RA A24 km 231,526 Ri. Hamburg (A24)","city":"","category":"other","tags":["autobahn","a24"],"operator":"Autobahn GmbH","hours":{"type":"unknown"}},{"id":"autobahn_DE-BB-324303","lat":52.72859599964475,"lon":12.93333899995954,"name":"RA A24 km 231,194 Ri. Dreieck Havelland (A24)","city":"","category":"other","tags":["autobahn","a24"],"operator":"Autobahn GmbH","hours":{"type":"unknown"}},{"id":"autobahn_DE-BB-324302","lat":52.75293599968563,"lon":12.853824999970694,"name":"Linumer Bruch S (A24)","city":"","category":"tankstelle","tags":["autobahn","a24","toilette","tankstelle","raststätte","dusche"],"operator":"Tank & Rast","hours":{"type":"unknown"}},{"id":"sanifair_node_769370738","lat":52.9506105,"lon":12.6592809,"name":"Sanifair WC","city":"","category":"station","tags":["sanifair","barrierefrei","kostenpflichtig"],"operator":"SANIFAIR GmbH","fee":"yes","hours":{"type":"unknown"}},{"id":"sanifair_node_778116276","lat":52.7532209,"lon":12.853,"name":"Sanifair WC","city":"","category":"station","tags":["sanifair","barrierefrei","kostenpflichtig"],"operator":"SANIFAIR GmbH","fee":"yes","hours":{"type":"unknown"}},{"id":"sanifair_node_2468499194","lat":52.9516186,"lon":12.6583977,"name":"Sanifair WC","city":"","category":"station","tags":["sanifair","barrierefrei","kostenpflichtig"],"operator":"Sanifair","fee":"yes","hours":{"type":"unknown"}},{"id":"sanifair_node_5894690641","lat":52.252125,"lon":12.3066379,"name":"Sanifair WC","city":"","category":"station","tags":["sanifair","barrierefrei","kostenpflichtig"],"opening_hours":"24/7","operator":"SANIFAIR GmbH","fee":"yes","hours":{"type":"24_7"}},{"id":"sanifair_node_5894691301","lat":52.2505773,"lon":12.3101835,"name":"Sanifair WC","city":"","category":"station","tags":["sanifair","barrierefrei","kostenpflichtig"],"operator":"SANIFAIR GmbH","fee":"yes","hours":{"type":"unknown"}},{"id":"sanifair_node_5894722110","lat":52.1328823,"lon":12.7511705,"name":"Sanifair WC","city":"","category":"station","tags":["sanifair","barrierefrei","kostenpflichtig"],"operator":"SANIFAIR GmbH","fee":"yes","hours":{"type":"unknown"}},{"id":"gplace_ChIJYR3G-pbBqEcR5gPZiZf68dk","lat":52.406340199999995,"lon":12.538488500000001,"name":"REWE Center Karen Laute","city":"Brandenburg an der Havel","category":"other","tags":["barrierefrei","google_wc_accessible"],"hours":{"type":"unknown"}},{"id":"gplace_ChIJOX2RduzAqEcR12ThzutytQs","lat":52.4051255,"lon":12.5319179,"name":"METRO GASTRO Brandenburg","city":"Brandenburg an der Havel","category":"other","tags":["barrierefrei","google_wc_accessible"],"hours":{"type":"unknown"}},{"id":"gplace_ChIJmymwXZfBqEcRMM2aU3kXQP4","lat":52.410489899999995,"lon":12.5246356,"name":"Kebaphaus DELUXE","city":"Brandenburg an der Havel","category":"gastro","tags":["barrierefrei","google_entrance_accessible"],"hours":{"type":"unknown"}},{"id":"gplace_ChIJ-1bqlPjBqEcRdKcx5B3RLQY","lat":52.405424499999995,"lon":12.543544599999999,"name":"Restaurant Casa Bianca","city":"Brandenburg an der Havel","category":"gastro","tags":["barrierefrei","google_entrance_accessible"],"hours":{"type":"unknown"}},{"id":"gplace_ChIJ_5tpiGLBqEcRkHS2LfxDm8Y","lat":52.4049443,"lon":12.5410694,"name":"Trattoria Isola di Capri","city":"Brandenburg an der Havel","category":"gastro","tags":["barrierefrei","google_wc_accessible"],"hours":{"type":"unknown"}},{"id":"gplace_ChIJZ0CQgMTAqEcRHkAMFcYE21o","lat":52.4112887,"lon":12.518193,"name":"EuroGrill","city":"Brandenburg an der Havel","category":"gastro","tags":["barrierefrei","google_entrance_accessible"],"hours":{"type":"unknown"}},{"id":"gplace_ChIJR4SyX8TAqEcRyP1FW8S2vCs","lat":52.409918499999996,"lon":12.5173059,"name":"Einheit","city":"Brandenburg an der Havel","category":"gastro","tags":["barrierefrei","google_entrance_accessible"],"hours":{"type":"unknown"}},{"id":"gplace_ChIJ4as_C1_AqEcRKfoOrrKVV7U","lat":52.402193,"lon":12.5542567,"name":"Branden-BURGER","city":"Brandenburg an der Havel","category":"gastro","tags":["google_has_restroom"],"hours":{"type":"unknown"}},{"id":"gplace_ChIJAdBcBYzAqEcR7tO1oj0T70k","lat":52.395911399999996,"lon":12.5417028,"name":"Bienenkorb","city":"Brandenburg an der Havel","category":"gastro","tags":["barrierefrei","google_entrance_accessible"],"hours":{"type":"unknown"}},{"id":"gplace_ChIJgTNVEV_AqEcRifvfnMxtpK0","lat":52.4028032,"lon":12.555138399999999,"name":"Jacobs Corner","city":"Brandenburg an der Havel","category":"gastro","tags":["google_has_restroom"],"hours":{"type":"unknown"}},{"id":"gplace_ChIJvbMXybbBqEcRTS_CV08PfRg","lat":52.401806500000006,"lon":12.5524615,"name":"Si Waxing, Kosmetik &Yoga","city":"Brandenburg an der Havel","category":"other","tags":["google_has_restroom"],"hours":{"type":"unknown"}},{"id":"gplace_ChIJwWObpl_AqEcRZUl_tFAza3o","lat":52.401602499999996,"lon":12.554561200000002,"name":"Gaststätte \"Drei Raben\"","city":"Brandenburg an der Havel","category":"gastro","tags":["google_has_restroom"],"hours":{"type":"unknown"}},{"id":"gplace_ChIJy85UQADBqEcRWLV3GBrlpiE","lat":52.389443,"lon":12.5336936,"name":"Papa’s Reis","city":"Brandenburg an der Havel","category":"gastro","tags":["google_has_restroom"],"hours":{"type":"unknown"}},{"id":"gplace_ChIJs-DWJ_HAqEcRF4AjnZxlTxw","lat":52.4078484,"lon":12.546567399999999,"name":"REWE Emil Möbus","city":"Brandenburg an der Havel","category":"other","tags":["barrierefrei","google_wc_accessible"],"hours":{"type":"unknown"}},{"id":"gplace_ChIJM3nZVEDBqEcR68VvSDodC_U","lat":52.4140995,"lon":12.554023899999999,"name":"Ratskeller","city":"Brandenburg an der Havel","category":"gastro","tags":["barrierefrei","google_entrance_accessible"],"hours":{"type":"unknown"}},{"id":"gplace_ChIJS-Ab2VjAqEcRX76ar1jPtQk","lat":52.40509970000001,"lon":12.557270599999999,"name":"Fitness Point Brandenburg GmbH","city":"Brandenburg an der Havel","category":"other","tags":["google_has_restroom"],"hours":{"type":"unknown"}},{"id":"gplace_ChIJM7VfD_DBqEcRxauFZZo-bFU","lat":52.411768599999995,"lon":12.555478899999999,"name":"bohnarchie - Rösterei & Café","city":"Brandenburg an der Havel","category":"gastro","tags":["barrierefrei","google_wc_accessible"],"hours":{"type":"unknown"}},{"id":"gplace_ChIJsVlB7PnAqEcRRUbisVROPqI","lat":52.4115624,"lon":12.549707,"name":"Asia Cuisine und Sushi Bar","city":"Brandenburg an der Havel","category":"gastro","tags":["barrierefrei","google_wc_accessible"],"hours":{"type":"unknown"}},{"id":"gplace_ChIJgcpJnf7AqEcRf9MejIlEvxw","lat":52.4176225,"lon":12.5521762,"name":"clever fit Brandenburg","city":"Brandenburg an der Havel","category":"other","tags":["barrierefrei","google_entrance_accessible"],"hours":{"type":"unknown"}},{"id":"gplace_ChIJRchKbFjAqEcR1IoDnOR5bFQ","lat":52.4081611,"lon":12.55618,"name":"Restaurant Theaterklause","city":"Brandenburg an der Havel","category":"gastro","tags":["google_has_restroom"],"hours":{"type":"unknown"}},{"id":"gplace_ChIJSVK-iFfAqEcRlKBeoIkGVJY","lat":52.4101503,"lon":12.558914999999999,"name":"Schweineschnäuzchen","city":"Brandenburg an der Havel","category":"gastro","tags":["google_has_restroom"],"hours":{"type":"unknown"}},{"id":"gplace_ChIJk_7Va_3BqEcRBsFAPcSu2_c","lat":52.413056499999996,"lon":12.552878699999999,"name":"Rice & Spice","city":"Brandenburg an der Havel","category":"gastro","tags":["barrierefrei","google_wc_accessible"],"hours":{"type":"unknown"}},{"id":"gplace_ChIJP2T3ZhDBqEcRQ04xu4VdhD8","lat":52.4322222,"lon":12.548611099999999,"name":"Beetzsee Center","city":"Brandenburg an der Havel","category":"other","tags":["barrierefrei","google_wc_accessible"],"hours":{"type":"unknown"}},{"id":"gplace_ChIJL3-hxQPBqEcRoA3KywQCyGw","lat":52.4243831,"lon":12.553813900000002,"name":"Stadtmarina Brandenburg Boote & Camping","city":"Brandenburg an der Havel","category":"gastro","tags":["barrierefrei","google_wc_accessible"],"hours":{"type":"unknown"}},{"id":"gplace_ChIJOckXHgDBqEcRvLOgSw7Z7pY","lat":52.4220154,"lon":12.556246,"name":"KYUSHU ASIACUISINE&SUSHI","city":"Brandenburg an der Havel","category":"gastro","tags":["barrierefrei","google_entrance_accessible"],"hours":{"type":"unknown"}},{"id":"gplace_ChIJURo02yDBqEcRRyk_DzcvaW0","lat":52.425919400000005,"lon":12.5264587,"name":"Mati Brandenburg","city":"Brandenburg an der Havel","category":"gastro","tags":["barrierefrei","google_wc_accessible"],"hours":{"type":"unknown"}},{"id":"gplace_ChIJs4ye8YvBqEcRDyeLre_2XTA","lat":52.4222946,"lon":12.5330496,"name":"TwentyOne - 21 Fitness","city":"Brandenburg an der Havel","category":"other","tags":["barrierefrei","google_wc_accessible"],"hours":{"type":"unknown"}},{"id":"gplace_ChIJIeyhFFzAqEcROpH8wyo4fIo","lat":52.4027897,"lon":12.561944599999999,"name":"Tandoori Tonight","city":"Brandenburg an der Havel","category":"gastro","tags":["barrierefrei","google_entrance_accessible","google_has_restroom"],"hours":{"type":"unknown"}},{"id":"gplace_ChIJX9r-ycjBqEcRG4-UH80n1SU","lat":52.4008569,"lon":12.566217,"name":"Kebap Haus","city":"Brandenburg an der Havel","category":"gastro","tags":["barrierefrei","google_entrance_accessible"],"hours":{"type":"unknown"}},{"id":"gplace_ChIJoSV8dFrAqEcRZRBfYaR9wuM","lat":52.4085709,"lon":12.564923499999999,"name":"Sankt-Annen-Galerie","city":"Brandenburg an der Havel","category":"other","tags":["barrierefrei","google_wc_accessible"],"hours":{"type":"unknown"}},{"id":"gplace_ChIJM0BwJERWqEcRZSRZiVj73nA","lat":52.410801,"lon":12.565431,"name":"Restaurant an der Dominsel","city":"Brandenburg an der Havel","category":"gastro","tags":["barrierefrei","google_entrance_accessible"],"hours":{"type":"unknown"}},{"id":"gplace_ChIJaaf8mVnAqEcRG3iCDyHIXWA","lat":52.4072992,"lon":12.5608547,"name":"Kartoffelkäfer","city":"Brandenburg an der Havel","category":"gastro","tags":["barrierefrei","google_wc_accessible"],"hours":{"type":"unknown"}},{"id":"gplace_ChIJAwpsXVfAqEcRFhT3sq3Nxcg","lat":52.4098924,"lon":12.5617944,"name":"Herzschlag Brandenburg","city":"Brandenburg an der Havel","category":"gastro","tags":["google_has_restroom"],"hours":{"type":"unknown"}},{"id":"gplace_ChIJzQpLouLBqEcRGleeGVuQItA","lat":52.4114933,"lon":12.5650901,"name":"Restaurant Weidelounge / Teeladen Brandenburg","city":"Brandenburg an der Havel","category":"gastro","tags":["google_has_restroom"],"hours":{"type":"unknown"}},{"id":"gplace_ChIJU8ZP0lrAqEcR4TUH7DZzqac","lat":52.4065231,"lon":12.5682642,"name":"Malabar Restaurant","city":"Brandenburg an der Havel","category":"gastro","tags":["barrierefrei","google_wc_accessible","google_has_restroom"],"hours":{"type":"unknown"}},{"id":"gplace_ChIJe9rkDifBqEcRidtx-Gcbbdc","lat":52.4063538,"lon":12.5623658,"name":"Café Pauline","city":"Brandenburg an der Havel","category":"gastro","tags":["barrierefrei","google_wc_accessible"],"hours":{"type":"unknown"}},{"id":"gplace_ChIJ1e5lYVfAqEcRNeXiIXz-xhY","lat":52.409575499999995,"lon":12.561109,"name":"Kaffeekännchen","city":"Brandenburg an der Havel","category":"gastro","tags":["google_has_restroom"],"hours":{"type":"unknown"}},{"id":"gplace_ChIJa4H3xAfBqEcRHFpViVbmhw8","lat":52.429903200000005,"lon":12.5627151,"name":"Restaurant Mesogios","city":"Brandenburg an der Havel","category":"gastro","tags":["barrierefrei","google_entrance_accessible"],"hours":{"type":"unknown"}},{"id":"gplace_ChIJ9U5T37vBqEcRMwsbcWTBBmM","lat":52.412715999999996,"lon":12.5621774,"name":"Gaststätte \"Zum Bootshaus\"","city":"Brandenburg an der Havel","category":"gastro","tags":["google_has_restroom"],"hours":{"type":"unknown"}},{"id":"gplace_ChIJ0bRU4VXAqEcR8O_3Ww6KGkE","lat":52.415224099999996,"lon":12.5597269,"name":"Gaststätte Zur Insel","city":"Brandenburg an der Havel","category":"gastro","tags":["google_has_restroom"],"hours":{"type":"unknown"}},{"id":"gplace_ChIJqd6CVvjAqEcRbkcoS-wE4DI","lat":52.412606399999994,"lon":12.553663799999999,"name":"Altstadt Pub","city":"Brandenburg an der Havel","category":"gastro","tags":["google_has_restroom"],"hours":{"type":"unknown"}},{"id":"gplace_ChIJ_Ws6BFvAqEcRpPqAGzQU78k","lat":52.4056473,"lon":12.5658316,"name":"Turbine Brandenburg","city":"Brandenburg an der Havel","category":"gastro","tags":["barrierefrei","google_wc_accessible"],"hours":{"type":"unknown"}},{"id":"gplace_ChIJEZZa2R_BqEcR2VZH0Z_HJRo","lat":52.4037528,"lon":12.5589058,"name":"Alte Kastanie Imbiss","city":"Brandenburg an der Havel","category":"gastro","tags":["barrierefrei","google_entrance_accessible"],"hours":{"type":"unknown"}},{"id":"gplace_ChIJ7VYV-kjHqEcRLgz-UEoLWYM","lat":52.405693,"lon":12.566977999999999,"name":"Kampfkunstschule Michael Hagemann","city":"Brandenburg an der Havel","category":"other","tags":["google_has_restroom"],"hours":{"type":"unknown"}},{"id":"gplace_ChIJSwuc0VjAqEcRC2-d-y3elsA","lat":52.4015553,"lon":12.5649344,"name":"BODYSTREET | EMS Training Brandenburg Gesundheitszentrum","city":"Brandenburg an der Havel","category":"other","tags":["google_has_restroom"],"hours":{"type":"unknown"}},{"id":"gplace_ChIJaSZFVVzAqEcRfI108d6cICs","lat":52.401044899999995,"lon":12.5630907,"name":"Bailaro Entertainment Fitness","city":"Brandenburg an der Havel","category":"other","tags":["google_has_restroom"],"hours":{"type":"unknown"}},{"id":"gplace_ChIJNxiT91PAqEcRC-S3H1FGyt4","lat":52.4149678,"lon":12.566339699999999,"name":"Restaurant Remise","city":"Brandenburg an der Havel","category":"gastro","tags":["barrierefrei","google_wc_accessible"],"hours":{"type":"unknown"}},{"id":"gplace_ChIJ33FNRv7AqEcRDjVHxfI7QjA","lat":52.419864499999996,"lon":12.554815999999999,"name":"Gaststätte zum Elfmeter","city":"Brandenburg an der Havel","category":"gastro","tags":["barrierefrei","google_entrance_accessible"],"hours":{"type":"unknown"}},{"id":"gplace_ChIJc5YZH1XAqEcRfOi7YFELvy0","lat":52.41843,"lon":12.563229999999999,"name":"Schifferstübchen","city":"Brandenburg an der Havel","category":"gastro","tags":["google_has_restroom"],"hours":{"type":"unknown"}},{"id":"gplace_ChIJq_ptyErBqEcRWVkYCKrlxhg","lat":52.4253637,"lon":12.5800129,"name":"Zum Appelboom","city":"Brandenburg an der Havel","category":"gastro","tags":["google_has_restroom"],"hours":{"type":"unknown"}},{"id":"gplace_ChIJtXvMNP7AqEcR7pfnUsVd0as","lat":52.4194943,"lon":12.5564936,"name":"Zur Erbse","city":"Brandenburg an der Havel","category":"gastro","tags":["google_has_restroom"],"hours":{"type":"unknown"}},{"id":"gplace_ChIJIRDylVDAqEcR8qHqAjt1vJY","lat":52.409915,"lon":12.565565699999999,"name":"Steakhaus El Gaucho","city":"Brandenburg an der Havel","category":"gastro","tags":["google_has_restroom"],"hours":{"type":"unknown"}},{"id":"gplace_ChIJSef-ZyHBqEcRvDiyoU96zSY","lat":52.4049232,"lon":12.5689829,"name":"CreateX UG (haftungsbeschränkt)","city":"Brandenburg an der Havel","category":"other","tags":["google_has_restroom"],"hours":{"type":"unknown"}}]