[{"id":"fuel_26656813","lat":49.8469312,"lon":10.4260393,"name":"Freie Tankstelle","city":"","category":"tankstelle","tags":[],"opening_hours":"Mo-Fr 08:00-18:00; Sa 08:00-15:00; PH off","operator":"Andrea Loos","hours":{"type":"weekly","weekly":{"0":{"isOpen":false,"periods":[]},"1":{"isOpen":true,"periods":[{"open":480,"close":1080}]},"2":{"isOpen":true,"periods":[{"open":480,"close":1080}]},"3":{"isOpen":true,"periods":[{"open":480,"close":1080}]},"4":{"isOpen":true,"periods":[{"open":480,"close":1080}]},"5":{"isOpen":true,"periods":[{"open":480,"close":1080}]},"6":{"isOpen":true,"periods":[{"open":480,"close":900}]}},"original":"Mo-Fr 08:00-18:00; Sa 08:00-15:00; PH off"}},{"id":"fuel_30227665","lat":49.5721546,"lon":10.8733718,"name":"ELO","city":"Herzogenaurach","category":"other","tags":[],"opening_hours":"Mo-Fr 07:00-20:00, Sa 07:00-17:00; PH off","operator":"ELO Mineralöl KG","hours":{"type":"weekly","weekly":{"0":{"isOpen":false,"periods":[]},"1":{"isOpen":true,"periods":[{"open":420,"close":1200},{"open":420,"close":1020}]},"2":{"isOpen":true,"periods":[{"open":420,"close":1200},{"open":420,"close":1020}]},"3":{"isOpen":true,"periods":[{"open":420,"close":1200},{"open":420,"close":1020}]},"4":{"isOpen":true,"periods":[{"open":420,"close":1200},{"open":420,"close":1020}]},"5":{"isOpen":true,"periods":[{"open":420,"close":1200},{"open":420,"close":1020}]},"6":{"isOpen":false,"periods":[]}},"original":"Mo-Fr 07:00-20:00, Sa 07:00-17:00; PH off"}},{"id":"fuel_31766739","lat":49.7038589,"lon":10.8813575,"name":"Aral Adelsdorf","city":"Adelsdorf","category":"tankstelle","tags":[],"opening_hours":"Mo-Su 06:00-22:00","operator":"Udo Wiechers","hours":{"type":"weekly","weekly":{"0":{"isOpen":true,"periods":[{"open":360,"close":1320}]},"1":{"isOpen":true,"periods":[{"open":360,"close":1320}]},"2":{"isOpen":true,"periods":[{"open":360,"close":1320}]},"3":{"isOpen":true,"periods":[{"open":360,"close":1320}]},"4":{"isOpen":true,"periods":[{"open":360,"close":1320}]},"5":{"isOpen":true,"periods":[{"open":360,"close":1320}]},"6":{"isOpen":true,"periods":[{"open":360,"close":1320}]}},"original":"Mo-Su 06:00-22:00"}},{"id":"fuel_66565863","lat":49.738711,"lon":10.1515687,"name":"Esso","city":"","category":"tankstelle","tags":[],"opening_hours":"Mo-Sa 05:30-23:00; Su 06:00-23:00","operator":"Esso","hours":{"type":"weekly","weekly":{"0":{"isOpen":true,"periods":[{"open":360,"close":1380}]},"1":{"isOpen":true,"periods":[{"open":330,"close":1380}]},"2":{"isOpen":true,"periods":[{"open":330,"close":1380}]},"3":{"isOpen":true,"periods":[{"open":330,"close":1380}]},"4":{"isOpen":true,"periods":[{"open":330,"close":1380}]},"5":{"isOpen":true,"periods":[{"open":330,"close":1380}]},"6":{"isOpen":true,"periods":[{"open":330,"close":1380}]}},"original":"Mo-Sa 05:30-23:00; Su 06:00-23:00"}},{"id":"fuel_72824364","lat":49.5819281,"lon":10.6018024,"name":"Agip","city":"","category":"tankstelle","tags":[],"opening_hours":"Mo-Fr 05:00-23:00; Sa 07:00-23:00; Su 08:00-23:00","operator":"Agip","hours":{"type":"weekly","weekly":{"0":{"isOpen":true,"periods":[{"open":480,"close":1380}]},"1":{"isOpen":true,"periods":[{"open":300,"close":1380}]},"2":{"isOpen":true,"periods":[{"open":300,"close":1380}]},"3":{"isOpen":true,"periods":[{"open":300,"close":1380}]},"4":{"isOpen":true,"periods":[{"open":300,"close":1380}]},"5":{"isOpen":true,"periods":[{"open":300,"close":1380}]},"6":{"isOpen":true,"periods":[{"open":420,"close":1380}]}},"original":"Mo-Fr 05:00-23:00; Sa 07:00-23:00; Su 08:00-23:00"}},{"id":"fuel_72824416","lat":49.6690714,"lon":10.7198789,"name":"Avia","city":"","category":"tankstelle","tags":[],"opening_hours":"24/7","operator":"Avia","hours":{"type":"24_7"}},{"id":"fuel_137436490","lat":49.3406951,"lon":10.7955001,"name":"Avia","city":"Heilsbronn","category":"tankstelle","tags":[],"opening_hours":"Mo-Fr 05:00-22:00; Sa 06:30-22:00; Su 08:00-22:00","operator":"Rödl energie","hours":{"type":"weekly","weekly":{"0":{"isOpen":true,"periods":[{"open":480,"close":1320}]},"1":{"isOpen":true,"periods":[{"open":300,"close":1320}]},"2":{"isOpen":true,"periods":[{"open":300,"close":1320}]},"3":{"isOpen":true,"periods":[{"open":300,"close":1320}]},"4":{"isOpen":true,"periods":[{"open":300,"close":1320}]},"5":{"isOpen":true,"periods":[{"open":300,"close":1320}]},"6":{"isOpen":true,"periods":[{"open":390,"close":1320}]}},"original":"Mo-Fr 05:00-22:00; Sa 06:30-22:00; Su 08:00-22:00"}},{"id":"fuel_189479371","lat":49.582534,"lon":10.9939551,"name":"Esso","city":"Erlangen","category":"tankstelle","tags":["barrierefrei","google_wc_accessible"],"opening_hours":"24/7","operator":"Esso","hours":{"type":"24_7"}},{"id":"fuel_251734046","lat":49.445728,"lon":10.9937712,"name":"OIL! Tank & Go","city":"","category":"tankstelle","tags":[],"opening_hours":"24/7","operator":"OIL! Tankstellen GmbH & Co. KG","hours":{"type":"24_7"}},{"id":"fuel_253971078","lat":49.9843315,"lon":10.1014035,"name":"Esso","city":"","category":"tankstelle","tags":[],"operator":"Hart Guenther","opening_hours":"Su 10:00-20:00; Mo 08:00-20:00; Tu 08:00-20:00; We 08:00-20:00; Th 08:00-20:00; Fr 08:00-20:00; Sa 08:30-20:00","gplace_id":"ChIJqZCvJefzokcRA3fx9udmVmA","hours":{"type":"weekly","weekly":{"0":{"isOpen":true,"periods":[{"open":600,"close":1200}]},"1":{"isOpen":true,"periods":[{"open":480,"close":1200}]},"2":{"isOpen":true,"periods":[{"open":480,"close":1200}]},"3":{"isOpen":true,"periods":[{"open":480,"close":1200}]},"4":{"isOpen":true,"periods":[{"open":480,"close":1200}]},"5":{"isOpen":true,"periods":[{"open":480,"close":1200}]},"6":{"isOpen":true,"periods":[{"open":510,"close":1200}]}},"original":"Su 10:00-20:00; Mo 08:00-20:00; Tu 08:00-20:00; We 08:00-20:00; Th 08:00-20:00; Fr 08:00-20:00; Sa 08:30-20:00"}},{"id":"fuel_256093318","lat":49.9175756,"lon":10.8903917,"name":"Tankpool 24","city":"","category":"other","tags":[],"opening_hours":"24/7","operator":"Independent","hours":{"type":"24_7"}},{"id":"fuel_257789635","lat":49.2577405,"lon":10.6150116,"name":"Geiger","city":"","category":"other","tags":[],"operator":"Independent","opening_hours":"Su 00:00+","gplace_id":"ChIJoXlEx2O3mEcRruvJQ5BinAs","hours":{"type":"unknown","original":"Su 00:00+"}},{"id":"fuel_264120956","lat":49.8976941,"lon":10.0671039,"name":"Aral","city":"","category":"tankstelle","tags":[],"opening_hours":"Mo-Fr 06:30-20:00;Sa 07:00-20:00;Su 08:00-18:00","operator":"Aral","hours":{"type":"weekly","weekly":{"0":{"isOpen":true,"periods":[{"open":480,"close":1080}]},"1":{"isOpen":true,"periods":[{"open":390,"close":1200}]},"2":{"isOpen":true,"periods":[{"open":390,"close":1200}]},"3":{"isOpen":true,"periods":[{"open":390,"close":1200}]},"4":{"isOpen":true,"periods":[{"open":390,"close":1200}]},"5":{"isOpen":true,"periods":[{"open":390,"close":1200}]},"6":{"isOpen":true,"periods":[{"open":420,"close":1200}]}},"original":"Mo-Fr 06:30-20:00;Sa 07:00-20:00;Su 08:00-18:00"}},{"id":"fuel_269366849","lat":49.7510044,"lon":10.7212854,"name":"Murk","city":"","category":"other","tags":[],"opening_hours":"Mo-Sa 09:00-18:00","operator":"Murk","hours":{"type":"weekly","weekly":{"0":{"isOpen":false,"periods":[]},"1":{"isOpen":true,"periods":[{"open":540,"close":1080}]},"2":{"isOpen":true,"periods":[{"open":540,"close":1080}]},"3":{"isOpen":true,"periods":[{"open":540,"close":1080}]},"4":{"isOpen":true,"periods":[{"open":540,"close":1080}]},"5":{"isOpen":true,"periods":[{"open":540,"close":1080}]},"6":{"isOpen":true,"periods":[{"open":540,"close":1080}]}},"original":"Mo-Sa 09:00-18:00"}},{"id":"fuel_273108156","lat":49.2628325,"lon":10.5845644,"name":"Esso","city":"","category":"tankstelle","tags":[],"operator":"Esso","opening_hours":"Su 00:00+","gplace_id":"ChIJD06lQ7-5mEcRWOWvI6ANVbU","hours":{"type":"unknown","original":"Su 00:00+"}},{"id":"fuel_273372815","lat":49.2587404,"lon":10.5019586,"name":"ARAL","city":"Herrieden","category":"tankstelle","tags":[],"opening_hours":"24/7","operator":"Aral","hours":{"type":"24_7"}},{"id":"fuel_287087875","lat":49.4941293,"lon":10.817441,"name":"OMV","city":"","category":"tankstelle","tags":[],"opening_hours":"Mo-Su 05:00-24:00","operator":"OMV","hours":{"type":"weekly","weekly":{"0":{"isOpen":true,"periods":[{"open":300,"close":1440}]},"1":{"isOpen":true,"periods":[{"open":300,"close":1440}]},"2":{"isOpen":true,"periods":[{"open":300,"close":1440}]},"3":{"isOpen":true,"periods":[{"open":300,"close":1440}]},"4":{"isOpen":true,"periods":[{"open":300,"close":1440}]},"5":{"isOpen":true,"periods":[{"open":300,"close":1440}]},"6":{"isOpen":true,"periods":[{"open":300,"close":1440}]}},"original":"Mo-Su 05:00-24:00"}},{"id":"fuel_287115277","lat":49.7410498,"lon":10.1815913,"name":"Tankstelle","city":"Kitzingen","category":"tankstelle","tags":[],"opening_hours":"24/7","operator":"KW Erdgas","hours":{"type":"24_7"}},{"id":"fuel_290259726","lat":49.7064308,"lon":10.8088752,"name":"Shell","city":"","category":"tankstelle","tags":[],"operator":"Shell","opening_hours":"Su 06:00-22:00; Mo 06:00-22:00; Tu 06:00-22:00; We 06:00-22:00; Th 06:00-22:00; Fr 06:00-22:00; Sa 06:00-22:00","gplace_id":"ChIJ9fXR2ZIaokcR9H3cSs-U5qw","hours":{"type":"weekly","weekly":{"0":{"isOpen":true,"periods":[{"open":360,"close":1320}]},"1":{"isOpen":true,"periods":[{"open":360,"close":1320}]},"2":{"isOpen":true,"periods":[{"open":360,"close":1320}]},"3":{"isOpen":true,"periods":[{"open":360,"close":1320}]},"4":{"isOpen":true,"periods":[{"open":360,"close":1320}]},"5":{"isOpen":true,"periods":[{"open":360,"close":1320}]},"6":{"isOpen":true,"periods":[{"open":360,"close":1320}]}},"original":"Su 06:00-22:00; Mo 06:00-22:00; Tu 06:00-22:00; We 06:00-22:00; Th 06:00-22:00; Fr 06:00-22:00; Sa 06:00-22:00"}},{"id":"fuel_291205210","lat":49.5042809,"lon":10.8936794,"name":"Esso","city":"","category":"tankstelle","tags":[],"opening_hours":"Mo-Sa 06:00-22:00; Su 07:00-22:00","operator":"Marco Scholz","hours":{"type":"weekly","weekly":{"0":{"isOpen":true,"periods":[{"open":420,"close":1320}]},"1":{"isOpen":true,"periods":[{"open":360,"close":1320}]},"2":{"isOpen":true,"periods":[{"open":360,"close":1320}]},"3":{"isOpen":true,"periods":[{"open":360,"close":1320}]},"4":{"isOpen":true,"periods":[{"open":360,"close":1320}]},"5":{"isOpen":true,"periods":[{"open":360,"close":1320}]},"6":{"isOpen":true,"periods":[{"open":360,"close":1320}]}},"original":"Mo-Sa 06:00-22:00; Su 07:00-22:00"}},{"id":"fuel_291614930","lat":49.4853937,"lon":10.7813181,"name":"ELO","city":"Langenzenn","category":"other","tags":[],"opening_hours":"Mo-Fr 06:00-19:00; Sa 08:00-18:00; Su,PH off","operator":"ELO Mineralöl KG","hours":{"type":"weekly","weekly":{"0":{"isOpen":false,"periods":[]},"1":{"isOpen":true,"periods":[{"open":360,"close":1140}]},"2":{"isOpen":true,"periods":[{"open":360,"close":1140}]},"3":{"isOpen":true,"periods":[{"open":360,"close":1140}]},"4":{"isOpen":true,"periods":[{"open":360,"close":1140}]},"5":{"isOpen":true,"periods":[{"open":360,"close":1140}]},"6":{"isOpen":true,"periods":[{"open":480,"close":1080}]}},"original":"Mo-Fr 06:00-19:00; Sa 08:00-18:00; Su,PH off"}},{"id":"fuel_293573941","lat":49.126623,"lon":10.7492407,"name":"OIL!","city":"","category":"tankstelle","tags":[],"opening_hours":"Mo-Fr 06:00-22:00; Sa 07:00-22:00; Su 08:00-22:00","operator":"Walter Billi","hours":{"type":"weekly","weekly":{"0":{"isOpen":true,"periods":[{"open":480,"close":1320}]},"1":{"isOpen":true,"periods":[{"open":360,"close":1320}]},"2":{"isOpen":true,"periods":[{"open":360,"close":1320}]},"3":{"isOpen":true,"periods":[{"open":360,"close":1320}]},"4":{"isOpen":true,"periods":[{"open":360,"close":1320}]},"5":{"isOpen":true,"periods":[{"open":360,"close":1320}]},"6":{"isOpen":true,"periods":[{"open":420,"close":1320}]}},"original":"Mo-Fr 06:00-22:00; Sa 07:00-22:00; Su 08:00-22:00"}},{"id":"fuel_293770925","lat":49.7708332,"lon":10.3401113,"name":"Esso","city":"Rüdenhausen","category":"tankstelle","tags":[],"operator":"Esso","opening_hours":"Su 00:00+","gplace_id":"ChIJw3W5maNlokcRHNyjLF9-SkM","hours":{"type":"unknown","original":"Su 00:00+"}},{"id":"fuel_295532314","lat":49.1984312,"lon":10.7019265,"name":"Aral","city":"Merkendorf","category":"tankstelle","tags":[],"operator":"Heidingsfelder Klaus","opening_hours":"Su 08:00-20:00; Mo 06:00-20:00; Tu 06:00-20:00; We 06:00-20:00; Th 06:00-20:00; Fr 06:00-20:00; Sa 07:00-20:00","gplace_id":"ChIJpUwxSvm1mEcRk6oITImdaJY","hours":{"type":"weekly","weekly":{"0":{"isOpen":true,"periods":[{"open":480,"close":1200}]},"1":{"isOpen":true,"periods":[{"open":360,"close":1200}]},"2":{"isOpen":true,"periods":[{"open":360,"close":1200}]},"3":{"isOpen":true,"periods":[{"open":360,"close":1200}]},"4":{"isOpen":true,"periods":[{"open":360,"close":1200}]},"5":{"isOpen":true,"periods":[{"open":360,"close":1200}]},"6":{"isOpen":true,"periods":[{"open":420,"close":1200}]}},"original":"Su 08:00-20:00; Mo 06:00-20:00; Tu 06:00-20:00; We 06:00-20:00; Th 06:00-20:00; Fr 06:00-20:00; Sa 07:00-20:00"}},{"id":"fuel_295935453","lat":49.1712004,"lon":10.2417227,"name":"Aral","city":"Schnelldorf","category":"tankstelle","tags":["sanifair","barrierefrei","kostenpflichtig"],"opening_hours":"24/7","operator":"Aral","hours":{"type":"24_7"},"fee":"yes"},{"id":"fuel_298045473","lat":49.7865464,"lon":10.3402351,"name":"Esso","city":"Wiesentheid","category":"tankstelle","tags":[],"opening_hours":"Mo-Sa 05:00-22:00; Su 08:00-22:00; PH 08:00-22:00","operator":"Esso","hours":{"type":"weekly","weekly":{"0":{"isOpen":true,"periods":[{"open":480,"close":1320}]},"1":{"isOpen":true,"periods":[{"open":300,"close":1320}]},"2":{"isOpen":true,"periods":[{"open":300,"close":1320}]},"3":{"isOpen":true,"periods":[{"open":300,"close":1320}]},"4":{"isOpen":true,"periods":[{"open":300,"close":1320}]},"5":{"isOpen":true,"periods":[{"open":300,"close":1320}]},"6":{"isOpen":true,"periods":[{"open":300,"close":1320}]}},"original":"Mo-Sa 05:00-22:00; Su 08:00-22:00; PH 08:00-22:00"}},{"id":"fuel_298064338","lat":49.9965827,"lon":10.4965211,"name":"Tankstelle","city":"","category":"tankstelle","tags":[],"gplace_id":"not_found","hours":{"type":"unknown"}},{"id":"fuel_298115969","lat":49.772847,"lon":10.4765661,"name":"Walther","city":"Geiselwind","category":"other","tags":[],"opening_hours":"24/7","operator":"Erik Walther GmbH & Co. KG","hours":{"type":"24_7"}},{"id":"fuel_298388614","lat":49.5469112,"lon":10.2270544,"name":"ARAL","city":"","category":"tankstelle","tags":[],"opening_hours":"Mo-Sa 07:00-21:00; Su 09:00-21:00","operator":"Stephan Windhagen","hours":{"type":"weekly","weekly":{"0":{"isOpen":true,"periods":[{"open":540,"close":1260}]},"1":{"isOpen":true,"periods":[{"open":420,"close":1260}]},"2":{"isOpen":true,"periods":[{"open":420,"close":1260}]},"3":{"isOpen":true,"periods":[{"open":420,"close":1260}]},"4":{"isOpen":true,"periods":[{"open":420,"close":1260}]},"5":{"isOpen":true,"periods":[{"open":420,"close":1260}]},"6":{"isOpen":true,"periods":[{"open":420,"close":1260}]}},"original":"Mo-Sa 07:00-21:00; Su 09:00-21:00"}},{"id":"fuel_298418215","lat":49.5410562,"lon":10.2301468,"name":"Aral","city":"Uffenheim","category":"tankstelle","tags":[],"opening_hours":"Mo-Fr 08:00-12:00,13:00-18:00; Sa 08:00-12:00","operator":"ARAL","hours":{"type":"weekly","weekly":{"0":{"isOpen":false,"periods":[]},"1":{"isOpen":true,"periods":[{"open":480,"close":720},{"open":780,"close":1080}]},"2":{"isOpen":true,"periods":[{"open":480,"close":720},{"open":780,"close":1080}]},"3":{"isOpen":true,"periods":[{"open":480,"close":720},{"open":780,"close":1080}]},"4":{"isOpen":true,"periods":[{"open":480,"close":720},{"open":780,"close":1080}]},"5":{"isOpen":true,"periods":[{"open":480,"close":720},{"open":780,"close":1080}]},"6":{"isOpen":true,"periods":[{"open":480,"close":720}]}},"original":"Mo-Fr 08:00-12:00,13:00-18:00; Sa 08:00-12:00"}},{"id":"fuel_304691742","lat":49.7681794,"lon":10.4709266,"name":"TotalEnergies","city":"Geiselwind","category":"tankstelle","tags":[],"opening_hours":"24/7","operator":"TotalEnergies","hours":{"type":"24_7"}},{"id":"fuel_304691785","lat":49.7661512,"lon":10.4702085,"name":"Shell","city":"Geiselwind","category":"tankstelle","tags":[],"opening_hours":"24/7","operator":"Shell","hours":{"type":"24_7"}},{"id":"fuel_304695929","lat":49.7673074,"lon":10.4698835,"name":"LKW Dieseltankstelle Q8","city":"","category":"other","tags":[],"opening_hours":"24/7","hours":{"type":"24_7"}},{"id":"fuel_306671858","lat":49.7566086,"lon":10.1762998,"name":"Kaufland Tankstelle","city":"","category":"tankstelle","tags":[],"opening_hours":"Mo-Sa 06:30-20:30","operator":"Kaufland","hours":{"type":"weekly","weekly":{"0":{"isOpen":false,"periods":[]},"1":{"isOpen":true,"periods":[{"open":390,"close":1230}]},"2":{"isOpen":true,"periods":[{"open":390,"close":1230}]},"3":{"isOpen":true,"periods":[{"open":390,"close":1230}]},"4":{"isOpen":true,"periods":[{"open":390,"close":1230}]},"5":{"isOpen":true,"periods":[{"open":390,"close":1230}]},"6":{"isOpen":true,"periods":[{"open":390,"close":1230}]}},"original":"Mo-Sa 06:30-20:30"}},{"id":"fuel_306672409","lat":49.7570274,"lon":10.175288,"name":"Biodiesel Tankstelle","city":"","category":"tankstelle","tags":[],"opening_hours":"24/7","hours":{"type":"24_7"}},{"id":"fuel_309111363","lat":49.3170325,"lon":10.699291,"name":"DBV","city":"Petersaurach","category":"other","tags":[],"opening_hours":"Mo-Fr 13:00-20:00; Sa 08:00-18:00","operator":"Waltraud Schuster","hours":{"type":"weekly","weekly":{"0":{"isOpen":false,"periods":[]},"1":{"isOpen":true,"periods":[{"open":780,"close":1200}]},"2":{"isOpen":true,"periods":[{"open":780,"close":1200}]},"3":{"isOpen":true,"periods":[{"open":780,"close":1200}]},"4":{"isOpen":true,"periods":[{"open":780,"close":1200}]},"5":{"isOpen":true,"periods":[{"open":780,"close":1200}]},"6":{"isOpen":true,"periods":[{"open":480,"close":1080}]}},"original":"Mo-Fr 13:00-20:00; Sa 08:00-18:00"}},{"id":"fuel_309377183","lat":49.6239109,"lon":10.2264893,"name":"DBV","city":"","category":"other","tags":[],"operator":"DBV","opening_hours":"Su 00:00+","gplace_id":"ChIJ8_CLkDl5okcRt2v2jMzR_Qs","hours":{"type":"unknown","original":"Su 00:00+"}},{"id":"fuel_310852311","lat":49.7361544,"lon":10.17062,"name":"Leipold","city":"","category":"other","tags":[],"gplace_id":"ChIJ9UZXq0p9okcRODBi7AeAzZQ","hours":{"type":"unknown"}},{"id":"fuel_312303998","lat":49.6339222,"lon":10.0065802,"name":"Raiffeisen Tankstelle","city":"","category":"tankstelle","tags":[],"opening_hours":"24/7","hours":{"type":"24_7"}},{"id":"fuel_315022535","lat":49.7926412,"lon":10.0018823,"name":"BayWa","city":"","category":"other","tags":[],"opening_hours":"24/7","operator":"BayWa","hours":{"type":"24_7"}},{"id":"fuel_321580277","lat":49.2881571,"lon":10.2691479,"name":"Avia","city":"","category":"tankstelle","tags":[],"operator":"Scheiderer GmbH","opening_hours":"Su 00:00+","gplace_id":"ChIJW3fJXaaTmEcRD5WzyIrdldc","hours":{"type":"unknown","original":"Su 00:00+"}},{"id":"fuel_330548007","lat":49.306224,"lon":10.9669589,"name":"OMV","city":"","category":"tankstelle","tags":["autobahn","a6","toilette","tankstelle","raststätte","dusche","sanifair","barrierefrei","kostenpflichtig"],"opening_hours":"24/7","operator":"OMV","hours":{"type":"24_7"},"fee":"yes"},{"id":"fuel_330548056","lat":49.3083106,"lon":10.9705211,"name":"Shell","city":"","category":"tankstelle","tags":[],"opening_hours":"24/7","operator":"Shell","hours":{"type":"24_7"}},{"id":"fuel_354938836","lat":49.8273019,"lon":10.7457718,"name":"Independent","city":"","category":"other","tags":[],"operator":"Autohaus Lang","opening_hours":"Mo 08:00-17:00; Tu 08:00-17:00; We 08:00-17:00; Th 08:00-17:00; Fr 08:00-17:00","gplace_id":"ChIJLaSAEL8XokcRlDnOmpRnd2M","hours":{"type":"weekly","weekly":{"0":{"isOpen":false,"periods":[]},"1":{"isOpen":true,"periods":[{"open":480,"close":1020}]},"2":{"isOpen":true,"periods":[{"open":480,"close":1020}]},"3":{"isOpen":true,"periods":[{"open":480,"close":1020}]},"4":{"isOpen":true,"periods":[{"open":480,"close":1020}]},"5":{"isOpen":true,"periods":[{"open":480,"close":1020}]},"6":{"isOpen":false,"periods":[]}},"original":"Mo 08:00-17:00; Tu 08:00-17:00; We 08:00-17:00; Th 08:00-17:00; Fr 08:00-17:00"}},{"id":"fuel_359947164","lat":49.7895004,"lon":10.2154831,"name":"ARAL","city":"","category":"tankstelle","tags":[],"operator":"Aral","opening_hours":"Su 06:00-22:00; Mo 06:00-22:00; Tu 06:00-22:00; We 06:00-22:00; Th 06:00-22:00; Fr 06:00-22:00; Sa 06:00-22:00","gplace_id":"ChIJkwA5XUtiokcRMY01EU3OdDA","hours":{"type":"weekly","weekly":{"0":{"isOpen":true,"periods":[{"open":360,"close":1320}]},"1":{"isOpen":true,"periods":[{"open":360,"close":1320}]},"2":{"isOpen":true,"periods":[{"open":360,"close":1320}]},"3":{"isOpen":true,"periods":[{"open":360,"close":1320}]},"4":{"isOpen":true,"periods":[{"open":360,"close":1320}]},"5":{"isOpen":true,"periods":[{"open":360,"close":1320}]},"6":{"isOpen":true,"periods":[{"open":360,"close":1320}]}},"original":"Su 06:00-22:00; Mo 06:00-22:00; Tu 06:00-22:00; We 06:00-22:00; Th 06:00-22:00; Fr 06:00-22:00; Sa 06:00-22:00"}},{"id":"fuel_362778774","lat":49.6690634,"lon":10.1450762,"name":"ARAL","city":"","category":"tankstelle","tags":[],"operator":"ARAL","opening_hours":"Su 07:00-22:00; Mo 06:00-22:00; Tu 06:00-22:00; We 06:00-22:00; Th 06:00-22:00; Fr 06:00-22:00; Sa 07:00-22:00","gplace_id":"ChIJh7WmROh9okcRSqmT9I7jlWY","hours":{"type":"weekly","weekly":{"0":{"isOpen":true,"periods":[{"open":420,"close":1320}]},"1":{"isOpen":true,"periods":[{"open":360,"close":1320}]},"2":{"isOpen":true,"periods":[{"open":360,"close":1320}]},"3":{"isOpen":true,"periods":[{"open":360,"close":1320}]},"4":{"isOpen":true,"periods":[{"open":360,"close":1320}]},"5":{"isOpen":true,"periods":[{"open":360,"close":1320}]},"6":{"isOpen":true,"periods":[{"open":420,"close":1320}]}},"original":"Su 07:00-22:00; Mo 06:00-22:00; Tu 06:00-22:00; We 06:00-22:00; Th 06:00-22:00; Fr 06:00-22:00; Sa 07:00-22:00"}},{"id":"fuel_365919574","lat":49.2884674,"lon":10.5709796,"name":"Tankstelle","city":"Ansbach","category":"tankstelle","tags":[],"opening_hours":"24/7","operator":"Supol","hours":{"type":"24_7"}},{"id":"fuel_366907785","lat":49.8446302,"lon":10.3564907,"name":"Avia","city":"","category":"tankstelle","tags":[],"operator":"Avia","opening_hours":"Su 00:00+","gplace_id":"ChIJhfNkJK1nokcRIdzhQC8tNmk","hours":{"type":"unknown","original":"Su 00:00+"}},{"id":"fuel_369310876","lat":49.2988742,"lon":10.5835856,"name":"TankPoint","city":"Ansbach","category":"other","tags":[],"operator":"TankPoint","opening_hours":"Su 08:00-21:00; Mo 06:00-21:00; Tu 06:00-21:00; We 06:00-21:00; Th 06:00-21:00; Fr 06:00-21:00; Sa 07:00-21:00","gplace_id":"ChIJGTLxpXO7mEcRrZBOlnePsSo","hours":{"type":"weekly","weekly":{"0":{"isOpen":true,"periods":[{"open":480,"close":1260}]},"1":{"isOpen":true,"periods":[{"open":360,"close":1260}]},"2":{"isOpen":true,"periods":[{"open":360,"close":1260}]},"3":{"isOpen":true,"periods":[{"open":360,"close":1260}]},"4":{"isOpen":true,"periods":[{"open":360,"close":1260}]},"5":{"isOpen":true,"periods":[{"open":360,"close":1260}]},"6":{"isOpen":true,"periods":[{"open":420,"close":1260}]}},"original":"Su 08:00-21:00; Mo 06:00-21:00; Tu 06:00-21:00; We 06:00-21:00; Th 06:00-21:00; Fr 06:00-21:00; Sa 07:00-21:00"}},{"id":"fuel_369824906","lat":49.4733093,"lon":10.0278568,"name":"AVIA","city":"","category":"tankstelle","tags":[],"operator":"Avia","opening_hours":"Su 08:30-19:00; Mo 07:00-20:00; Tu 07:00-20:00; We 07:00-20:00; Th 07:00-20:00; Fr 07:00-20:00; Sa 07:30-20:00","gplace_id":"ChIJhz-kiYJ9mEcRkLv1fL1P2wk","hours":{"type":"weekly","weekly":{"0":{"isOpen":true,"periods":[{"open":510,"close":1140}]},"1":{"isOpen":true,"periods":[{"open":420,"close":1200}]},"2":{"isOpen":true,"periods":[{"open":420,"close":1200}]},"3":{"isOpen":true,"periods":[{"open":420,"close":1200}]},"4":{"isOpen":true,"periods":[{"open":420,"close":1200}]},"5":{"isOpen":true,"periods":[{"open":420,"close":1200}]},"6":{"isOpen":true,"periods":[{"open":450,"close":1200}]}},"original":"Su 08:30-19:00; Mo 07:00-20:00; Tu 07:00-20:00; We 07:00-20:00; Th 07:00-20:00; Fr 07:00-20:00; Sa 07:30-20:00"}},{"id":"fuel_369825128","lat":49.4725788,"lon":10.0288755,"name":"BAG","city":"","category":"other","tags":[],"gplace_id":"ChIJj9ARzZB9mEcROMiN4pzUw8I","hours":{"type":"unknown"}},{"id":"fuel_380857258","lat":49.8577536,"lon":10.1837973,"name":"Tankstelle + SB Tankautomat Tag +Nacht","city":"Nordheim am Main","category":"tankstelle","tags":[],"opening_hours":"Su 00:00+","gplace_id":"ChIJbWiNRX6KokcR4dxN0SSDTyo","hours":{"type":"unknown","original":"Su 00:00+"}},{"id":"fuel_380953188","lat":49.1395639,"lon":10.0266386,"name":"Agip","city":"","category":"tankstelle","tags":[],"operator":"Agip","opening_hours":"Su 08:00-22:00; Mo 05:00-22:00; Tu 05:00-22:00; We 05:00-22:00; Th 05:00-22:00; Fr 05:00-22:00; Sa 06:00-22:00","gplace_id":"ChIJ-Rc4FNH2mEcRyGxxGYudbgg","hours":{"type":"weekly","weekly":{"0":{"isOpen":true,"periods":[{"open":480,"close":1320}]},"1":{"isOpen":true,"periods":[{"open":300,"close":1320}]},"2":{"isOpen":true,"periods":[{"open":300,"close":1320}]},"3":{"isOpen":true,"periods":[{"open":300,"close":1320}]},"4":{"isOpen":true,"periods":[{"open":300,"close":1320}]},"5":{"isOpen":true,"periods":[{"open":300,"close":1320}]},"6":{"isOpen":true,"periods":[{"open":360,"close":1320}]}},"original":"Su 08:00-22:00; Mo 05:00-22:00; Tu 05:00-22:00; We 05:00-22:00; Th 05:00-22:00; Fr 05:00-22:00; Sa 06:00-22:00"}},{"id":"fuel_387861769","lat":49.4953284,"lon":10.6473192,"name":"Avia","city":"","category":"tankstelle","tags":[],"operator":"Avia","opening_hours":"Su 00:00+","gplace_id":"ChIJi2SEKKinmEcR3ehNSpJj7ZE","hours":{"type":"unknown","original":"Su 00:00+"}},{"id":"fuel_389821433","lat":49.435988,"lon":10.9770977,"name":"Agip","city":"Oberasbach","category":"tankstelle","tags":[],"operator":"Agip Deutschland GmbH","opening_hours":"Su 06:00-22:00; Mo 06:00-22:00; Tu 06:00-22:00; We 06:00-22:00; Th 06:00-22:00; Fr 06:00-22:00; Sa 06:00-22:00","gplace_id":"ChIJyanktD9Un0cRzHCy72ijW84","hours":{"type":"weekly","weekly":{"0":{"isOpen":true,"periods":[{"open":360,"close":1320}]},"1":{"isOpen":true,"periods":[{"open":360,"close":1320}]},"2":{"isOpen":true,"periods":[{"open":360,"close":1320}]},"3":{"isOpen":true,"periods":[{"open":360,"close":1320}]},"4":{"isOpen":true,"periods":[{"open":360,"close":1320}]},"5":{"isOpen":true,"periods":[{"open":360,"close":1320}]},"6":{"isOpen":true,"periods":[{"open":360,"close":1320}]}},"original":"Su 06:00-22:00; Mo 06:00-22:00; Tu 06:00-22:00; We 06:00-22:00; Th 06:00-22:00; Fr 06:00-22:00; Sa 06:00-22:00"}},{"id":"fuel_392720628","lat":49.5776453,"lon":10.5855012,"name":"Esso","city":"","category":"tankstelle","tags":[],"operator":"Esso","opening_hours":"Su 07:00-22:00; Mo 05:00-22:00; Tu 05:00-22:00; We 05:00-22:00; Th 05:00-22:00; Fr 05:00-22:00; Sa 07:00-22:00","gplace_id":"ChIJQeP0UbILokcRda5wmqDX_6I","hours":{"type":"weekly","weekly":{"0":{"isOpen":true,"periods":[{"open":420,"close":1320}]},"1":{"isOpen":true,"periods":[{"open":300,"close":1320}]},"2":{"isOpen":true,"periods":[{"open":300,"close":1320}]},"3":{"isOpen":true,"periods":[{"open":300,"close":1320}]},"4":{"isOpen":true,"periods":[{"open":300,"close":1320}]},"5":{"isOpen":true,"periods":[{"open":300,"close":1320}]},"6":{"isOpen":true,"periods":[{"open":420,"close":1320}]}},"original":"Su 07:00-22:00; Mo 05:00-22:00; Tu 05:00-22:00; We 05:00-22:00; Th 05:00-22:00; Fr 05:00-22:00; Sa 07:00-22:00"}},{"id":"fuel_394692935","lat":49.291544,"lon":10.5554858,"name":"Esso","city":"","category":"tankstelle","tags":[],"opening_hours":"Mo-Su 05:00-23:00","operator":"Esso","hours":{"type":"weekly","weekly":{"0":{"isOpen":true,"periods":[{"open":300,"close":1380}]},"1":{"isOpen":true,"periods":[{"open":300,"close":1380}]},"2":{"isOpen":true,"periods":[{"open":300,"close":1380}]},"3":{"isOpen":true,"periods":[{"open":300,"close":1380}]},"4":{"isOpen":true,"periods":[{"open":300,"close":1380}]},"5":{"isOpen":true,"periods":[{"open":300,"close":1380}]},"6":{"isOpen":true,"periods":[{"open":300,"close":1380}]}},"original":"Mo-Su 05:00-23:00"}},{"id":"fuel_395333865","lat":49.4461564,"lon":10.3627489,"name":"Avia","city":"","category":"tankstelle","tags":[],"opening_hours":"24/7","operator":"Avia","hours":{"type":"24_7"}},{"id":"fuel_399216222","lat":49.5800328,"lon":10.9301149,"name":"Aral","city":"","category":"tankstelle","tags":[],"opening_hours":"24/7","operator":"Aral","hours":{"type":"24_7"}},{"id":"fuel_399216245","lat":49.5825937,"lon":10.9268385,"name":"Esso","city":"","category":"tankstelle","tags":["sanifair","barrierefrei","kostenpflichtig"],"opening_hours":"24/7","operator":"Esso","hours":{"type":"24_7"},"fee":"yes"},{"id":"fuel_410043175","lat":49.5451971,"lon":10.2330185,"name":"Opel Tankstelle Schöller","city":"","category":"tankstelle","tags":[],"operator":"Opel","opening_hours":"Su 08:00-22:00; Mo 06:00-22:00; Tu 06:00-22:00; We 06:00-22:00; Th 06:00-22:00; Fr 06:00-22:00; Sa 07:00-22:00","gplace_id":"ChIJDQ06eGCCmEcRCBiUutOhZpE","hours":{"type":"weekly","weekly":{"0":{"isOpen":true,"periods":[{"open":480,"close":1320}]},"1":{"isOpen":true,"periods":[{"open":360,"close":1320}]},"2":{"isOpen":true,"periods":[{"open":360,"close":1320}]},"3":{"isOpen":true,"periods":[{"open":360,"close":1320}]},"4":{"isOpen":true,"periods":[{"open":360,"close":1320}]},"5":{"isOpen":true,"periods":[{"open":360,"close":1320}]},"6":{"isOpen":true,"periods":[{"open":420,"close":1320}]}},"original":"Su 08:00-22:00; Mo 06:00-22:00; Tu 06:00-22:00; We 06:00-22:00; Th 06:00-22:00; Fr 06:00-22:00; Sa 07:00-22:00"}},{"id":"fuel_410768004","lat":49.3993778,"lon":10.8863699,"name":"Esso","city":"Roßtal","category":"tankstelle","tags":[],"opening_hours":"Mo-Sa 06:00-22:00; Su 07:00-22:00; PH 07:00-22:00","operator":"Esso","hours":{"type":"weekly","weekly":{"0":{"isOpen":true,"periods":[{"open":420,"close":1320}]},"1":{"isOpen":true,"periods":[{"open":360,"close":1320}]},"2":{"isOpen":true,"periods":[{"open":360,"close":1320}]},"3":{"isOpen":true,"periods":[{"open":360,"close":1320}]},"4":{"isOpen":true,"periods":[{"open":360,"close":1320}]},"5":{"isOpen":true,"periods":[{"open":360,"close":1320}]},"6":{"isOpen":true,"periods":[{"open":360,"close":1320}]}},"original":"Mo-Sa 06:00-22:00; Su 07:00-22:00; PH 07:00-22:00"}},{"id":"fuel_411683525","lat":49.1308115,"lon":10.0772492,"name":"JET","city":"","category":"tankstelle","tags":[],"operator":"JET","opening_hours":"Su 08:00-23:00; Mo 05:30-00:00; Tu 05:30-00:00; We 05:30-00:00; Th 05:30-00:00; Fr 05:30-00:00; Sa 07:00-00:00","gplace_id":"ChIJW6HdMwLxmEcRfye-yKpv9rM","hours":{"type":"weekly","weekly":{"0":{"isOpen":true,"periods":[{"open":480,"close":1380}]},"1":{"isOpen":true,"periods":[{"open":330,"close":1440}]},"2":{"isOpen":true,"periods":[{"open":330,"close":1440}]},"3":{"isOpen":true,"periods":[{"open":330,"close":1440}]},"4":{"isOpen":true,"periods":[{"open":330,"close":1440}]},"5":{"isOpen":true,"periods":[{"open":330,"close":1440}]},"6":{"isOpen":true,"periods":[{"open":420,"close":1440}]}},"original":"Su 08:00-23:00; Mo 05:30-00:00; Tu 05:30-00:00; We 05:30-00:00; Th 05:30-00:00; Fr 05:30-00:00; Sa 07:00-00:00"}},{"id":"fuel_430930988","lat":49.9184338,"lon":10.6792374,"name":"Independent","city":"","category":"other","tags":[],"operator":"Autohaus Heil","opening_hours":"Su 00:00+","gplace_id":"ChIJ8cyjCD4_okcRArZq6i15hAU","hours":{"type":"unknown","original":"Su 00:00+"}},{"id":"fuel_441408334","lat":49.4366531,"lon":10.9809922,"name":"Supol Tankstelle","city":"Oberasbach","category":"tankstelle","tags":[],"opening_hours":"Mo-Fr 06:00-24:00; Sa 07:00-24:00; Su 08:00-24:00","operator":"SUPOL Tank Dipl.-Kfm. Paul Böhm e.K.","hours":{"type":"weekly","weekly":{"0":{"isOpen":true,"periods":[{"open":480,"close":1440}]},"1":{"isOpen":true,"periods":[{"open":360,"close":1440}]},"2":{"isOpen":true,"periods":[{"open":360,"close":1440}]},"3":{"isOpen":true,"periods":[{"open":360,"close":1440}]},"4":{"isOpen":true,"periods":[{"open":360,"close":1440}]},"5":{"isOpen":true,"periods":[{"open":360,"close":1440}]},"6":{"isOpen":true,"periods":[{"open":420,"close":1440}]}},"original":"Mo-Fr 06:00-24:00; Sa 07:00-24:00; Su 08:00-24:00"}},{"id":"fuel_462001733","lat":49.7287549,"lon":10.1898312,"name":"LPG Tankstelle","city":"","category":"tankstelle","tags":[],"operator":"1a Autoservice","gplace_id":"not_found","hours":{"type":"unknown"}},{"id":"fuel_465620626","lat":49.6700016,"lon":10.0596441,"name":"Agip","city":"Ochsenfurt","category":"tankstelle","tags":[],"opening_hours":"Mo-Su 06:00-22:00","operator":"Agip","hours":{"type":"weekly","weekly":{"0":{"isOpen":true,"periods":[{"open":360,"close":1320}]},"1":{"isOpen":true,"periods":[{"open":360,"close":1320}]},"2":{"isOpen":true,"periods":[{"open":360,"close":1320}]},"3":{"isOpen":true,"periods":[{"open":360,"close":1320}]},"4":{"isOpen":true,"periods":[{"open":360,"close":1320}]},"5":{"isOpen":true,"periods":[{"open":360,"close":1320}]},"6":{"isOpen":true,"periods":[{"open":360,"close":1320}]}},"original":"Mo-Su 06:00-22:00"}},{"id":"fuel_465620627","lat":49.6698384,"lon":10.058939,"name":"Esso","city":"Ochsenfurt","category":"tankstelle","tags":[],"opening_hours":"Mo-Fr 06:00-21:00; Sa-Su 08:00-21:00","operator":"Volker Hauck","hours":{"type":"weekly","weekly":{"0":{"isOpen":true,"periods":[{"open":480,"close":1260}]},"1":{"isOpen":true,"periods":[{"open":360,"close":1260}]},"2":{"isOpen":true,"periods":[{"open":360,"close":1260}]},"3":{"isOpen":true,"periods":[{"open":360,"close":1260}]},"4":{"isOpen":true,"periods":[{"open":360,"close":1260}]},"5":{"isOpen":true,"periods":[{"open":360,"close":1260}]},"6":{"isOpen":true,"periods":[{"open":480,"close":1260}]}},"original":"Mo-Fr 06:00-21:00; Sa-Su 08:00-21:00"}},{"id":"fuel_473191203","lat":49.2812076,"lon":10.6800426,"name":"Aral","city":"","category":"tankstelle","tags":[],"opening_hours":"Mo-Fr 06:30-19:00; Sa 08:00-17:00; Su 08:30-12:00","operator":"Friedrich Leidel","hours":{"type":"weekly","weekly":{"0":{"isOpen":true,"periods":[{"open":510,"close":720}]},"1":{"isOpen":true,"periods":[{"open":390,"close":1140}]},"2":{"isOpen":true,"periods":[{"open":390,"close":1140}]},"3":{"isOpen":true,"periods":[{"open":390,"close":1140}]},"4":{"isOpen":true,"periods":[{"open":390,"close":1140}]},"5":{"isOpen":true,"periods":[{"open":390,"close":1140}]},"6":{"isOpen":true,"periods":[{"open":480,"close":1020}]}},"original":"Mo-Fr 06:30-19:00; Sa 08:00-17:00; Su 08:30-12:00"}},{"id":"fuel_497083942","lat":49.551245,"lon":10.7101705,"name":"currently closed due to operator change","city":"","category":"other","tags":[],"operator":"currently closed due to operator change","opening_hours":"Su 00:00+","gplace_id":"ChIJZfnWG2cJokcRE_qE5blqgp0","hours":{"type":"unknown","original":"Su 00:00+"}},{"id":"fuel_506119651","lat":49.9851555,"lon":10.1024055,"name":"bft Walther","city":"Werneck","category":"tankstelle","tags":[],"opening_hours":"Mo-Fr 06:00-22:00; Sa 07:00-22:00; PH,Su 08:00-22:00","operator":"Erik Walther","hours":{"type":"weekly","weekly":{"0":{"isOpen":true,"periods":[{"open":480,"close":1320}]},"1":{"isOpen":true,"periods":[{"open":360,"close":1320}]},"2":{"isOpen":true,"periods":[{"open":360,"close":1320}]},"3":{"isOpen":true,"periods":[{"open":360,"close":1320}]},"4":{"isOpen":true,"periods":[{"open":360,"close":1320}]},"5":{"isOpen":true,"periods":[{"open":360,"close":1320}]},"6":{"isOpen":true,"periods":[{"open":420,"close":1320}]}},"original":"Mo-Fr 06:00-22:00; Sa 07:00-22:00; PH,Su 08:00-22:00"}},{"id":"fuel_534222772","lat":49.5493963,"lon":10.9873035,"name":"Carnecky","city":"Erlangen","category":"other","tags":[],"opening_hours":"Su 00:00+","gplace_id":"ChIJ4y8ikhz_oUcRfbtkYjTWDtM","hours":{"type":"unknown","original":"Su 00:00+"}},{"id":"fuel_540294803","lat":49.341132,"lon":10.5112409,"name":"Tankstelle","city":"","category":"tankstelle","tags":[],"opening_hours":"Su 08:00-21:00; Mo 06:00-21:00; Tu 06:00-21:00; We 06:00-21:00; Th 06:00-21:00; Fr 06:00-21:00; Sa 06:00-21:00","gplace_id":"ChIJWW4OiYy8mEcRFwXdfeB7IG0","hours":{"type":"weekly","weekly":{"0":{"isOpen":true,"periods":[{"open":480,"close":1260}]},"1":{"isOpen":true,"periods":[{"open":360,"close":1260}]},"2":{"isOpen":true,"periods":[{"open":360,"close":1260}]},"3":{"isOpen":true,"periods":[{"open":360,"close":1260}]},"4":{"isOpen":true,"periods":[{"open":360,"close":1260}]},"5":{"isOpen":true,"periods":[{"open":360,"close":1260}]},"6":{"isOpen":true,"periods":[{"open":360,"close":1260}]}},"original":"Su 08:00-21:00; Mo 06:00-21:00; Tu 06:00-21:00; We 06:00-21:00; Th 06:00-21:00; Fr 06:00-21:00; Sa 06:00-21:00"}},{"id":"fuel_561124703","lat":49.4496699,"lon":10.3255966,"name":"AVIA","city":"","category":"tankstelle","tags":[],"opening_hours":"Su 00:00+","gplace_id":"ChIJHfm6dbybmEcR3ePKdj7pNj4","hours":{"type":"unknown","original":"Su 00:00+"}},{"id":"fuel_565050439","lat":49.5770773,"lon":10.827795,"name":"Tankstelle Stadie","city":"Aurachtal","category":"tankstelle","tags":[],"opening_hours":"Mo-Sa 06:00-19:30; Su off; PH 08:00-19:30","hours":{"type":"weekly","weekly":{"0":{"isOpen":false,"periods":[]},"1":{"isOpen":true,"periods":[{"open":360,"close":1170}]},"2":{"isOpen":true,"periods":[{"open":360,"close":1170}]},"3":{"isOpen":true,"periods":[{"open":360,"close":1170}]},"4":{"isOpen":true,"periods":[{"open":360,"close":1170}]},"5":{"isOpen":true,"periods":[{"open":360,"close":1170}]},"6":{"isOpen":true,"periods":[{"open":360,"close":1170}]}},"original":"Mo-Sa 06:00-19:30; Su off; PH 08:00-19:30"}},{"id":"fuel_570592398","lat":49.3272564,"lon":10.1679732,"name":"AVIA","city":"","category":"tankstelle","tags":[],"operator":"AVIA","opening_hours":"Su 00:00+","gplace_id":"ChIJfVFdNniOmEcREVlUsORjvjQ","hours":{"type":"unknown","original":"Su 00:00+"}},{"id":"fuel_600035474","lat":49.0209469,"lon":10.0251987,"name":"Avia - Kurz","city":"","category":"tankstelle","tags":[],"opening_hours":"Su 00:00+","gplace_id":"ChIJiTBoCZL7mEcRKdpRJiZ98QQ","hours":{"type":"unknown","original":"Su 00:00+"}},{"id":"fuel_607313045","lat":49.5786944,"lon":10.8842719,"name":"eni","city":"Herzogenaurach","category":"tankstelle","tags":[],"opening_hours":"Mo-Sa 06:00-23:00; Su,PH 07:00-23:00","operator":"Isabel Tekdemir","hours":{"type":"weekly","weekly":{"0":{"isOpen":true,"periods":[{"open":420,"close":1380}]},"1":{"isOpen":true,"periods":[{"open":360,"close":1380}]},"2":{"isOpen":true,"periods":[{"open":360,"close":1380}]},"3":{"isOpen":true,"periods":[{"open":360,"close":1380}]},"4":{"isOpen":true,"periods":[{"open":360,"close":1380}]},"5":{"isOpen":true,"periods":[{"open":360,"close":1380}]},"6":{"isOpen":true,"periods":[{"open":360,"close":1380}]}},"original":"Mo-Sa 06:00-23:00; Su,PH 07:00-23:00"}},{"id":"fuel_607991954","lat":49.434922,"lon":10.9732482,"name":"Jet","city":"Oberasbach","category":"tankstelle","tags":[],"opening_hours":"24/7","operator":"Beate Frosch","hours":{"type":"24_7"}},{"id":"fuel_662853448","lat":49.2391823,"lon":10.5927214,"name":"bft - Walther","city":"","category":"tankstelle","tags":[],"opening_hours":"Mo-Fr 06:00-20:00; Sa 07:00-19:00; Su 08:00-19:00","operator":"Stefanie Mohr","hours":{"type":"weekly","weekly":{"0":{"isOpen":true,"periods":[{"open":480,"close":1140}]},"1":{"isOpen":true,"periods":[{"open":360,"close":1200}]},"2":{"isOpen":true,"periods":[{"open":360,"close":1200}]},"3":{"isOpen":true,"periods":[{"open":360,"close":1200}]},"4":{"isOpen":true,"periods":[{"open":360,"close":1200}]},"5":{"isOpen":true,"periods":[{"open":360,"close":1200}]},"6":{"isOpen":true,"periods":[{"open":420,"close":1140}]}},"original":"Mo-Fr 06:00-20:00; Sa 07:00-19:00; Su 08:00-19:00"}},{"id":"fuel_676673282","lat":49.5016128,"lon":10.4247718,"name":"Esso","city":"","category":"tankstelle","tags":[],"opening_hours":"Mo-Sa 06:00-20:00; Su,PH 09:00-20:00","operator":"Esso","hours":{"type":"weekly","weekly":{"0":{"isOpen":true,"periods":[{"open":540,"close":1200}]},"1":{"isOpen":true,"periods":[{"open":360,"close":1200}]},"2":{"isOpen":true,"periods":[{"open":360,"close":1200}]},"3":{"isOpen":true,"periods":[{"open":360,"close":1200}]},"4":{"isOpen":true,"periods":[{"open":360,"close":1200}]},"5":{"isOpen":true,"periods":[{"open":360,"close":1200}]},"6":{"isOpen":true,"periods":[{"open":360,"close":1200}]}},"original":"Mo-Sa 06:00-20:00; Su,PH 09:00-20:00"}},{"id":"fuel_678628439","lat":49.4976414,"lon":10.4091807,"name":"ESSO Illesheimer Str","city":"Bad Windsheim","category":"tankstelle","tags":[],"opening_hours":"Mo-Su 05:00-24:00","operator":"Esso","hours":{"type":"weekly","weekly":{"0":{"isOpen":true,"periods":[{"open":300,"close":1440}]},"1":{"isOpen":true,"periods":[{"open":300,"close":1440}]},"2":{"isOpen":true,"periods":[{"open":300,"close":1440}]},"3":{"isOpen":true,"periods":[{"open":300,"close":1440}]},"4":{"isOpen":true,"periods":[{"open":300,"close":1440}]},"5":{"isOpen":true,"periods":[{"open":300,"close":1440}]},"6":{"isOpen":true,"periods":[{"open":300,"close":1440}]}},"original":"Mo-Su 05:00-24:00"}},{"id":"fuel_689893008","lat":49.7334301,"lon":10.5949512,"name":"Autohaus Eyßelein","city":"","category":"other","tags":[],"gplace_id":"not_found","hours":{"type":"unknown"}},{"id":"fuel_705638879","lat":49.698532,"lon":10.2502764,"name":"Tankstelle","city":"","category":"tankstelle","tags":[],"operator":"Knauf","gplace_id":"not_found","hours":{"type":"unknown"}},{"id":"fuel_705639174","lat":49.7005513,"lon":10.2448555,"name":"Tankstelle","city":"","category":"tankstelle","tags":[],"operator":"Knauf","gplace_id":"not_found","hours":{"type":"unknown"}},{"id":"fuel_710634679","lat":49.6863652,"lon":10.938887,"name":"Esso","city":"Hemhofen","category":"tankstelle","tags":[],"opening_hours":"Mo-Fr 06:00-22:00; Sa 07:00-22:00; Su 07:30-22:00","operator":"Esso","hours":{"type":"weekly","weekly":{"0":{"isOpen":true,"periods":[{"open":450,"close":1320}]},"1":{"isOpen":true,"periods":[{"open":360,"close":1320}]},"2":{"isOpen":true,"periods":[{"open":360,"close":1320}]},"3":{"isOpen":true,"periods":[{"open":360,"close":1320}]},"4":{"isOpen":true,"periods":[{"open":360,"close":1320}]},"5":{"isOpen":true,"periods":[{"open":360,"close":1320}]},"6":{"isOpen":true,"periods":[{"open":420,"close":1320}]}},"original":"Mo-Fr 06:00-22:00; Sa 07:00-22:00; Su 07:30-22:00"}},{"id":"fuel_730674076","lat":49.8501422,"lon":10.0278303,"name":"Tankpool 24","city":"Kürnach","category":"other","tags":[],"opening_hours":"24/7","operator":"Tankpool 24","hours":{"type":"24_7"}},{"id":"fuel_732712086","lat":49.3696209,"lon":10.1973161,"name":"LPG Autogas Franken GmbH","city":"Rothenburg ob der Tauber","category":"other","tags":[],"opening_hours":"Mo-Fr 08:00-17:00; Sa 08:00-13:00","hours":{"type":"weekly","weekly":{"0":{"isOpen":false,"periods":[]},"1":{"isOpen":true,"periods":[{"open":480,"close":1020}]},"2":{"isOpen":true,"periods":[{"open":480,"close":1020}]},"3":{"isOpen":true,"periods":[{"open":480,"close":1020}]},"4":{"isOpen":true,"periods":[{"open":480,"close":1020}]},"5":{"isOpen":true,"periods":[{"open":480,"close":1020}]},"6":{"isOpen":true,"periods":[{"open":480,"close":780}]}},"original":"Mo-Fr 08:00-17:00; Sa 08:00-13:00"}},{"id":"fuel_732712738","lat":49.32281,"lon":10.33636,"name":"Auto Kriegbaum","city":"","category":"other","tags":[],"opening_hours":"Mo-Sa 08:00-20:00","hours":{"type":"weekly","weekly":{"0":{"isOpen":false,"periods":[]},"1":{"isOpen":true,"periods":[{"open":480,"close":1200}]},"2":{"isOpen":true,"periods":[{"open":480,"close":1200}]},"3":{"isOpen":true,"periods":[{"open":480,"close":1200}]},"4":{"isOpen":true,"periods":[{"open":480,"close":1200}]},"5":{"isOpen":true,"periods":[{"open":480,"close":1200}]},"6":{"isOpen":true,"periods":[{"open":480,"close":1200}]}},"original":"Mo-Sa 08:00-20:00"}},{"id":"fuel_732713030","lat":49.216223,"lon":10.3003497,"name":"Total","city":"Feuchtwangen","category":"tankstelle","tags":[],"opening_hours":"Mo-Su 06:00-22:00","operator":"Total","hours":{"type":"weekly","weekly":{"0":{"isOpen":true,"periods":[{"open":360,"close":1320}]},"1":{"isOpen":true,"periods":[{"open":360,"close":1320}]},"2":{"isOpen":true,"periods":[{"open":360,"close":1320}]},"3":{"isOpen":true,"periods":[{"open":360,"close":1320}]},"4":{"isOpen":true,"periods":[{"open":360,"close":1320}]},"5":{"isOpen":true,"periods":[{"open":360,"close":1320}]},"6":{"isOpen":true,"periods":[{"open":360,"close":1320}]}},"original":"Mo-Su 06:00-22:00"}},{"id":"fuel_732713828","lat":49.2488945,"lon":10.8414718,"name":"Fries Mineralöl & Tankstelle","city":"Windsbach","category":"tankstelle","tags":[],"gplace_id":"ChIJIWTYC0RLn0cR5e2Hgbzegw0","hours":{"type":"unknown"}},{"id":"fuel_732714463","lat":49.1839457,"lon":10.5216369,"name":"Hochdanner","city":"Bechhofen","category":"other","tags":[],"gplace_id":"not_found","hours":{"type":"unknown"}},{"id":"fuel_732715386","lat":49.9062495,"lon":10.4241647,"name":"Avia","city":"","category":"tankstelle","tags":[],"opening_hours":"Mo-Fr 06:30-19:00; Sa 07:30-17:00","operator":"Avia","hours":{"type":"weekly","weekly":{"0":{"isOpen":false,"periods":[]},"1":{"isOpen":true,"periods":[{"open":390,"close":1140}]},"2":{"isOpen":true,"periods":[{"open":390,"close":1140}]},"3":{"isOpen":true,"periods":[{"open":390,"close":1140}]},"4":{"isOpen":true,"periods":[{"open":390,"close":1140}]},"5":{"isOpen":true,"periods":[{"open":390,"close":1140}]},"6":{"isOpen":true,"periods":[{"open":450,"close":1020}]}},"original":"Mo-Fr 06:30-19:00; Sa 07:30-17:00"}},{"id":"fuel_732716456","lat":49.7398415,"lon":10.636663,"name":"Esso","city":"Burghaslach","category":"tankstelle","tags":[],"opening_hours":"24/7","operator":"Kempes Autohof Burghaslach","hours":{"type":"24_7"}},{"id":"fuel_732716507","lat":49.0435002,"lon":10.6058513,"name":"BayWa","city":"Wassertrüdingen","category":"other","tags":[],"opening_hours":"Su 00:00+","gplace_id":"ChIJJanyBSHOmEcRRsueM55rOWI","hours":{"type":"unknown","original":"Su 00:00+"}},{"id":"fuel_732716540","lat":49.5591753,"lon":10.9637037,"name":"Gastankstelle Autohaus Schorr und Dürr...","city":"Erlangen","category":"other","tags":[],"opening_hours":"Mo-Fr 07:00-18:00; Sa 09:00-13:30","hours":{"type":"weekly","weekly":{"0":{"isOpen":false,"periods":[]},"1":{"isOpen":true,"periods":[{"open":420,"close":1080}]},"2":{"isOpen":true,"periods":[{"open":420,"close":1080}]},"3":{"isOpen":true,"periods":[{"open":420,"close":1080}]},"4":{"isOpen":true,"periods":[{"open":420,"close":1080}]},"5":{"isOpen":true,"periods":[{"open":420,"close":1080}]},"6":{"isOpen":true,"periods":[{"open":540,"close":810}]}},"original":"Mo-Fr 07:00-18:00; Sa 09:00-13:30"}},{"id":"fuel_732717069","lat":49.0947698,"lon":10.0630672,"name":"Auto-Meiser GmbH","city":"","category":"other","tags":[],"opening_hours":"Su 00:00+","gplace_id":"ChIJ4TtZWc_xmEcRZvLrZR1N5Q4","hours":{"type":"unknown","original":"Su 00:00+"}},{"id":"fuel_732717192","lat":49.000809,"lon":10.3019258,"name":"Freie Tankstelle","city":"Stödtlen","category":"tankstelle","tags":[],"opening_hours":"Mo-Fr 07:30-12:00, 13:00-18:00; Sa 08:30-12:00 || \"mit Tankkarte\"","operator":"Köttel","hours":{"type":"unknown","original":"Mo-Fr 07:30-12:00, 13:00-18:00; Sa 08:30-12:00 || \"mit Tankkarte\""}},{"id":"fuel_732717427","lat":49.3956125,"lon":10.6926621,"name":"Autohaus Feistkorn","city":"","category":"other","tags":[],"opening_hours":"Mo-Fr 08:00-18:00; Sa 08:00-12:00","hours":{"type":"weekly","weekly":{"0":{"isOpen":false,"periods":[]},"1":{"isOpen":true,"periods":[{"open":480,"close":1080}]},"2":{"isOpen":true,"periods":[{"open":480,"close":1080}]},"3":{"isOpen":true,"periods":[{"open":480,"close":1080}]},"4":{"isOpen":true,"periods":[{"open":480,"close":1080}]},"5":{"isOpen":true,"periods":[{"open":480,"close":1080}]},"6":{"isOpen":true,"periods":[{"open":480,"close":720}]}},"original":"Mo-Fr 08:00-18:00; Sa 08:00-12:00"}},{"id":"fuel_732717472","lat":49.351993,"lon":10.6189357,"name":"Hartig Automobil Service","city":"Weihenzell-Neumühle","category":"other","tags":[],"gplace_id":"not_found","hours":{"type":"unknown"}},{"id":"fuel_732717607","lat":49.2478281,"lon":10.4189552,"name":"Esso","city":"Aurach","category":"tankstelle","tags":[],"opening_hours":"Mo-Fr 06:30-19:00; Sa 07:30-18:00; Su 10:00-18:00","operator":"Esso","hours":{"type":"weekly","weekly":{"0":{"isOpen":true,"periods":[{"open":600,"close":1080}]},"1":{"isOpen":true,"periods":[{"open":390,"close":1140}]},"2":{"isOpen":true,"periods":[{"open":390,"close":1140}]},"3":{"isOpen":true,"periods":[{"open":390,"close":1140}]},"4":{"isOpen":true,"periods":[{"open":390,"close":1140}]},"5":{"isOpen":true,"periods":[{"open":390,"close":1140}]},"6":{"isOpen":true,"periods":[{"open":450,"close":1080}]}},"original":"Mo-Fr 06:30-19:00; Sa 07:30-18:00; Su 10:00-18:00"}},{"id":"fuel_732717639","lat":49.0581228,"lon":10.7949403,"name":"Autohaus Oster","city":"Dittenheim","category":"other","tags":[],"opening_hours":"Mo 07:00-18:00; Tu 07:00-18:00; We 07:00-18:00; Th 07:00-18:00; Fr 07:00-18:00; Sa 08:00-12:00","gplace_id":"ChIJsax5qv4yn0cRJeVpGgtxu8c","hours":{"type":"weekly","weekly":{"0":{"isOpen":false,"periods":[]},"1":{"isOpen":true,"periods":[{"open":420,"close":1080}]},"2":{"isOpen":true,"periods":[{"open":420,"close":1080}]},"3":{"isOpen":true,"periods":[{"open":420,"close":1080}]},"4":{"isOpen":true,"periods":[{"open":420,"close":1080}]},"5":{"isOpen":true,"periods":[{"open":420,"close":1080}]},"6":{"isOpen":true,"periods":[{"open":480,"close":720}]}},"original":"Mo 07:00-18:00; Tu 07:00-18:00; We 07:00-18:00; Th 07:00-18:00; Fr 07:00-18:00; Sa 08:00-12:00"}},{"id":"fuel_732717775","lat":49.5600039,"lon":10.5405041,"name":"Fa. Helmut Eitel","city":"Dietersheim","category":"other","tags":[],"gplace_id":"not_found","hours":{"type":"unknown"}},{"id":"fuel_733863639","lat":49.0256118,"lon":10.3898323,"name":"Shell","city":"","category":"tankstelle","tags":[],"opening_hours":"Su 09:00-12:00,14:00-18:00; Mo 07:00-19:30; Tu 07:00-19:30; We 07:00-19:30; Th 07:00-19:30; Fr 07:00-19:30; Sa 07:30-18:00","gplace_id":"ChIJpX6wNvPcmEcRhpCqDZiu9wk","hours":{"type":"weekly","weekly":{"0":{"isOpen":true,"periods":[{"open":540,"close":720},{"open":840,"close":1080}]},"1":{"isOpen":true,"periods":[{"open":420,"close":1170}]},"2":{"isOpen":true,"periods":[{"open":420,"close":1170}]},"3":{"isOpen":true,"periods":[{"open":420,"close":1170}]},"4":{"isOpen":true,"periods":[{"open":420,"close":1170}]},"5":{"isOpen":true,"periods":[{"open":420,"close":1170}]},"6":{"isOpen":true,"periods":[{"open":450,"close":1080}]}},"original":"Su 09:00-12:00,14:00-18:00; Mo 07:00-19:30; Tu 07:00-19:30; We 07:00-19:30; Th 07:00-19:30; Fr 07:00-19:30; Sa 07:30-18:00"}},{"id":"fuel_833417143","lat":49.0128729,"lon":10.7392989,"name":"Jägs Auto Service","city":"","category":"other","tags":[],"opening_hours":"Su 00:00+","gplace_id":"ChIJIy_3ItMtn0cRMjOuSJOLbQU","hours":{"type":"unknown","original":"Su 00:00+"}},{"id":"fuel_855101971","lat":49.4090953,"lon":10.6807215,"name":"Tank&Wasch","city":"","category":"tankstelle","tags":[],"opening_hours":"Mo-Sa 06:00-19:00; Su 06:00-18:00","hours":{"type":"weekly","weekly":{"0":{"isOpen":true,"periods":[{"open":360,"close":1080}]},"1":{"isOpen":true,"periods":[{"open":360,"close":1140}]},"2":{"isOpen":true,"periods":[{"open":360,"close":1140}]},"3":{"isOpen":true,"periods":[{"open":360,"close":1140}]},"4":{"isOpen":true,"periods":[{"open":360,"close":1140}]},"5":{"isOpen":true,"periods":[{"open":360,"close":1140}]},"6":{"isOpen":true,"periods":[{"open":360,"close":1140}]}},"original":"Mo-Sa 06:00-19:00; Su 06:00-18:00"}},{"id":"fuel_898028343","lat":49.6978647,"lon":10.8028519,"name":"Aral","city":"Höchstadt an der Aisch","category":"tankstelle","tags":[],"opening_hours":"24/7","operator":"Aral","hours":{"type":"24_7"}},{"id":"fuel_905569005","lat":49.8307421,"lon":10.9298848,"name":"Schubert","city":"","category":"other","tags":[],"operator":"Independent","gplace_id":"not_found","hours":{"type":"unknown"}},{"id":"fuel_956179404","lat":49.4026338,"lon":10.7901416,"name":"Weber","city":"Großhabersdorf","category":"other","tags":[],"operator":"Weber","opening_hours":"Su 00:00+","gplace_id":"ChIJKVweZTqsmEcRUwk4TQUED5E","hours":{"type":"unknown","original":"Su 00:00+"}},{"id":"fuel_982717830","lat":49.4397078,"lon":10.7980109,"name":"Weckerlein","city":"","category":"other","tags":[],"opening_hours":"24/7","hours":{"type":"24_7"}},{"id":"fuel_1033751180","lat":49.1285564,"lon":10.0450537,"name":"Utz","city":"","category":"other","tags":[],"operator":"Otto Utz Mineralöl-Vertriebsgesellschaft mbH","gplace_id":"not_found","hours":{"type":"unknown"}},{"id":"fuel_1288661941","lat":49.7942091,"lon":10.8832213,"name":"Pflefka","city":"","category":"other","tags":[],"operator":"Independent","gplace_id":"ChIJyYAGuwIZokcR43yVF1RdazM","hours":{"type":"unknown"}},{"id":"fuel_1324132958","lat":49.1719957,"lon":10.0765703,"name":"Independent","city":"","category":"other","tags":[],"operator":"Independent","opening_hours":"Su 00:00+","gplace_id":"ChIJvVwWq9_zmEcRqPC2ykyOOrQ","hours":{"type":"unknown","original":"Su 00:00+"}},{"id":"fuel_1326875301","lat":49.4592173,"lon":10.6486562,"name":"Autohaus Scheuenstuhl","city":"","category":"other","tags":[],"opening_hours":"Mo-Fr 06:45-19:00,07:45-15:00","operator":"Fam. Scheuenstuhl","hours":{"type":"weekly","weekly":{"0":{"isOpen":false,"periods":[]},"1":{"isOpen":true,"periods":[{"open":405,"close":1140},{"open":465,"close":900}]},"2":{"isOpen":true,"periods":[{"open":405,"close":1140},{"open":465,"close":900}]},"3":{"isOpen":true,"periods":[{"open":405,"close":1140},{"open":465,"close":900}]},"4":{"isOpen":true,"periods":[{"open":405,"close":1140},{"open":465,"close":900}]},"5":{"isOpen":true,"periods":[{"open":405,"close":1140},{"open":465,"close":900}]},"6":{"isOpen":false,"periods":[]}},"original":"Mo-Fr 06:45-19:00,07:45-15:00"}},{"id":"fuel_1326875347","lat":49.4573888,"lon":10.644298,"name":"Autohaus Grünbaum","city":"","category":"other","tags":[],"operator":"Fam. Grünbaum","opening_hours":"Su 09:00-12:00; Mo 06:30-18:30; Tu 06:30-18:30; We 06:30-18:30; Th 06:30-18:30; Fr 06:30-18:30; Sa 07:00-15:00","gplace_id":"ChIJ1342P2WmmEcRmQdqgjnTv-0","hours":{"type":"weekly","weekly":{"0":{"isOpen":true,"periods":[{"open":540,"close":720}]},"1":{"isOpen":true,"periods":[{"open":390,"close":1110}]},"2":{"isOpen":true,"periods":[{"open":390,"close":1110}]},"3":{"isOpen":true,"periods":[{"open":390,"close":1110}]},"4":{"isOpen":true,"periods":[{"open":390,"close":1110}]},"5":{"isOpen":true,"periods":[{"open":390,"close":1110}]},"6":{"isOpen":true,"periods":[{"open":420,"close":900}]}},"original":"Su 09:00-12:00; Mo 06:30-18:30; Tu 06:30-18:30; We 06:30-18:30; Th 06:30-18:30; Fr 06:30-18:30; Sa 07:00-15:00"}},{"id":"fuel_1341086010","lat":49.3856544,"lon":10.0692139,"name":"Tankstelle","city":"","category":"tankstelle","tags":[],"opening_hours":"Su 00:00+","gplace_id":"ChIJY5EaGFiImEcR1RI_AzxDg1U","hours":{"type":"unknown","original":"Su 00:00+"}},{"id":"fuel_1354690996","lat":49.46408,"lon":10.9878222,"name":"Aral","city":"Fürth","category":"tankstelle","tags":["barrierefrei","google_wc_accessible"],"opening_hours":"24/7","operator":"Kathrin Gerhardt","hours":{"type":"24_7"}},{"id":"fuel_1433451469","lat":49.8886867,"lon":10.5551418,"name":"Tankstelle","city":"","category":"tankstelle","tags":[],"opening_hours":"Su 00:00+","gplace_id":"ChIJjZjim79BokcRXCUXT1uS5-k","hours":{"type":"unknown","original":"Su 00:00+"}},{"id":"fuel_1557216008","lat":49.8866549,"lon":10.9219279,"name":"Bavaria Petrol","city":"Bamberg","category":"tankstelle","tags":["barrierefrei","google_wc_accessible"],"opening_hours":"24/7","operator":"Bavaria-Petrol","hours":{"type":"24_7"}},{"id":"fuel_1587066285","lat":49.2489892,"lon":10.2636545,"name":"Q8","city":"","category":"other","tags":[],"operator":"Hofmann","opening_hours":"Su 08:00-20:00; Mo 06:00-20:00; Tu 06:00-20:00; We 06:00-20:00; Th 06:00-20:00; Fr 06:00-20:00; Sa 07:00-20:00","gplace_id":"ChIJqaqqHkeTmEcRfHWtq8OM-zc","hours":{"type":"weekly","weekly":{"0":{"isOpen":true,"periods":[{"open":480,"close":1200}]},"1":{"isOpen":true,"periods":[{"open":360,"close":1200}]},"2":{"isOpen":true,"periods":[{"open":360,"close":1200}]},"3":{"isOpen":true,"periods":[{"open":360,"close":1200}]},"4":{"isOpen":true,"periods":[{"open":360,"close":1200}]},"5":{"isOpen":true,"periods":[{"open":360,"close":1200}]},"6":{"isOpen":true,"periods":[{"open":420,"close":1200}]}},"original":"Su 08:00-20:00; Mo 06:00-20:00; Tu 06:00-20:00; We 06:00-20:00; Th 06:00-20:00; Fr 06:00-20:00; Sa 07:00-20:00"}},{"id":"fuel_1596090688","lat":49.4491506,"lon":10.9629402,"name":"Agip","city":"Zirndorf","category":"tankstelle","tags":[],"operator":"Agip","opening_hours":"Su 06:00-22:00; Mo 06:00-22:00; Tu 06:00-22:00; We 06:00-22:00; Th 06:00-22:00; Fr 06:00-22:00; Sa 06:00-22:00","gplace_id":"ChIJndln-lBUn0cRL_r4sDdoROI","hours":{"type":"weekly","weekly":{"0":{"isOpen":true,"periods":[{"open":360,"close":1320}]},"1":{"isOpen":true,"periods":[{"open":360,"close":1320}]},"2":{"isOpen":true,"periods":[{"open":360,"close":1320}]},"3":{"isOpen":true,"periods":[{"open":360,"close":1320}]},"4":{"isOpen":true,"periods":[{"open":360,"close":1320}]},"5":{"isOpen":true,"periods":[{"open":360,"close":1320}]},"6":{"isOpen":true,"periods":[{"open":360,"close":1320}]}},"original":"Su 06:00-22:00; Mo 06:00-22:00; Tu 06:00-22:00; We 06:00-22:00; Th 06:00-22:00; Fr 06:00-22:00; Sa 06:00-22:00"}},{"id":"fuel_1597492529","lat":49.5664597,"lon":10.893276,"name":"Esso","city":"Herzogenaurach","category":"tankstelle","tags":[],"opening_hours":"Mo-Sa 05:00-24:00, Su,PH 07:00-23:00","operator":"Didem Geyik","hours":{"type":"weekly","weekly":{"0":{"isOpen":false,"periods":[]},"1":{"isOpen":true,"periods":[{"open":300,"close":1440},{"open":420,"close":1380}]},"2":{"isOpen":true,"periods":[{"open":300,"close":1440},{"open":420,"close":1380}]},"3":{"isOpen":true,"periods":[{"open":300,"close":1440},{"open":420,"close":1380}]},"4":{"isOpen":true,"periods":[{"open":300,"close":1440},{"open":420,"close":1380}]},"5":{"isOpen":true,"periods":[{"open":300,"close":1440},{"open":420,"close":1380}]},"6":{"isOpen":true,"periods":[{"open":300,"close":1440},{"open":420,"close":1380}]}},"original":"Mo-Sa 05:00-24:00, Su,PH 07:00-23:00"}},{"id":"fuel_1598727351","lat":49.4839586,"lon":10.9592384,"name":"Supol","city":"Fürth","category":"other","tags":["barrierefrei","google_wc_accessible"],"opening_hours":"Mo-Fr 06:00-23:59; Sa 07:00-23:59; Su 08:00-23:59","operator":"Cafer Sahin","hours":{"type":"weekly","weekly":{"0":{"isOpen":true,"periods":[{"open":480,"close":1439}]},"1":{"isOpen":true,"periods":[{"open":360,"close":1439}]},"2":{"isOpen":true,"periods":[{"open":360,"close":1439}]},"3":{"isOpen":true,"periods":[{"open":360,"close":1439}]},"4":{"isOpen":true,"periods":[{"open":360,"close":1439}]},"5":{"isOpen":true,"periods":[{"open":360,"close":1439}]},"6":{"isOpen":true,"periods":[{"open":420,"close":1439}]}},"original":"Mo-Fr 06:00-23:59; Sa 07:00-23:59; Su 08:00-23:59"}},{"id":"fuel_1602194997","lat":49.1815465,"lon":10.0690996,"name":"Esso","city":"Satteldorf","category":"tankstelle","tags":[],"opening_hours":"24/7","operator":"Euro-Rast-Park Satteldorf","hours":{"type":"24_7"}},{"id":"fuel_1605231333","lat":49.5198667,"lon":10.4721166,"name":"Tankstelle","city":"","category":"tankstelle","tags":[],"operator":"Avia","opening_hours":"Su 00:00+","gplace_id":"ChIJpeOaN5SfmEcRoOlYjEA-oLI","hours":{"type":"unknown","original":"Su 00:00+"}},{"id":"fuel_1606424365","lat":49.4799029,"lon":10.97503,"name":"Jet","city":"Fürth","category":"tankstelle","tags":["barrierefrei","google_wc_accessible"],"opening_hours":"Mo-Su 05:00-23:00","operator":"Nicole A. Schneider","hours":{"type":"weekly","weekly":{"0":{"isOpen":true,"periods":[{"open":300,"close":1380}]},"1":{"isOpen":true,"periods":[{"open":300,"close":1380}]},"2":{"isOpen":true,"periods":[{"open":300,"close":1380}]},"3":{"isOpen":true,"periods":[{"open":300,"close":1380}]},"4":{"isOpen":true,"periods":[{"open":300,"close":1380}]},"5":{"isOpen":true,"periods":[{"open":300,"close":1380}]},"6":{"isOpen":true,"periods":[{"open":300,"close":1380}]}},"original":"Mo-Su 05:00-23:00"}},{"id":"fuel_1606648205","lat":49.2413401,"lon":10.3545461,"name":"Total","city":"","category":"tankstelle","tags":["autobahn","a6","toilette","tankstelle","raststätte","sanifair","barrierefrei","kostenpflichtig"],"opening_hours":"24/7","operator":"Total","hours":{"type":"24_7"},"fee":"yes"},{"id":"fuel_1606648517","lat":49.2423907,"lon":10.3545834,"name":"Agip","city":"","category":"tankstelle","tags":["autobahn","a6","toilette","tankstelle","raststätte","dusche"],"opening_hours":"24/7","hours":{"type":"24_7"},"operator":"Tank & Rast"},{"id":"fuel_1618989054","lat":49.4832614,"lon":10.7252941,"name":"TotalEnergies","city":"Wilhelmsdort","category":"tankstelle","tags":[],"opening_hours":"Mo-Fr 06:00-22:00; Sa 07:00-22:00; PH,Su 08:00-22:00","operator":"TotalEnergies","hours":{"type":"weekly","weekly":{"0":{"isOpen":true,"periods":[{"open":480,"close":1320}]},"1":{"isOpen":true,"periods":[{"open":360,"close":1320}]},"2":{"isOpen":true,"periods":[{"open":360,"close":1320}]},"3":{"isOpen":true,"periods":[{"open":360,"close":1320}]},"4":{"isOpen":true,"periods":[{"open":360,"close":1320}]},"5":{"isOpen":true,"periods":[{"open":360,"close":1320}]},"6":{"isOpen":true,"periods":[{"open":420,"close":1320}]}},"original":"Mo-Fr 06:00-22:00; Sa 07:00-22:00; PH,Su 08:00-22:00"}},{"id":"fuel_1620157243","lat":49.5176451,"lon":10.7237768,"name":"Tankstelle Schühlein","city":"Emskirchen","category":"tankstelle","tags":[],"operator":"Schühlein Landtechnik","opening_hours":"Su 00:00+","gplace_id":"ChIJG9tDzxyomEcRjfnRgSS3DcY","hours":{"type":"unknown","original":"Su 00:00+"}},{"id":"fuel_1620157508","lat":49.5368551,"lon":10.7655232,"name":"Freie Tankstelle","city":"","category":"tankstelle","tags":[],"opening_hours":"Mo 07:00-19:00; Tu 07:00-19:00; We 07:00-19:00; Th 07:00-19:00; Fr 07:00-19:00; Sa 08:00-12:00","gplace_id":"ChIJa46NQ58HokcRGBBWFAlrG-c","hours":{"type":"weekly","weekly":{"0":{"isOpen":false,"periods":[]},"1":{"isOpen":true,"periods":[{"open":420,"close":1140}]},"2":{"isOpen":true,"periods":[{"open":420,"close":1140}]},"3":{"isOpen":true,"periods":[{"open":420,"close":1140}]},"4":{"isOpen":true,"periods":[{"open":420,"close":1140}]},"5":{"isOpen":true,"periods":[{"open":420,"close":1140}]},"6":{"isOpen":true,"periods":[{"open":480,"close":720}]}},"original":"Mo 07:00-19:00; Tu 07:00-19:00; We 07:00-19:00; Th 07:00-19:00; Fr 07:00-19:00; Sa 08:00-12:00"}},{"id":"fuel_1639325332","lat":49.5930013,"lon":10.9699241,"name":"Aral","city":"","category":"tankstelle","tags":[],"operator":"Aral","opening_hours":"Su 00:00+","gplace_id":"ChIJ4XQe0br4oUcRnFC6plg382M","hours":{"type":"unknown","original":"Su 00:00+"}},{"id":"fuel_1641956878","lat":49.1566065,"lon":10.3286971,"name":"ESSO","city":"Feuchtwangen","category":"tankstelle","tags":[],"opening_hours":"24/7","operator":"Esso","hours":{"type":"24_7"}},{"id":"fuel_1641956889","lat":49.163672,"lon":10.3274692,"name":"Jet","city":"Feuchtwangen","category":"tankstelle","tags":[],"opening_hours":"Mo-Fr 05:00-23:00; Sa 07:00-23:00; Su,PH 08:00-23:00","operator":"JET","hours":{"type":"weekly","weekly":{"0":{"isOpen":true,"periods":[{"open":480,"close":1380}]},"1":{"isOpen":true,"periods":[{"open":300,"close":1380}]},"2":{"isOpen":true,"periods":[{"open":300,"close":1380}]},"3":{"isOpen":true,"periods":[{"open":300,"close":1380}]},"4":{"isOpen":true,"periods":[{"open":300,"close":1380}]},"5":{"isOpen":true,"periods":[{"open":300,"close":1380}]},"6":{"isOpen":true,"periods":[{"open":420,"close":1380}]}},"original":"Mo-Fr 05:00-23:00; Sa 07:00-23:00; Su,PH 08:00-23:00"}},{"id":"fuel_1668388933","lat":49.1774871,"lon":10.91805,"name":"Esso","city":"Spalt","category":"tankstelle","tags":[],"opening_hours":"24/7","operator":"Esso","hours":{"type":"24_7"}},{"id":"fuel_1692296685","lat":49.354217,"lon":10.409837,"name":"Tankstelle","city":"Colmberg","category":"tankstelle","tags":[],"opening_hours":"Mo-Fr 07:00-18:00, Sa 08:00-13:00 \"außerhalb der Öffnungszeiten Tankautomat\"","operator":"Chorbacher","hours":{"type":"unknown","original":"Mo-Fr 07:00-18:00, Sa 08:00-13:00 \"außerhalb der Öffnungszeiten Tankautomat\""}},{"id":"fuel_1694292427","lat":49.3783844,"lon":10.1912615,"name":"BayWa","city":"Rothenburg ob der Tauber","category":"other","tags":[],"opening_hours":"24/7","operator":"BayWa AG Rothenburg o.d.T.","hours":{"type":"24_7"}},{"id":"fuel_1709958910","lat":49.7329219,"lon":10.1721932,"name":"E-Center Tankstelle","city":"","category":"tankstelle","tags":[],"opening_hours":"24/7","operator":"Edeka","hours":{"type":"24_7"}},{"id":"fuel_1711158574","lat":49.5233547,"lon":10.7493652,"name":"Freie Tankstelle","city":"Hagenbüchach","category":"tankstelle","tags":[],"opening_hours":"24/7","operator":"Schöllmann Landtechnik GmbH","hours":{"type":"24_7"}},{"id":"fuel_1750016653","lat":49.5840937,"lon":10.6166528,"name":"Aral","city":"","category":"tankstelle","tags":[],"operator":"Aral","opening_hours":"Su 08:00-22:00; Mo 06:00-22:00; Tu 06:00-22:00; We 06:00-22:00; Th 06:00-22:00; Fr 06:00-22:00; Sa 08:00-22:00","gplace_id":"ChIJZWtBX9oLokcRnOKkie6dj5M","hours":{"type":"weekly","weekly":{"0":{"isOpen":true,"periods":[{"open":480,"close":1320}]},"1":{"isOpen":true,"periods":[{"open":360,"close":1320}]},"2":{"isOpen":true,"periods":[{"open":360,"close":1320}]},"3":{"isOpen":true,"periods":[{"open":360,"close":1320}]},"4":{"isOpen":true,"periods":[{"open":360,"close":1320}]},"5":{"isOpen":true,"periods":[{"open":360,"close":1320}]},"6":{"isOpen":true,"periods":[{"open":480,"close":1320}]}},"original":"Su 08:00-22:00; Mo 06:00-22:00; Tu 06:00-22:00; We 06:00-22:00; Th 06:00-22:00; Fr 06:00-22:00; Sa 08:00-22:00"}},{"id":"fuel_1786236009","lat":49.1689604,"lon":10.3228347,"name":"Avia","city":"Feuchtwangen","category":"tankstelle","tags":[],"operator":"Avia","opening_hours":"Su 00:00+","gplace_id":"ChIJEVj_lqDrmEcR8Hn8lzXJIQ4","hours":{"type":"unknown","original":"Su 00:00+"}},{"id":"fuel_1923956777","lat":49.9117229,"lon":10.0015277,"name":"24-Shell-Autohof Gramschatzer Wald","city":"","category":"tankstelle","tags":[],"opening_hours":"24/7","operator":"Shell","hours":{"type":"24_7"}},{"id":"fuel_2146392456","lat":49.8589085,"lon":10.2328418,"name":"Autoservice Mohaupt","city":"","category":"other","tags":[],"operator":"ASM Autoservice Mohaupt","opening_hours":"Mo 07:00-19:00; Tu 07:00-19:00; We 07:00-19:00; Th 07:00-19:00; Fr 07:00-19:00; Sa 07:00-17:00","gplace_id":"ChIJMS06M1JgokcRrUzgvhohQ-8","hours":{"type":"weekly","weekly":{"0":{"isOpen":false,"periods":[]},"1":{"isOpen":true,"periods":[{"open":420,"close":1140}]},"2":{"isOpen":true,"periods":[{"open":420,"close":1140}]},"3":{"isOpen":true,"periods":[{"open":420,"close":1140}]},"4":{"isOpen":true,"periods":[{"open":420,"close":1140}]},"5":{"isOpen":true,"periods":[{"open":420,"close":1140}]},"6":{"isOpen":true,"periods":[{"open":420,"close":1020}]}},"original":"Mo 07:00-19:00; Tu 07:00-19:00; We 07:00-19:00; Th 07:00-19:00; Fr 07:00-19:00; Sa 07:00-17:00"}},{"id":"fuel_2234280450","lat":49.1719103,"lon":10.2459445,"name":"Tankstelle","city":"","category":"tankstelle","tags":[],"gplace_id":"not_found","hours":{"type":"unknown"}},{"id":"fuel_2317719565","lat":49.3359747,"lon":10.6038446,"name":"Tankstelle","city":"","category":"tankstelle","tags":[],"operator":"Meier Mineralöle","gplace_id":"ChIJ0cHDzvG6mEcRDAep2fQuJHA","hours":{"type":"unknown"}},{"id":"fuel_2346173082","lat":49.6624031,"lon":10.0669132,"name":"E-Center","city":"Ochsenfurt","category":"other","tags":[],"operator":"TBG","gplace_id":"ChIJO9QxydSAokcRm_FFuQ9tF4I","hours":{"type":"unknown"}},{"id":"fuel_2392227626","lat":49.2524333,"lon":10.434494,"name":"Total","city":"","category":"tankstelle","tags":[],"operator":"Total","opening_hours":"Su 00:00+","gplace_id":"ChIJm4BBgLi_mEcRT7PEoIQH9Dk","hours":{"type":"unknown","original":"Su 00:00+"}},{"id":"fuel_2505989230","lat":49.4149571,"lon":10.4227372,"name":"Arold (Classic Tankstelle)","city":"","category":"tankstelle","tags":[],"opening_hours":"Su 00:00+","gplace_id":"ChIJ2z9jTUOYmEcRbMUrUrPFi7A","hours":{"type":"unknown","original":"Su 00:00+"}},{"id":"fuel_2512601080","lat":49.5784494,"lon":10.9220267,"name":"tankpool24","city":"Herzogenaurach","category":"tankstelle","tags":[],"opening_hours":"24/7","operator":"tankpool24","hours":{"type":"24_7"}},{"id":"fuel_2612117699","lat":49.1990935,"lon":10.1750929,"name":"Avia","city":"Schnelldorf","category":"tankstelle","tags":[],"operator":"Rainer Ackermann","opening_hours":"Su 10:00-13:30,17:30-19:00; Mo 07:30-20:00; Tu 07:30-20:00; We 07:30-20:00; Th 07:30-20:00; Fr 07:30-20:00; Sa 08:00-19:00","gplace_id":"ChIJjxwAKIPtmEcRqAukoT0a54s","hours":{"type":"weekly","weekly":{"0":{"isOpen":true,"periods":[{"open":600,"close":810},{"open":1050,"close":1140}]},"1":{"isOpen":true,"periods":[{"open":450,"close":1200}]},"2":{"isOpen":true,"periods":[{"open":450,"close":1200}]},"3":{"isOpen":true,"periods":[{"open":450,"close":1200}]},"4":{"isOpen":true,"periods":[{"open":450,"close":1200}]},"5":{"isOpen":true,"periods":[{"open":450,"close":1200}]},"6":{"isOpen":true,"periods":[{"open":480,"close":1140}]}},"original":"Su 10:00-13:30,17:30-19:00; Mo 07:30-20:00; Tu 07:30-20:00; We 07:30-20:00; Th 07:30-20:00; Fr 07:30-20:00; Sa 08:00-19:00"}},{"id":"fuel_2614518898","lat":49.9477989,"lon":10.5986173,"name":"E-Tankstelle","city":"","category":"tankstelle","tags":[],"gplace_id":"not_found","hours":{"type":"unknown"}},{"id":"fuel_2629425282","lat":49.2366417,"lon":10.9548743,"name":"Avia Xpress","city":"","category":"tankstelle","tags":[],"opening_hours":"24/7","hours":{"type":"24_7"}},{"id":"fuel_2820930203","lat":49.5102289,"lon":10.1957577,"name":"Shell","city":"Uffenheim","category":"tankstelle","tags":[],"opening_hours":"24/7","operator":"Shell","hours":{"type":"24_7"}},{"id":"fuel_2883023355","lat":49.7744941,"lon":10.464809,"name":"Tankstelle Wagner/DBV","city":"","category":"tankstelle","tags":[],"operator":"Independent","opening_hours":"Su 00:00+","gplace_id":"ChIJY5_HVLxuokcRu5e4zs6yNB0","hours":{"type":"unknown","original":"Su 00:00+"}},{"id":"fuel_3277414435","lat":49.6864615,"lon":10.1440029,"name":"HEM Marktsteft","city":"Marktsteft","category":"tankstelle","tags":[],"operator":"HEM","opening_hours":"Su 08:00-22:00; Mo 06:00-22:00; Tu 06:00-22:00; We 06:00-22:00; Th 06:00-22:00; Fr 06:00-22:00; Sa 06:00-22:00","gplace_id":"ChIJkdzzelV9okcRU_z86tTBUqg","hours":{"type":"weekly","weekly":{"0":{"isOpen":true,"periods":[{"open":480,"close":1320}]},"1":{"isOpen":true,"periods":[{"open":360,"close":1320}]},"2":{"isOpen":true,"periods":[{"open":360,"close":1320}]},"3":{"isOpen":true,"periods":[{"open":360,"close":1320}]},"4":{"isOpen":true,"periods":[{"open":360,"close":1320}]},"5":{"isOpen":true,"periods":[{"open":360,"close":1320}]},"6":{"isOpen":true,"periods":[{"open":360,"close":1320}]}},"original":"Su 08:00-22:00; Mo 06:00-22:00; Tu 06:00-22:00; We 06:00-22:00; Th 06:00-22:00; Fr 06:00-22:00; Sa 06:00-22:00"}},{"id":"fuel_3277492429","lat":49.6688689,"lon":10.0487876,"name":"Wengel u. Dettelbacher","city":"Ochsenfurt","category":"other","tags":[],"opening_hours":"Mo 08:00-17:00; Tu 08:00-17:00; We 08:00-17:00; Th 08:00-17:00; Fr 08:00-17:00","gplace_id":"ChIJfWdp8jCBokcRYRtX1hRToyQ","hours":{"type":"weekly","weekly":{"0":{"isOpen":false,"periods":[]},"1":{"isOpen":true,"periods":[{"open":480,"close":1020}]},"2":{"isOpen":true,"periods":[{"open":480,"close":1020}]},"3":{"isOpen":true,"periods":[{"open":480,"close":1020}]},"4":{"isOpen":true,"periods":[{"open":480,"close":1020}]},"5":{"isOpen":true,"periods":[{"open":480,"close":1020}]},"6":{"isOpen":false,"periods":[]}},"original":"Mo 08:00-17:00; Tu 08:00-17:00; We 08:00-17:00; Th 08:00-17:00; Fr 08:00-17:00"}},{"id":"fuel_3304882687","lat":49.7310657,"lon":10.6143893,"name":"DBV","city":"","category":"other","tags":[],"opening_hours":"24/7","operator":"Bauer","hours":{"type":"24_7"}},{"id":"fuel_3477020737","lat":49.3102129,"lon":10.560201,"name":"JET","city":"","category":"tankstelle","tags":[],"opening_hours":"Mo-Fr 06:00-24:00; Sa 07:00-24:00; Su 08:00-24:00","operator":"Detlef Schneider","hours":{"type":"weekly","weekly":{"0":{"isOpen":true,"periods":[{"open":480,"close":1440}]},"1":{"isOpen":true,"periods":[{"open":360,"close":1440}]},"2":{"isOpen":true,"periods":[{"open":360,"close":1440}]},"3":{"isOpen":true,"periods":[{"open":360,"close":1440}]},"4":{"isOpen":true,"periods":[{"open":360,"close":1440}]},"5":{"isOpen":true,"periods":[{"open":360,"close":1440}]},"6":{"isOpen":true,"periods":[{"open":420,"close":1440}]}},"original":"Mo-Fr 06:00-24:00; Sa 07:00-24:00; Su 08:00-24:00"}},{"id":"fuel_3587520102","lat":49.4586015,"lon":10.5357461,"name":"DBV","city":"","category":"other","tags":[],"operator":"DBV","gplace_id":"not_found","hours":{"type":"unknown"}},{"id":"fuel_3630794860","lat":49.5857055,"lon":10.1754441,"name":"Eni","city":"Ippesheim","category":"tankstelle","tags":[],"opening_hours":"24/7","operator":"Wilfried Trautmann","hours":{"type":"24_7"}},{"id":"fuel_3633694235","lat":49.2592124,"lon":10.2355472,"name":"Shell","city":"Wörnitz","category":"tankstelle","tags":[],"opening_hours":"24/7","operator":"Shell","hours":{"type":"24_7"}},{"id":"fuel_3653353944","lat":49.4261703,"lon":10.9806671,"name":"Avia","city":"","category":"tankstelle","tags":[],"opening_hours":"Mo-Fr 06:00-21:00; Sa 07:00-21:00; Su 08:00-21:00","operator":"Avia","hours":{"type":"weekly","weekly":{"0":{"isOpen":true,"periods":[{"open":480,"close":1260}]},"1":{"isOpen":true,"periods":[{"open":360,"close":1260}]},"2":{"isOpen":true,"periods":[{"open":360,"close":1260}]},"3":{"isOpen":true,"periods":[{"open":360,"close":1260}]},"4":{"isOpen":true,"periods":[{"open":360,"close":1260}]},"5":{"isOpen":true,"periods":[{"open":360,"close":1260}]},"6":{"isOpen":true,"periods":[{"open":420,"close":1260}]}},"original":"Mo-Fr 06:00-21:00; Sa 07:00-21:00; Su 08:00-21:00"}},{"id":"fuel_3873725711","lat":49.6609015,"lon":10.9187139,"name":"Pickelmann","city":"Röttenbach","category":"other","tags":[],"opening_hours":"24/7","operator":"Alexander Zöllner","hours":{"type":"24_7"}},{"id":"fuel_3922204824","lat":49.492579,"lon":10.9236943,"name":"Georg Roth - Beriebs-Tankstelle","city":"","category":"tankstelle","tags":[],"gplace_id":"not_found","hours":{"type":"unknown"}},{"id":"fuel_3944758420","lat":49.9518003,"lon":10.262972,"name":"Raiffeisen","city":"Kolitzheim","category":"tankstelle","tags":[],"opening_hours":"24/7","hours":{"type":"24_7"}},{"id":"fuel_4144108984","lat":49.9713032,"lon":10.6705657,"name":"Aral","city":"","category":"tankstelle","tags":[],"operator":"Aral","opening_hours":"Su 10:00-20:00; Mo 07:00-20:00; Tu 07:00-20:00; We 07:00-20:00; Th 07:00-20:00; Fr 07:00-20:00; Sa 08:00-20:00","gplace_id":"ChIJDzO6QIM4okcRoOnouexDWSM","hours":{"type":"weekly","weekly":{"0":{"isOpen":true,"periods":[{"open":600,"close":1200}]},"1":{"isOpen":true,"periods":[{"open":420,"close":1200}]},"2":{"isOpen":true,"periods":[{"open":420,"close":1200}]},"3":{"isOpen":true,"periods":[{"open":420,"close":1200}]},"4":{"isOpen":true,"periods":[{"open":420,"close":1200}]},"5":{"isOpen":true,"periods":[{"open":420,"close":1200}]},"6":{"isOpen":true,"periods":[{"open":480,"close":1200}]}},"original":"Su 10:00-20:00; Mo 07:00-20:00; Tu 07:00-20:00; We 07:00-20:00; Th 07:00-20:00; Fr 07:00-20:00; Sa 08:00-20:00"}},{"id":"fuel_4144108985","lat":49.9722157,"lon":10.6679908,"name":"Mühaupt","city":"","category":"tankstelle","tags":[],"operator":"Avia","opening_hours":"Su 00:00+","gplace_id":"ChIJMXBLx1E5okcRBOh6DLSv_N4","hours":{"type":"unknown","original":"Su 00:00+"}},{"id":"fuel_4241754421","lat":49.2472757,"lon":10.0286275,"name":"Aral","city":"","category":"tankstelle","tags":[],"operator":"Aral","opening_hours":"Su 09:00-19:00; Mo 07:00-19:00; Tu 07:00-19:00; We 07:00-19:00; Th 07:00-19:00; Fr 07:00-19:00; Sa 07:30-19:00","gplace_id":"ChIJT7Cc2tD0mEcRvMpE5XBmNYE","hours":{"type":"weekly","weekly":{"0":{"isOpen":true,"periods":[{"open":540,"close":1140}]},"1":{"isOpen":true,"periods":[{"open":420,"close":1140}]},"2":{"isOpen":true,"periods":[{"open":420,"close":1140}]},"3":{"isOpen":true,"periods":[{"open":420,"close":1140}]},"4":{"isOpen":true,"periods":[{"open":420,"close":1140}]},"5":{"isOpen":true,"periods":[{"open":420,"close":1140}]},"6":{"isOpen":true,"periods":[{"open":450,"close":1140}]}},"original":"Su 09:00-19:00; Mo 07:00-19:00; Tu 07:00-19:00; We 07:00-19:00; Th 07:00-19:00; Fr 07:00-19:00; Sa 07:30-19:00"}},{"id":"fuel_4350647538","lat":49.3686654,"lon":10.1835892,"name":"Shell","city":"","category":"tankstelle","tags":[],"opening_hours":"Mo-Fr 05:00-23:00; Sa 06:00-23:00; Su 07:00-23:00","operator":"Christian Kant","hours":{"type":"weekly","weekly":{"0":{"isOpen":true,"periods":[{"open":420,"close":1380}]},"1":{"isOpen":true,"periods":[{"open":300,"close":1380}]},"2":{"isOpen":true,"periods":[{"open":300,"close":1380}]},"3":{"isOpen":true,"periods":[{"open":300,"close":1380}]},"4":{"isOpen":true,"periods":[{"open":300,"close":1380}]},"5":{"isOpen":true,"periods":[{"open":300,"close":1380}]},"6":{"isOpen":true,"periods":[{"open":360,"close":1380}]}},"original":"Mo-Fr 05:00-23:00; Sa 06:00-23:00; Su 07:00-23:00"}},{"id":"fuel_4386830399","lat":49.4383973,"lon":10.9658205,"name":"Shell","city":"","category":"tankstelle","tags":[],"operator":"Shell","opening_hours":"Su 08:00-21:00; Mo 06:00-21:15; Tu 06:00-21:15; We 06:00-21:15; Th 06:00-21:15; Fr 06:00-21:00; Sa 07:00-21:00","gplace_id":"ChIJr0cjXUJUn0cR16Szar4A5eY","hours":{"type":"weekly","weekly":{"0":{"isOpen":true,"periods":[{"open":480,"close":1260}]},"1":{"isOpen":true,"periods":[{"open":360,"close":1275}]},"2":{"isOpen":true,"periods":[{"open":360,"close":1275}]},"3":{"isOpen":true,"periods":[{"open":360,"close":1275}]},"4":{"isOpen":true,"periods":[{"open":360,"close":1275}]},"5":{"isOpen":true,"periods":[{"open":360,"close":1260}]},"6":{"isOpen":true,"periods":[{"open":420,"close":1260}]}},"original":"Su 08:00-21:00; Mo 06:00-21:15; Tu 06:00-21:15; We 06:00-21:15; Th 06:00-21:15; Fr 06:00-21:00; Sa 07:00-21:00"}},{"id":"fuel_4397831253","lat":49.274046,"lon":10.5131851,"name":"Tankstelle","city":"","category":"tankstelle","tags":[],"opening_hours":"Su 00:00+","gplace_id":"ChIJST1iAEu5mEcR0HSZK25ZJhg","hours":{"type":"unknown","original":"Su 00:00+"}},{"id":"fuel_4463011256","lat":49.8413833,"lon":10.0134307,"name":"Wengel & Dettelbacher (VARO Energy Direct) Kürnach","city":"Kürnach","category":"other","tags":[],"opening_hours":"24/7","hours":{"type":"24_7"}},{"id":"fuel_4467543526","lat":49.7797577,"lon":10.2456249,"name":"Eni","city":"","category":"tankstelle","tags":["autobahn","a3","toilette","tankstelle","raststätte","dusche"],"opening_hours":"24/7","operator":"Eni","hours":{"type":"24_7"}},{"id":"fuel_4602244373","lat":49.6899829,"lon":10.2863536,"name":"Firmengelände","city":"","category":"other","tags":[],"opening_hours":"Mo-Su 00:00-00:00","hours":{"type":"24_7"}},{"id":"fuel_4762022622","lat":49.4850823,"lon":10.2104558,"name":"Total","city":"","category":"tankstelle","tags":["autobahn","a7","toilette","tankstelle","raststätte","dusche","sanifair","barrierefrei","kostenpflichtig"],"opening_hours":"24/7","operator":"Total","hours":{"type":"24_7"},"fee":"yes"},{"id":"fuel_4762022922","lat":49.4851855,"lon":10.213923,"name":"Aral","city":"","category":"tankstelle","tags":["sanifair","barrierefrei","kostenpflichtig"],"opening_hours":"24/7","operator":"Tank- und Rastanlage Ohrenbach Ost","hours":{"type":"24_7"},"fee":"yes"},{"id":"fuel_4966658605","lat":49.6963964,"lon":10.8105422,"name":"JET","city":"","category":"tankstelle","tags":[],"opening_hours":"Mo-Fr 05:00-24:00; Sa 06:00-24:00; Su 07:00-24:00","operator":"JET","hours":{"type":"weekly","weekly":{"0":{"isOpen":true,"periods":[{"open":420,"close":1440}]},"1":{"isOpen":true,"periods":[{"open":300,"close":1440}]},"2":{"isOpen":true,"periods":[{"open":300,"close":1440}]},"3":{"isOpen":true,"periods":[{"open":300,"close":1440}]},"4":{"isOpen":true,"periods":[{"open":300,"close":1440}]},"5":{"isOpen":true,"periods":[{"open":300,"close":1440}]},"6":{"isOpen":true,"periods":[{"open":360,"close":1440}]}},"original":"Mo-Fr 05:00-24:00; Sa 06:00-24:00; Su 07:00-24:00"}},{"id":"fuel_5045349856","lat":49.1419447,"lon":10.0333414,"name":"Tankstelle","city":"","category":"tankstelle","tags":[],"opening_hours":"Mo 07:00-18:00; Tu 07:00-18:00; We 07:00-18:00; Th 07:00-18:00; Fr 07:00-18:00; Sa 07:30-13:00","gplace_id":"ChIJDdiLzsz3mEcRZ5QEElvO56s","hours":{"type":"weekly","weekly":{"0":{"isOpen":false,"periods":[]},"1":{"isOpen":true,"periods":[{"open":420,"close":1080}]},"2":{"isOpen":true,"periods":[{"open":420,"close":1080}]},"3":{"isOpen":true,"periods":[{"open":420,"close":1080}]},"4":{"isOpen":true,"periods":[{"open":420,"close":1080}]},"5":{"isOpen":true,"periods":[{"open":420,"close":1080}]},"6":{"isOpen":true,"periods":[{"open":450,"close":780}]}},"original":"Mo 07:00-18:00; Tu 07:00-18:00; We 07:00-18:00; Th 07:00-18:00; Fr 07:00-18:00; Sa 07:30-13:00"}},{"id":"fuel_5306147590","lat":49.539916,"lon":10.244084,"name":"BayWa","city":"","category":"other","tags":[],"opening_hours":"Su 00:00+","gplace_id":"ChIJKRpSeomCmEcR7U9k9QJkeZY","hours":{"type":"unknown","original":"Su 00:00+"}},{"id":"fuel_5335181014","lat":49.2803047,"lon":10.7127804,"name":"Agip","city":"","category":"tankstelle","tags":[],"operator":"Agip","opening_hours":"Su 06:00-22:00; Mo 05:00-22:00; Tu 05:00-22:00; We 05:00-22:00; Th 05:00-22:00; Fr 05:00-22:00; Sa 06:00-22:00","gplace_id":"ChIJAWsGAFKxmEcRYZXW-2hUaUQ","hours":{"type":"weekly","weekly":{"0":{"isOpen":true,"periods":[{"open":360,"close":1320}]},"1":{"isOpen":true,"periods":[{"open":300,"close":1320}]},"2":{"isOpen":true,"periods":[{"open":300,"close":1320}]},"3":{"isOpen":true,"periods":[{"open":300,"close":1320}]},"4":{"isOpen":true,"periods":[{"open":300,"close":1320}]},"5":{"isOpen":true,"periods":[{"open":300,"close":1320}]},"6":{"isOpen":true,"periods":[{"open":360,"close":1320}]}},"original":"Su 06:00-22:00; Mo 05:00-22:00; Tu 05:00-22:00; We 05:00-22:00; Th 05:00-22:00; Fr 05:00-22:00; Sa 06:00-22:00"}},{"id":"fuel_5785673746","lat":49.6286238,"lon":10.9122965,"name":"Esso","city":"Heßdorf","category":"tankstelle","tags":[],"opening_hours":"Mo-Su 05:00-22:00","operator":"Viktoriya Golik","hours":{"type":"weekly","weekly":{"0":{"isOpen":true,"periods":[{"open":300,"close":1320}]},"1":{"isOpen":true,"periods":[{"open":300,"close":1320}]},"2":{"isOpen":true,"periods":[{"open":300,"close":1320}]},"3":{"isOpen":true,"periods":[{"open":300,"close":1320}]},"4":{"isOpen":true,"periods":[{"open":300,"close":1320}]},"5":{"isOpen":true,"periods":[{"open":300,"close":1320}]},"6":{"isOpen":true,"periods":[{"open":300,"close":1320}]}},"original":"Mo-Su 05:00-22:00"}},{"id":"fuel_5818389920","lat":49.3422511,"lon":10.5007222,"name":"Avia","city":"","category":"tankstelle","tags":[],"opening_hours":"24/7","operator":"Avia","hours":{"type":"24_7"}},{"id":"fuel_5943298091","lat":49.2929783,"lon":10.6041545,"name":"ORLEN express","city":"","category":"tankstelle","tags":[],"opening_hours":"24/7","hours":{"type":"24_7"}},{"id":"fuel_6071858993","lat":49.946595,"lon":10.0207938,"name":"Aral","city":"","category":"tankstelle","tags":[],"opening_hours":"24/7","operator":"Aral","hours":{"type":"24_7"}},{"id":"fuel_6205114357","lat":49.4483282,"lon":10.3298226,"name":"KFZ Kleppel / DBV Würzburg GmbH","city":"Burgbernheim","category":"other","tags":[],"opening_hours":"Su 00:00+","gplace_id":"ChIJjanfI7mbmEcRKEI77XfUtzs","hours":{"type":"unknown","original":"Su 00:00+"}},{"id":"fuel_6293315155","lat":49.6323144,"lon":10.6928192,"name":"Access Tankstelle","city":"Gerhardshofen","category":"tankstelle","tags":[],"operator":"Access","opening_hours":"Su 07:00-19:00; Mo 06:00-19:00; Tu 06:00-19:00; We 06:00-19:00; Th 06:00-19:00; Fr 06:00-19:00; Sa 07:00-19:00","gplace_id":"ChIJT6gJ-EEPokcRKc0QbDrGeYM","hours":{"type":"weekly","weekly":{"0":{"isOpen":true,"periods":[{"open":420,"close":1140}]},"1":{"isOpen":true,"periods":[{"open":360,"close":1140}]},"2":{"isOpen":true,"periods":[{"open":360,"close":1140}]},"3":{"isOpen":true,"periods":[{"open":360,"close":1140}]},"4":{"isOpen":true,"periods":[{"open":360,"close":1140}]},"5":{"isOpen":true,"periods":[{"open":360,"close":1140}]},"6":{"isOpen":true,"periods":[{"open":420,"close":1140}]}},"original":"Su 07:00-19:00; Mo 06:00-19:00; Tu 06:00-19:00; We 06:00-19:00; Th 06:00-19:00; Fr 06:00-19:00; Sa 07:00-19:00"}},{"id":"fuel_6295539453","lat":49.6285672,"lon":10.7182855,"name":"Heizöl Lindner Tanklager","city":"Gerhardshofen","category":"other","tags":[],"opening_hours":"Mo 10:00-17:00; Tu 10:00-17:00; We 10:00-17:00; Th 10:00-17:00; Fr 10:00-14:00","gplace_id":"ChIJDSs4mnYPokcRQgb46-HJ95U","hours":{"type":"weekly","weekly":{"0":{"isOpen":false,"periods":[]},"1":{"isOpen":true,"periods":[{"open":600,"close":1020}]},"2":{"isOpen":true,"periods":[{"open":600,"close":1020}]},"3":{"isOpen":true,"periods":[{"open":600,"close":1020}]},"4":{"isOpen":true,"periods":[{"open":600,"close":1020}]},"5":{"isOpen":true,"periods":[{"open":600,"close":840}]},"6":{"isOpen":false,"periods":[]}},"original":"Mo 10:00-17:00; Tu 10:00-17:00; We 10:00-17:00; Th 10:00-17:00; Fr 10:00-14:00"}},{"id":"fuel_6629908463","lat":49.5086446,"lon":10.4178755,"name":"BayWa","city":"","category":"other","tags":[],"operator":"BayWa","opening_hours":"Su 00:00+","gplace_id":"ChIJjzSZpViemEcRKhwWnGORK88","hours":{"type":"unknown","original":"Su 00:00+"}},{"id":"fuel_6778978274","lat":49.4637261,"lon":10.8596836,"name":"Shell","city":"Cadolzburg","category":"tankstelle","tags":[],"opening_hours":"Mo-Fr 06:30-22:00; Sa 06:30-21:00; Su 08:00-21:00","operator":"Schöner","hours":{"type":"weekly","weekly":{"0":{"isOpen":true,"periods":[{"open":480,"close":1260}]},"1":{"isOpen":true,"periods":[{"open":390,"close":1320}]},"2":{"isOpen":true,"periods":[{"open":390,"close":1320}]},"3":{"isOpen":true,"periods":[{"open":390,"close":1320}]},"4":{"isOpen":true,"periods":[{"open":390,"close":1320}]},"5":{"isOpen":true,"periods":[{"open":390,"close":1320}]},"6":{"isOpen":true,"periods":[{"open":390,"close":1260}]}},"original":"Mo-Fr 06:30-22:00; Sa 06:30-21:00; Su 08:00-21:00"}},{"id":"fuel_6945757101","lat":49.4445027,"lon":10.2508227,"name":"Aral","city":"Steinsfeld","category":"tankstelle","tags":[],"operator":"Aral","opening_hours":"Su 00:00+","gplace_id":"ChIJ2Zs1tg6FmEcRzW60JJKrFrE","hours":{"type":"unknown","original":"Su 00:00+"}},{"id":"fuel_7312456925","lat":49.7387476,"lon":10.1528356,"name":"Shell","city":"Kitzingen","category":"tankstelle","tags":[],"opening_hours":"24/7","operator":"Christian Kant","hours":{"type":"24_7"}},{"id":"fuel_7319179082","lat":49.6007406,"lon":10.6257285,"name":"TotalEnergies","city":"Diespeck","category":"tankstelle","tags":[],"operator":"TotalEnergies","gplace_id":"ChIJKwP5RwALokcRx67p18gI8I0","hours":{"type":"unknown"}},{"id":"fuel_7932164178","lat":49.7668052,"lon":10.0756538,"name":"TotalEnergies","city":"Biebelried","category":"tankstelle","tags":[],"opening_hours":"24/7","operator":"Stefan Kümmet","hours":{"type":"24_7"}},{"id":"fuel_7994839117","lat":49.6769832,"lon":10.1518573,"name":"Schöpper & Knoll","city":"","category":"tankstelle","tags":[],"operator":"Avia","gplace_id":"not_found","hours":{"type":"unknown"}},{"id":"fuel_8238255856","lat":49.0817567,"lon":10.8562189,"name":"tankpool24","city":"","category":"tankstelle","tags":[],"opening_hours":"Su 00:00+","gplace_id":"ChIJyfpG_5szn0cRbD7xYFgHsI0","hours":{"type":"unknown","original":"Su 00:00+"}},{"id":"fuel_8293346929","lat":49.1321482,"lon":10.0564119,"name":"Erdgastankstelle","city":"Crailsheim","category":"other","tags":[],"opening_hours":"24/7","operator":"Stadtwerke Crailsheim GmbH","hours":{"type":"24_7"}},{"id":"fuel_8651659834","lat":49.9081765,"lon":10.9014562,"name":"Jet Tankstelle Nicole Peruch","city":"Bamberg","category":"tankstelle","tags":["barrierefrei","google_wc_accessible"],"opening_hours":"Mo-Fr 05:00-23:00; Sa 06:00-23:00; Su 07:00-23:00","operator":"Jet","hours":{"type":"weekly","weekly":{"0":{"isOpen":true,"periods":[{"open":420,"close":1380}]},"1":{"isOpen":true,"periods":[{"open":300,"close":1380}]},"2":{"isOpen":true,"periods":[{"open":300,"close":1380}]},"3":{"isOpen":true,"periods":[{"open":300,"close":1380}]},"4":{"isOpen":true,"periods":[{"open":300,"close":1380}]},"5":{"isOpen":true,"periods":[{"open":300,"close":1380}]},"6":{"isOpen":true,"periods":[{"open":360,"close":1380}]}},"original":"Mo-Fr 05:00-23:00; Sa 06:00-23:00; Su 07:00-23:00"}},{"id":"fuel_9162334496","lat":49.2423041,"lon":10.6060672,"name":"TotalEnergies","city":"","category":"tankstelle","tags":[],"operator":"TotalEnergies","opening_hours":"Su 05:00-23:00; Mo 05:00-23:00; Tu 05:00-23:00; We 05:00-23:00; Th 05:00-23:00; Fr 05:00-23:00; Sa 05:00-23:00","gplace_id":"ChIJi0aNFYC3mEcRoVjBSyA8CJ8","hours":{"type":"weekly","weekly":{"0":{"isOpen":true,"periods":[{"open":300,"close":1380}]},"1":{"isOpen":true,"periods":[{"open":300,"close":1380}]},"2":{"isOpen":true,"periods":[{"open":300,"close":1380}]},"3":{"isOpen":true,"periods":[{"open":300,"close":1380}]},"4":{"isOpen":true,"periods":[{"open":300,"close":1380}]},"5":{"isOpen":true,"periods":[{"open":300,"close":1380}]},"6":{"isOpen":true,"periods":[{"open":300,"close":1380}]}},"original":"Su 05:00-23:00; Mo 05:00-23:00; Tu 05:00-23:00; We 05:00-23:00; Th 05:00-23:00; Fr 05:00-23:00; Sa 05:00-23:00"}},{"id":"fuel_9167281195","lat":49.0813681,"lon":10.8568901,"name":"Esso","city":"","category":"tankstelle","tags":[],"operator":"Esso","opening_hours":"Su 00:00+","gplace_id":"ChIJa1P4yeYzn0cRbwb0lAuuROo","hours":{"type":"unknown","original":"Su 00:00+"}},{"id":"fuel_9278422781","lat":49.9812419,"lon":10.5539633,"name":"Shell LNG","city":"Knetzgau","category":"tankstelle","tags":[],"opening_hours":"24/7","operator":"Shell","hours":{"type":"24_7"}},{"id":"fuel_9542981840","lat":49.9055727,"lon":10.8967915,"name":"Aral Tankstelle Alexandra Holl","city":"Bamberg","category":"tankstelle","tags":["barrierefrei","google_wc_accessible"],"opening_hours":"24/7","operator":"Aral","hours":{"type":"24_7"}},{"id":"fuel_9675646351","lat":49.8767009,"lon":10.0836955,"name":"VARO Wengel & Dettelbacher","city":"","category":"other","tags":[],"opening_hours":"24/7","hours":{"type":"24_7"}},{"id":"fuel_9882875617","lat":49.7778105,"lon":10.0652429,"name":"Tankpool","city":"","category":"other","tags":[],"opening_hours":"Su 00:00+","gplace_id":"ChIJ_axDutqIokcRP4n7SOgref8","hours":{"type":"unknown","original":"Su 00:00+"}},{"id":"fuel_10006376055","lat":49.2228291,"lon":10.4803629,"name":"Dieseltankstelle","city":"","category":"other","tags":[],"opening_hours":"24/7","operator":"Dieseltankstelle","hours":{"type":"24_7"}},{"id":"fuel_10015391362","lat":49.8467898,"lon":10.9564168,"name":"LNG Tankstelle","city":"","category":"tankstelle","tags":[],"operator":"LIQUIND","gplace_id":"not_found","hours":{"type":"unknown"}},{"id":"fuel_10265536369","lat":49.7680336,"lon":10.4700786,"name":"Shell LNG","city":"","category":"tankstelle","tags":[],"operator":"Shell","opening_hours":"Su 00:00+","gplace_id":"ChIJhSeCIpluokcRzh1k0Rvur30","hours":{"type":"unknown","original":"Su 00:00+"}},{"id":"fuel_10295150803","lat":49.0661914,"lon":10.4011959,"name":"Tankstelle","city":"","category":"tankstelle","tags":[],"gplace_id":"not_found","hours":{"type":"unknown"}},{"id":"fuel_10994541369","lat":49.1027552,"lon":10.9865523,"name":"Freie Tankstelle","city":"Pleinfeld","category":"tankstelle","tags":[],"opening_hours":"24/7","operator":"Spedition Feil GmbH & Co. KG","hours":{"type":"24_7"}},{"id":"fuel_11607924797","lat":49.7517717,"lon":10.774152,"name":"Avia","city":"","category":"tankstelle","tags":[],"opening_hours":"Mo-Fr 06:30-21:00; Sa 07:00-21:00,Su 08:00-20:30","operator":"Sieglinde Giehl","hours":{"type":"weekly","weekly":{"0":{"isOpen":false,"periods":[]},"1":{"isOpen":true,"periods":[{"open":390,"close":1260}]},"2":{"isOpen":true,"periods":[{"open":390,"close":1260}]},"3":{"isOpen":true,"periods":[{"open":390,"close":1260}]},"4":{"isOpen":true,"periods":[{"open":390,"close":1260}]},"5":{"isOpen":true,"periods":[{"open":390,"close":1260}]},"6":{"isOpen":true,"periods":[{"open":420,"close":1260},{"open":480,"close":1230}]}},"original":"Mo-Fr 06:30-21:00; Sa 07:00-21:00,Su 08:00-20:30"}},{"id":"fuel_11730066059","lat":49.8845994,"lon":10.9152501,"name":"Orlen Express","city":"Bamberg","category":"tankstelle","tags":[],"opening_hours":"24/7","operator":"Orlen express","hours":{"type":"24_7"}},{"id":"fuel_11821563191","lat":49.9178878,"lon":10.8075029,"name":"Oktan","city":"","category":"other","tags":[],"opening_hours":"24/7","operator":"Anastasia Keiemburg","hours":{"type":"24_7"}},{"id":"fuel_11821684211","lat":49.922923,"lon":10.78135,"name":"Esso","city":"","category":"tankstelle","tags":[],"opening_hours":"Mo-Fr 06:00-22:00; Sa 07:00-22:00; Su 08:00-22:00","operator":"F. Pfeil","hours":{"type":"weekly","weekly":{"0":{"isOpen":true,"periods":[{"open":480,"close":1320}]},"1":{"isOpen":true,"periods":[{"open":360,"close":1320}]},"2":{"isOpen":true,"periods":[{"open":360,"close":1320}]},"3":{"isOpen":true,"periods":[{"open":360,"close":1320}]},"4":{"isOpen":true,"periods":[{"open":360,"close":1320}]},"5":{"isOpen":true,"periods":[{"open":360,"close":1320}]},"6":{"isOpen":true,"periods":[{"open":420,"close":1320}]}},"original":"Mo-Fr 06:00-22:00; Sa 07:00-22:00; Su 08:00-22:00"}},{"id":"fuel_11862632902","lat":49.5671374,"lon":10.8927135,"name":"Aral","city":"Herzogenaurach","category":"tankstelle","tags":[],"opening_hours":"Mo-Fr 06:00-22:00; Sa 07:00-22:00; Su 08:00-22:00","operator":"Aral","hours":{"type":"weekly","weekly":{"0":{"isOpen":true,"periods":[{"open":480,"close":1320}]},"1":{"isOpen":true,"periods":[{"open":360,"close":1320}]},"2":{"isOpen":true,"periods":[{"open":360,"close":1320}]},"3":{"isOpen":true,"periods":[{"open":360,"close":1320}]},"4":{"isOpen":true,"periods":[{"open":360,"close":1320}]},"5":{"isOpen":true,"periods":[{"open":360,"close":1320}]},"6":{"isOpen":true,"periods":[{"open":420,"close":1320}]}},"original":"Mo-Fr 06:00-22:00; Sa 07:00-22:00; Su 08:00-22:00"}},{"id":"fuel_11950481508","lat":49.9846312,"lon":10.6684215,"name":"OMV","city":"","category":"tankstelle","tags":[],"opening_hours":"Mo-Fr 05:00-23:00; Sa 08:00-23:00","operator":"Susanne Pfeil","hours":{"type":"weekly","weekly":{"0":{"isOpen":false,"periods":[]},"1":{"isOpen":true,"periods":[{"open":300,"close":1380}]},"2":{"isOpen":true,"periods":[{"open":300,"close":1380}]},"3":{"isOpen":true,"periods":[{"open":300,"close":1380}]},"4":{"isOpen":true,"periods":[{"open":300,"close":1380}]},"5":{"isOpen":true,"periods":[{"open":300,"close":1380}]},"6":{"isOpen":true,"periods":[{"open":480,"close":1380}]}},"original":"Mo-Fr 05:00-23:00; Sa 08:00-23:00"}},{"id":"fuel_12058484328","lat":49.9025764,"lon":10.899732,"name":"TC Bamberg","city":"Bamberg","category":"other","tags":[],"opening_hours":"Mo-Fr 06:00-22:00; Sa 07:00-22:00; Su 08:00-22:00","operator":"Independent","hours":{"type":"weekly","weekly":{"0":{"isOpen":true,"periods":[{"open":480,"close":1320}]},"1":{"isOpen":true,"periods":[{"open":360,"close":1320}]},"2":{"isOpen":true,"periods":[{"open":360,"close":1320}]},"3":{"isOpen":true,"periods":[{"open":360,"close":1320}]},"4":{"isOpen":true,"periods":[{"open":360,"close":1320}]},"5":{"isOpen":true,"periods":[{"open":360,"close":1320}]},"6":{"isOpen":true,"periods":[{"open":420,"close":1320}]}},"original":"Mo-Fr 06:00-22:00; Sa 07:00-22:00; Su 08:00-22:00"}},{"id":"fuel_12076973596","lat":49.9127291,"lon":10.883502,"name":"Franken Petrol","city":"Bamberg","category":"other","tags":[],"opening_hours":"Mo-Fr 06:00-20:00; Sa 08:00-19:00","operator":"Franken Petrol Tankstelle Bernd Tramowsky","hours":{"type":"weekly","weekly":{"0":{"isOpen":false,"periods":[]},"1":{"isOpen":true,"periods":[{"open":360,"close":1200}]},"2":{"isOpen":true,"periods":[{"open":360,"close":1200}]},"3":{"isOpen":true,"periods":[{"open":360,"close":1200}]},"4":{"isOpen":true,"periods":[{"open":360,"close":1200}]},"5":{"isOpen":true,"periods":[{"open":360,"close":1200}]},"6":{"isOpen":true,"periods":[{"open":480,"close":1140}]}},"original":"Mo-Fr 06:00-20:00; Sa 08:00-19:00"}},{"id":"fuel_12187132923","lat":49.3675817,"lon":10.1959866,"name":"Avia","city":"Rothenburg ob der Tauber","category":"tankstelle","tags":[],"operator":"Schöpper & Knoll - Taubertal GmbH","opening_hours":"Mo 08:00-12:00,13:00-17:00; Tu 08:00-12:00,13:00-17:00; We 08:00-12:00,13:00-17:00; Th 08:00-12:00,13:00-17:00; Fr 08:00-12:00,13:00-17:00; Sa 09:00-12:00","gplace_id":"ChIJ-xSD7LWPmEcRj2lEHHg58g0","hours":{"type":"weekly","weekly":{"0":{"isOpen":false,"periods":[]},"1":{"isOpen":true,"periods":[{"open":480,"close":720},{"open":780,"close":1020}]},"2":{"isOpen":true,"periods":[{"open":480,"close":720},{"open":780,"close":1020}]},"3":{"isOpen":true,"periods":[{"open":480,"close":720},{"open":780,"close":1020}]},"4":{"isOpen":true,"periods":[{"open":480,"close":720},{"open":780,"close":1020}]},"5":{"isOpen":true,"periods":[{"open":480,"close":720},{"open":780,"close":1020}]},"6":{"isOpen":true,"periods":[{"open":540,"close":720}]}},"original":"Mo 08:00-12:00,13:00-17:00; Tu 08:00-12:00,13:00-17:00; We 08:00-12:00,13:00-17:00; Th 08:00-12:00,13:00-17:00; Fr 08:00-12:00,13:00-17:00; Sa 09:00-12:00"}},{"id":"fuel_12556973801","lat":49.980623,"lon":10.4255052,"name":"W. Dorst","city":"","category":"other","tags":[],"opening_hours":"Su 00:00+","gplace_id":"ChIJF0fvRUBbokcRAHOeHz_2wFA","hours":{"type":"unknown","original":"Su 00:00+"}},{"id":"fuel_12779872021","lat":49.1079441,"lon":10.7582331,"name":"Esso","city":"Gunzenhausen","category":"tankstelle","tags":[],"opening_hours":"Mo-Sa 06:00-22:00; Su 07:00-22:00","operator":"Esso","hours":{"type":"weekly","weekly":{"0":{"isOpen":true,"periods":[{"open":420,"close":1320}]},"1":{"isOpen":true,"periods":[{"open":360,"close":1320}]},"2":{"isOpen":true,"periods":[{"open":360,"close":1320}]},"3":{"isOpen":true,"periods":[{"open":360,"close":1320}]},"4":{"isOpen":true,"periods":[{"open":360,"close":1320}]},"5":{"isOpen":true,"periods":[{"open":360,"close":1320}]},"6":{"isOpen":true,"periods":[{"open":360,"close":1320}]}},"original":"Mo-Sa 06:00-22:00; Su 07:00-22:00"}},{"id":"fuel_13093043197","lat":49.9245666,"lon":10.8921144,"name":"H2 Tankstelle","city":"Hallstadt","category":"tankstelle","tags":[],"operator":"MorGen Mobility GmbH","gplace_id":"not_found","hours":{"type":"unknown"}},{"id":"fuel_13423639494","lat":49.7680939,"lon":10.341746,"name":"TopTank Station","city":"Rüdenhausen","category":"tankstelle","tags":[],"opening_hours":"Mo-Fr 06:00-21:00; Sa 07:00-21:00; Su 08:00-21:00; PH 08:00-21:00","operator":"OMV","hours":{"type":"weekly","weekly":{"0":{"isOpen":true,"periods":[{"open":480,"close":1260}]},"1":{"isOpen":true,"periods":[{"open":360,"close":1260}]},"2":{"isOpen":true,"periods":[{"open":360,"close":1260}]},"3":{"isOpen":true,"periods":[{"open":360,"close":1260}]},"4":{"isOpen":true,"periods":[{"open":360,"close":1260}]},"5":{"isOpen":true,"periods":[{"open":360,"close":1260}]},"6":{"isOpen":true,"periods":[{"open":420,"close":1260}]}},"original":"Mo-Fr 06:00-21:00; Sa 07:00-21:00; Su 08:00-21:00; PH 08:00-21:00"}},{"id":"fuel_13592051761","lat":49.0682126,"lon":10.3283539,"name":"Esso","city":"Dinkelsbühl","category":"tankstelle","tags":[],"opening_hours":"24/7","operator":"Esso","hours":{"type":"24_7"}},