[{"id":"station_node_60093107","lat":48.1965445,"lon":16.3362817,"name":"Wien Westbahnhof","city":"","category":"station","tags":["bahnhof","barrierefrei"],"operator":"ÖBB-Infrastruktur AG","hours":{"type":"unknown"}},{"id":"station_node_62687115","lat":48.1848943,"lon":16.4172645,"name":"Gasometer","city":"","category":"station","tags":["bahnhof","barrierefrei"],"operator":"Wiener Linien","hours":{"type":"unknown"}},{"id":"station_node_117527786","lat":48.1697771,"lon":16.4205339,"name":"Simmering","city":"","category":"station","tags":["bahnhof","barrierefrei"],"operator":"Wiener Linien","hours":{"type":"unknown"}},{"id":"station_node_1839787470","lat":48.1849883,"lon":16.3779391,"name":"Wien Hauptbahnhof","city":"","category":"station","tags":["bahnhof","barrierefrei"],"operator":"ÖBB-Infrastruktur AG","hours":{"type":"unknown"}},{"id":"station_node_3071028227","lat":48.173527,"lon":16.3314176,"name":"Bahnhof Meidling","city":"","category":"station","tags":["bahnhof","barrierefrei"],"operator":"Wiener Linien","hours":{"type":"unknown"}},{"id":"station_node_3124681423","lat":48.1859936,"lon":16.3751198,"name":"Wien Hauptbahnhof","city":"","category":"station","tags":["bahnhof","barrierefrei","haltepunkt"],"operator":"ÖBB-Infrastruktur AG","hours":{"type":"unknown"}},{"id":"station_node_3310997803","lat":48.2564008,"lon":16.4000183,"name":"Wien Floridsdorf","city":"Wien","category":"station","tags":["bahnhof","barrierefrei","google_wc_accessible"],"operator":"ÖBB-Infrastruktur AG","hours":{"type":"unknown"}},{"id":"station_node_3395076835","lat":48.3434717,"lon":16.3285428,"name":"Korneuburg","city":"","category":"station","tags":["bahnhof","barrierefrei"],"operator":"ÖBB-Infrastruktur AG","hours":{"type":"unknown"}},{"id":"station_node_3975440034","lat":48.1052344,"lon":16.2880915,"name":"Brunn-Maria Enzersdorf","city":"","category":"station","tags":["bahnhof","barrierefrei"],"operator":"ÖBB-Infrastruktur AG","hours":{"type":"unknown"}},{"id":"station_node_4076716391","lat":48.2208849,"lon":16.4578116,"name":"Hardeggasse","city":"","category":"station","tags":["bahnhof","barrierefrei"],"operator":"Wiener Linien","hours":{"type":"unknown"}},{"id":"station_node_4283722989","lat":48.2168044,"lon":16.341835,"name":"Alser Straße","city":"Wien","category":"station","tags":["bahnhof","barrierefrei"],"operator":"Wiener Linien","hours":{"type":"unknown"}},{"id":"station_node_4560869722","lat":48.2084639,"lon":16.3720438,"name":"Stephansplatz","city":"","category":"station","tags":["bahnhof","barrierefrei"],"operator":"Wiener Linien","hours":{"type":"unknown"}},{"id":"sanifair_node_9091526517","lat":48.1961035,"lon":16.3404847,"name":"Sanifair WC","city":"","category":"station","tags":["sanifair","barrierefrei","kostenpflichtig"],"operator":"SANIFAIR GmbH","fee":"yes","hours":{"type":"unknown"}},{"id":"sanifair_way_395972318","lat":48.1849588,"lon":16.3771996,"name":"Sanifair WC","city":"","category":"station","tags":["sanifair","barrierefrei","kostenpflichtig"],"operator":"SANIFAIR GmbH","fee":"yes","hours":{"type":"unknown"}},{"id":"sanifair_way_409444902","lat":48.2066471,"lon":16.360207,"name":"Sanifair WC","city":"","category":"station","tags":["sanifair","barrierefrei","kostenpflichtig"],"operator":"SANIFAIR GmbH","fee":"yes","hours":{"type":"unknown"}},{"id":"sanifair_way_411400845","lat":48.2011067,"lon":16.3686414,"name":"Sanifair WC","city":"","category":"station","tags":["sanifair","barrierefrei","kostenpflichtig"],"operator":"SANIFAIR GmbH","fee":"yes","hours":{"type":"unknown"}},{"id":"sanifair_way_417483379","lat":48.2116264,"lon":16.3771119,"name":"Sanifair WC","city":"","category":"station","tags":["sanifair","barrierefrei","kostenpflichtig"],"operator":"SANIFAIR GmbH","fee":"yes","hours":{"type":"unknown"}},{"id":"sanifair_way_1069407585","lat":48.2189652,"lon":16.3914835,"name":"Sanifair WC","city":"","category":"station","tags":["sanifair","barrierefrei","kostenpflichtig"],"operator":"SANIFAIR GmbH","fee":"yes","hours":{"type":"unknown"}},{"id":"gplace_ChIJawX91haobUcRBeezzsNbQOM","lat":48.1832718,"lon":16.3280708,"name":"U4 Vienna","city":"Wien","category":"gastro","tags":["barrierefrei","google_wc_accessible"],"hours":{"type":"unknown"}},{"id":"gplace_ChIJ5aDJFM-pbUcRyQWh7f-ELBc","lat":48.1837272,"lon":16.3261692,"name":"McFIT WIEN VIO PLAZA","city":"Wien","category":"other","tags":["barrierefrei","google_wc_accessible"],"hours":{"type":"unknown"}},{"id":"gplace_ChIJxXEoLGGpbUcR-XvMOyUfv2Y","lat":48.1831933,"lon":16.3268392,"name":"VIO PLAZA Wien","city":"Wien","category":"other","tags":["barrierefrei","google_wc_accessible"],"hours":{"type":"unknown"}},{"id":"gplace_ChIJfUKmznSobUcRhSONpphi5jo","lat":48.178232799999996,"lon":16.30878,"name":"Café Gloriette","city":"Wien","category":"gastro","tags":["barrierefrei","google_wc_accessible"],"hours":{"type":"unknown"}},{"id":"gplace_ChIJueDIwRmobUcRUsKE9Smr_tA","lat":48.186685999999995,"lon":16.331737999999998,"name":"Das Eduard","city":"Wien","category":"gastro","tags":["barrierefrei","google_entrance_accessible"],"hours":{"type":"unknown"}},{"id":"gplace_ChIJa3gF4g-obUcRJYizIMz2BlY","lat":48.186034899999996,"lon":16.3220757,"name":"Restaurant Sokače","city":"Wien","category":"gastro","tags":["barrierefrei","google_wc_accessible"],"hours":{"type":"unknown"}},{"id":"gplace_ChIJO-LefxqobUcRq1AbN82Z3z8","lat":48.1864774,"lon":16.3261899,"name":"Grätzlheuriger","city":"Wien","category":"gastro","tags":["barrierefrei","google_wc_accessible"],"hours":{"type":"unknown"}},{"id":"gplace_ChIJSWRJEhaobUcRyERIQSyZJBg","lat":48.181066699999995,"lon":16.3323778,"name":"INTERSPAR","city":"Wien","category":"other","tags":["barrierefrei","google_wc_accessible"],"hours":{"type":"unknown"}},{"id":"gplace_ChIJWTPdKGinbUcR0ucgmKyPuug","lat":48.188178699999995,"lon":16.3079166,"name":"Wiener Grill Haus","city":"Wien","category":"gastro","tags":["barrierefrei","google_entrance_accessible"],"hours":{"type":"unknown"}},{"id":"gplace_ChIJPzt248apbUcRnw03RjF8qo8","lat":48.1836963,"lon":16.3331412,"name":"Velani","city":"Wien","category":"gastro","tags":["google_has_restroom"],"hours":{"type":"unknown"}},{"id":"gplace_ChIJP44cgRSobUcRyBJMmCm4AdY","lat":48.1786111,"lon":16.325555599999998,"name":"Marengo Restaurant BBQ","city":"Wien","category":"gastro","tags":["google_has_restroom"],"hours":{"type":"unknown"}},{"id":"gplace_ChIJLcKIZhCobUcRh6WGxy9Gza4","lat":48.185552099999995,"lon":16.3249086,"name":"Hollerei","city":"Wien","category":"gastro","tags":["google_has_restroom"],"hours":{"type":"unknown"}},{"id":"gplace_ChIJSV-ZvBGobUcRooUZyTj5bx8","lat":48.1833233,"lon":16.323206799999998,"name":"Der Schwabl Wirt - das Wiener Wirtshaus bei Schönbrunn","city":"Wien","category":"gastro","tags":["barrierefrei","google_wc_accessible"],"hours":{"type":"unknown"}},{"id":"gplace_ChIJq6qq6guobUcRLkAXbfijBXM","lat":48.179716199999994,"lon":16.303344799999998,"name":"Tyrolean Garden Inn","city":"Wien","category":"gastro","tags":["barrierefrei","google_wc_accessible"],"hours":{"type":"unknown"}},{"id":"gplace_ChIJi6vhDO-pbUcROyQP9t0N01o","lat":48.1860189,"lon":16.3151412,"name":"Joseph II. Schloss-Restaurant Schönbrunn","city":"Wien","category":"gastro","tags":["barrierefrei","google_wc_accessible"],"hours":{"type":"unknown"}},{"id":"gplace_ChIJKxqF9ASobUcRBZKhaGAWuJg","lat":48.1904051,"lon":16.3216179,"name":"Shell","city":"Wien","category":"gastro","tags":["barrierefrei","google_wc_accessible"],"hours":{"type":"unknown"}},{"id":"gplace_ChIJzTJqstGpbUcRmtrROtORu1Q","lat":48.1829591,"lon":16.3286568,"name":"La Tana Della Volpe","city":"Wien","category":"gastro","tags":["google_has_restroom"],"hours":{"type":"unknown"}},{"id":"gplace_ChIJAQAA8AiobUcRnXtAJCls5c4","lat":48.1839678,"lon":16.318852,"name":"Restaurant Schönbrunner Stöckl & Dinnertheater","city":"Wien","category":"gastro","tags":["barrierefrei","google_wc_accessible"],"hours":{"type":"unknown"}},{"id":"gplace_ChIJwbDyoByobUcRvdlHTwmOZ30","lat":48.1914215,"lon":16.3269093,"name":"GOTA Coffee experts","city":"Wien","category":"gastro","tags":["barrierefrei","google_wc_accessible"],"hours":{"type":"unknown"}},{"id":"gplace_ChIJIZncFvoHbUcRU__Ql1eWEyI","lat":48.2019834,"lon":16.330116699999998,"name":"Culture Café Kriemhild","city":"Wien","category":"gastro","tags":["barrierefrei","google_entrance_accessible"],"hours":{"type":"unknown"}},{"id":"gplace_ChIJW0MhDQKobUcRp2Gf2X3RM7U","lat":48.196527599999996,"lon":16.322941099999998,"name":"Das Augustin","city":"Wien","category":"gastro","tags":["google_has_restroom"],"hours":{"type":"unknown"}},{"id":"gplace_ChIJw7hoKfgHbUcRY81PTaZkKTI","lat":48.1983087,"lon":16.329145500000003,"name":"Kent Restaurant Fünfhaus","city":"Wien","category":"gastro","tags":["barrierefrei","google_wc_accessible"],"hours":{"type":"unknown"}},{"id":"gplace_ChIJrWkNRAcIbUcRkME4oMeUSUo","lat":48.2030521,"lon":16.322754100000004,"name":"Schutzhaus Zukunft auf der Schmelz","city":"Wien","category":"gastro","tags":["barrierefrei","google_entrance_accessible"],"hours":{"type":"unknown"}},{"id":"gplace_ChIJh3KpxBuobUcRtSIyVY9j7Sc","lat":48.189193599999996,"lon":16.3302645,"name":"Gasthaus Quell","city":"Wien","category":"gastro","tags":["barrierefrei","google_entrance_accessible"],"hours":{"type":"unknown"}},{"id":"gplace_ChIJw3jm6d8HbUcR8OHzkLS4K6I","lat":48.19733,"lon":16.3290169,"name":"All Reis Bangkok Street Food","city":"Wien","category":"gastro","tags":["google_has_restroom"],"hours":{"type":"unknown"}},{"id":"gplace_ChIJG-W_8G2pbUcRWXy7pFv6VbM","lat":48.193371299999995,"lon":16.333719,"name":"Brauhof Wien - Restaurant - Biergarten & Brauerei","city":"Wien","category":"gastro","tags":["barrierefrei","google_wc_accessible"],"hours":{"type":"unknown"}},{"id":"gplace_ChIJf2bbEv8HbUcRLC0PaZ68Brk","lat":48.1988619,"lon":16.3194183,"name":"McDonald's Wien","city":"Wien","category":"gastro","tags":["barrierefrei","google_wc_accessible"],"hours":{"type":"unknown"}},{"id":"gplace_ChIJGaMKyLoHbUcRuq8akttC_Kk","lat":48.1994109,"lon":16.3325985,"name":"café MAUSI","city":"Wien","category":"gastro","tags":["google_has_restroom","barrierefrei","google_wc_accessible"],"hours":{"type":"unknown"}},{"id":"gplace_ChIJFQ5_ihuobUcRKu3n4d0ykwE","lat":48.1908841,"lon":16.330161,"name":"Cafe Plauscherl","city":"Wien","category":"gastro","tags":["google_has_restroom"],"hours":{"type":"unknown"}},{"id":"gplace_ChIJGTQxQvgHbUcRVpQhD7MVNPQ","lat":48.1975026,"lon":16.32603,"name":"Royal Balkan Grill","city":"Wien","category":"gastro","tags":["barrierefrei","google_wc_accessible"],"hours":{"type":"unknown"}},{"id":"gplace_ChIJBYUZzvynbUcRhasQk9eYPdA","lat":48.1897294,"lon":16.3054608,"name":"Odysseus Restaurant","city":"Wien","category":"gastro","tags":["google_has_restroom"],"hours":{"type":"unknown"}},{"id":"gplace_ChIJubqC2aoHbUcRiKrZPDqJg14","lat":48.200601899999995,"lon":16.3314758,"name":"Stadthallenbräu","city":"Wien","category":"gastro","tags":["google_has_restroom"],"hours":{"type":"unknown"}},{"id":"gplace_ChIJA8HyovgHbUcRrWNP4lkWTJU","lat":48.197464499999995,"lon":16.3235393,"name":"Café Caché","city":"Wien","category":"gastro","tags":["google_has_restroom"],"hours":{"type":"unknown"}},{"id":"gplace_ChIJIymg9hEIbUcRQ9b5Y59AtUM","lat":48.2143344,"lon":16.3085547,"name":"Heuriger 10er Marie","city":"Wien","category":"gastro","tags":["barrierefrei","google_wc_accessible"],"hours":{"type":"unknown"}},{"id":"gplace_ChIJa7rlGR0JbUcRdQbCTjaSno0","lat":48.2084544,"lon":16.3033012,"name":"Corleone","city":"Wien","category":"gastro","tags":["barrierefrei","google_wc_accessible"],"hours":{"type":"unknown"}},{"id":"gplace_ChIJe9SJTQQIbUcR2ZKSbUA1_Mw","lat":48.2057023,"lon":16.3093942,"name":"FITINN","city":"Wien","category":"other","tags":["barrierefrei","google_entrance_accessible"],"hours":{"type":"unknown"}},{"id":"gplace_ChIJx3jTdOAHbUcRp0x4zQM79cQ","lat":48.2165768,"lon":16.327671800000005,"name":"Jetzt Bar+Entertainment","city":"Wien","category":"gastro","tags":["barrierefrei","google_entrance_accessible"],"hours":{"type":"unknown"}},{"id":"gplace_ChIJW5xM2uAHbUcRhiv4ELmKLZ8","lat":48.214186999999995,"lon":16.330433,"name":"FITINN","city":"Wien","category":"other","tags":["google_has_restroom"],"hours":{"type":"unknown"}},{"id":"gplace_ChIJafX6nvwHbUcRjjKklNIAg70","lat":48.205365099999995,"lon":16.3257031,"name":"Bierosophie","city":"Wien","category":"gastro","tags":["barrierefrei","google_entrance_accessible"],"hours":{"type":"unknown"}},{"id":"gplace_ChIJSYkfSbIJbUcRSzk4CvPv_Ds","lat":48.211397,"lon":16.3191056,"name":"Schuhmeier","city":"Wien","category":"gastro","tags":["barrierefrei","google_wc_accessible"],"hours":{"type":"unknown"}},{"id":"gplace_ChIJiYYJzPwHbUcRsIA7vdNJR5s","lat":48.207853199999995,"lon":16.3132994,"name":"Shell","city":"Wien","category":"gastro","tags":["barrierefrei","google_wc_accessible"],"hours":{"type":"unknown"}},{"id":"gplace_ChIJkzmLO-AHbUcR0-QUkw8ZsPk","lat":48.2153972,"lon":16.3263332,"name":"Hübler Kaffee - Konditorei","city":"Wien","category":"gastro","tags":["barrierefrei","google_entrance_accessible"],"hours":{"type":"unknown"}},{"id":"gplace_ChIJpStV1PoHbUcR5vlXEfebEEA","lat":48.2059505,"lon":16.3305598,"name":"Kod Kuma","city":"Wien","category":"gastro","tags":["google_has_restroom"],"hours":{"type":"unknown"}},{"id":"gplace_ChIJC3IIfQYIbUcRr3aHGFgrQVM","lat":48.2068732,"lon":16.3137641,"name":"OMV","city":"Wien","category":"gastro","tags":["barrierefrei","google_wc_accessible"],"hours":{"type":"unknown"}},{"id":"gplace_ChIJ6XvPHv4HbUcRbWqHVsI_8I4","lat":48.20187190000001,"lon":16.317649199999998,"name":"Shell","city":"Wien","category":"gastro","tags":["barrierefrei","google_wc_accessible"],"hours":{"type":"unknown"}},{"id":"gplace_ChIJT3WOpv8HbUcR-AE-Yxd6QUQ","lat":48.1993308,"lon":16.3188689,"name":"The Golden Harp Irish Pub Rudolfsheim-Fünfhaus","city":"Wien","category":"gastro","tags":["barrierefrei","google_entrance_accessible"],"hours":{"type":"unknown"}},{"id":"gplace_ChIJm6mlbw0IbUcRaF0lkft1zxI","lat":48.2171938,"lon":16.312833500000004,"name":"Gelbmanns Gaststube","city":"Wien","category":"gastro","tags":["google_has_restroom"],"hours":{"type":"unknown"}},{"id":"gplace_ChIJo_XiTBMIbUcRKTm0AzY-xHw","lat":48.219727,"lon":16.3070458,"name":"INTERSPAR","city":"Wien","category":"other","tags":["barrierefrei","google_wc_accessible"],"hours":{"type":"unknown"}},{"id":"gplace_ChIJ89LYqbQJbUcRxfSH5HQgcdg","lat":48.227801799999995,"lon":16.3271258,"name":"Buffalino Vienna","city":"Wien","category":"gastro","tags":["barrierefrei","google_wc_accessible"],"hours":{"type":"unknown"}},{"id":"gplace_ChIJnU7fmXMIbUcR0Pj6cJK77Qc","lat":48.221212,"lon":16.319758999999998,"name":"XxXL Grill Restaurant","city":"Wien","category":"gastro","tags":["google_has_restroom"],"hours":{"type":"unknown"}},{"id":"gplace_ChIJ1WrJd3MIbUcRjMVLN17q24Q","lat":48.2203831,"lon":16.3195789,"name":"Gasthaus zur Grünen Laterne","city":"Wien","category":"gastro","tags":["barrierefrei","google_entrance_accessible"],"hours":{"type":"unknown"}},{"id":"gplace_ChIJIymg9hEIbUcRKlSMkmoW4Ww","lat":48.2186941,"lon":16.3055819,"name":"Heuriger Sissi Huber","city":"Wien","category":"gastro","tags":["google_has_restroom"],"hours":{"type":"unknown"}},{"id":"gplace_ChIJ37AA_vUJbUcRsIMI8AlT5yM","lat":48.221565299999995,"lon":16.3208982,"name":"Melman's","city":"Wien","category":"gastro","tags":["google_has_restroom"],"hours":{"type":"unknown"}},{"id":"gplace_ChIJuVR8gwoIbUcRGw9siR5qG6c","lat":48.215053399999995,"lon":16.3244756,"name":"Turmöl","city":"Wien","category":"gastro","tags":["barrierefrei","google_wc_accessible"],"hours":{"type":"unknown"}},{"id":"gplace_ChIJr5IVBHIIbUcRkT1BolbIKV8","lat":48.223244199999996,"lon":16.315718399999998,"name":"Turmöl","city":"Wien","category":"gastro","tags":["barrierefrei","google_wc_accessible"],"hours":{"type":"unknown"}},{"id":"gplace_ChIJMTDMV30IbUcRnGgg3XTJngI","lat":48.229079500000005,"lon":16.328910099999998,"name":"Shell","city":"Wien","category":"gastro","tags":["barrierefrei","google_wc_accessible"],"hours":{"type":"unknown"}},{"id":"gplace_ChIJNRBQ0nMIbUcRccNc4VR5TDg","lat":48.228474999999996,"lon":16.328637,"name":"Hofer","city":"Wien","category":"other","tags":["barrierefrei","google_wc_accessible"],"hours":{"type":"unknown"}},{"id":"gplace_ChIJlVJ3U94HbUcR5yAWlQJ5nLI","lat":48.2182751,"lon":16.3307979,"name":"BURGER KING Wien","city":"Wien","category":"gastro","tags":["barrierefrei","google_entrance_accessible"],"hours":{"type":"unknown"}},{"id":"gplace_ChIJQSx-w9AJbUcR1kz61N83BYs","lat":48.2344771,"lon":16.3277535,"name":"Blumencafe Wien","city":"Wien","category":"gastro","tags":["barrierefrei","google_entrance_accessible"],"hours":{"type":"unknown"}},{"id":"gplace_ChIJPQ8m5aEHbUcRICnAeeIc0vE","lat":48.24117,"lon":16.33168,"name":"BILLA PLUS","city":"Wien","category":"other","tags":["barrierefrei","google_entrance_accessible"],"hours":{"type":"unknown"}},{"id":"gplace_ChIJp4AkA1cJbUcRgr4IQVFCVTQ","lat":48.2331844,"lon":16.3282158,"name":"Amici Pizzeria","city":"Wien","category":"gastro","tags":["google_has_restroom"],"hours":{"type":"unknown"}},{"id":"gplace_ChIJ5x9eVX4IbUcRgh3sJeIJbLs","lat":48.2342981,"lon":16.331628,"name":"Meierei Diglas im Türkenschanzpark","city":"Wien","category":"gastro","tags":["barrierefrei","google_wc_accessible"],"hours":{"type":"unknown"}},{"id":"gplace_ChIJ5YBKJIcIbUcRxEEnehFq174","lat":48.239033,"lon":16.330616199999998,"name":"Salettl!Salettl!","city":"Wien","category":"gastro","tags":["barrierefrei","google_entrance_accessible"],"hours":{"type":"unknown"}},{"id":"gplace_ChIJQVmpQXkIbUcRZkm3RfNNBdk","lat":48.2309583,"lon":16.3284979,"name":"Centimeter in Gersthof","city":"Wien","category":"gastro","tags":["google_has_restroom"],"hours":{"type":"unknown"}},{"id":"gplace_ChIJlYDGol0IbUcR2CM-HHoKNT0","lat":48.233492,"lon":16.3052049,"name":"Schutzhaus am Schafberg","city":"Wien","category":"gastro","tags":["barrierefrei","google_wc_accessible"],"hours":{"type":"unknown"}},{"id":"gplace_ChIJrx_yA4YIbUcR_3E9Sh85MBI","lat":48.242190099999995,"lon":16.3264873,"name":"HOFER","city":"Wien","category":"other","tags":["barrierefrei","google_wc_accessible"],"hours":{"type":"unknown"}},{"id":"gplace_ChIJg91fTBUJbUcRPkxV5xTdliY","lat":48.2319937,"lon":16.328307199999998,"name":"Lilla Soul Boulangerie","city":"Wien","category":"gastro","tags":["barrierefrei","google_entrance_accessible"],"hours":{"type":"unknown"}},{"id":"gplace_ChIJ6905a3kIbUcRPR6yBpVH7pg","lat":48.2304663,"lon":16.3285371,"name":"Café Stadtbahn","city":"Wien","category":"gastro","tags":["google_has_restroom","barrierefrei","google_entrance_accessible"],"hours":{"type":"unknown"}},{"id":"gplace_ChIJC9UhPwAJbUcRUQQsfiE1z4c","lat":48.2301802,"lon":16.3311101,"name":"Pasta e Basta","city":"Wien","category":"gastro","tags":["google_has_restroom"],"hours":{"type":"unknown"}},{"id":"gplace_ChIJCaWGYmQIbUcRNEWehOidiqM","lat":48.232751699999994,"lon":16.317340299999998,"name":"Herbeck Neue Gastwirtschaft","city":"Wien","category":"gastro","tags":["google_has_restroom"],"hours":{"type":"unknown"}},{"id":"gplace_ChIJj1I5eWQIbUcRc2O5V9mqeZs","lat":48.233431499999995,"lon":16.3172619,"name":"Café Mayer","city":"Wien","category":"gastro","tags":["google_has_restroom"],"hours":{"type":"unknown"}},{"id":"gplace_ChIJQSWUZSKobUcRTOURkS9kr3U","lat":48.187783599999996,"lon":16.338995399999998,"name":"Burger King","city":"Wien","category":"gastro","tags":["barrierefrei","google_wc_accessible"],"hours":{"type":"unknown"}},{"id":"gplace_ChIJMdwZdq2pbUcR472TyJY65CY","lat":48.18367370000001,"lon":16.3443824,"name":"Ferhatovic Austria","city":"Wien","category":"gastro","tags":["barrierefrei","google_entrance_accessible"],"hours":{"type":"unknown"}},{"id":"gplace_ChIJ767P4CGobUcRGWRIdQ3VmeE","lat":48.1906056,"lon":16.340127799999998,"name":"Bauernbräu","city":"Wien","category":"gastro","tags":["barrierefrei","google_wc_accessible"],"hours":{"type":"unknown"}},{"id":"gplace_ChIJG9w5EECobUcR6_qZbYhmynA","lat":48.174772000000004,"lon":16.331012299999998,"name":"McDonald's","city":"Wien","category":"gastro","tags":["barrierefrei","google_wc_accessible"],"hours":{"type":"unknown"}},{"id":"gplace_ChIJi3x4SPAHbUcRvJpnK4iUmsA","lat":48.203440199999996,"lon":16.3341584,"name":"Lugner City","city":"Wien","category":"other","tags":["barrierefrei","google_wc_accessible"],"hours":{"type":"unknown"}},{"id":"gplace_ChIJg9hfKosHbUcRPtjALpmhnek","lat":48.196292299999996,"lon":16.3427678,"name":"Ebi 7","city":"Wien","category":"gastro","tags":["barrierefrei","google_wc_accessible"],"hours":{"type":"unknown"}},{"id":"gplace_ChIJSx0Xph-obUcRqqQJ0t36eMg","lat":48.1927059,"lon":16.3377758,"name":"Travel Shack Vienna","city":"Wien","category":"gastro","tags":["google_has_restroom"],"hours":{"type":"unknown"}},{"id":"gplace_ChIJRa2wNPUHbUcRV6Wy9zJRnew","lat":48.1956735,"lon":16.3424139,"name":"Gasthaus Zum Wohl","city":"Wien","category":"gastro","tags":["google_has_restroom"],"hours":{"type":"unknown"}},{"id":"gplace_ChIJO94SS_EHbUcRIL8R9C03014","lat":48.2004927,"lon":16.3366213,"name":"Restaurant Galaxie","city":"Wien","category":"gastro","tags":["google_has_restroom"],"hours":{"type":"unknown"}},{"id":"gplace_ChIJucqfnPEHbUcRt2E7MAnBtVw","lat":48.2028738,"lon":16.3378092,"name":"PROSI Exotic Supermarket | Food from Asia, Africa & Latin America","city":"Wien","category":"gastro","tags":["barrierefrei","google_wc_accessible"],"hours":{"type":"unknown"}},{"id":"gplace_ChIJgz-8BnwHbUcROPum-xik3tk","lat":48.216080399999996,"lon":16.3414566,"name":"McDonald's","city":"Wien","category":"gastro","tags":["barrierefrei","google_wc_accessible"],"hours":{"type":"unknown"}},{"id":"gplace_ChIJNY4_8woHbUcRQLwTqZ2l8Wg","lat":48.2048309,"lon":16.3436502,"name":"Seven North Vienna","city":"Wien","category":"gastro","tags":["barrierefrei","google_wc_accessible"],"hours":{"type":"unknown"}},{"id":"gplace_ChIJae8Jp-8HbUcRA5JzMmMci4w","lat":48.209877,"lon":16.339004499999998,"name":"Chelsea","city":"Wien","category":"gastro","tags":["barrierefrei","google_entrance_accessible"],"hours":{"type":"unknown"}},{"id":"gplace_ChIJOcl8MR4HbUcRHxkUKPg7zTM","lat":48.210437899999995,"lon":16.345998599999998,"name":"tagsüber","city":"Wien","category":"gastro","tags":["barrierefrei","google_entrance_accessible"],"hours":{"type":"unknown"}},{"id":"gplace_ChIJ8YUuROwHbUcRsInVdKw3B-4","lat":48.207486499999995,"lon":16.3443295,"name":"Melangerie - Caffeterie & Bistro","city":"Wien","category":"gastro","tags":["google_has_restroom"],"hours":{"type":"unknown"}},{"id":"gplace_ChIJ-c7dYOkHbUcRECbLZSxMIvE","lat":48.2107719,"lon":16.343761,"name":"Café Restaurant Hummel","city":"Wien","category":"gastro","tags":["barrierefrei","google_wc_accessible"],"hours":{"type":"unknown"}},{"id":"gplace_ChIJJWATPe8HbUcRF1JgsGH5hww","lat":48.208956099999995,"lon":16.33823,"name":"The Loft","city":"Wien","category":"gastro","tags":["barrierefrei","google_wc_accessible"],"hours":{"type":"unknown"}},{"id":"gplace_ChIJv5IxhsIHbUcRGWjNgyBAkzQ","lat":48.2150688,"lon":16.3425562,"name":"Café Benno","city":"Wien","category":"gastro","tags":["google_has_restroom"],"hours":{"type":"unknown"}},{"id":"gplace_ChIJsaoOEQAHbUcRe03JnwgrNjo","lat":48.2090484,"lon":16.336054999999998,"name":"CHICKEN PLUS","city":"Wien","category":"gastro","tags":["barrierefrei","google_entrance_accessible"],"hours":{"type":"unknown"}},{"id":"gplace_ChIJEePHlO4HbUcRT5874a8AKlw","lat":48.2082665,"lon":16.3407624,"name":"Pars Restaurant","city":"Wien","category":"gastro","tags":["google_has_restroom"],"hours":{"type":"unknown"}},{"id":"gplace_ChIJ8f8R290HbUcRPov_5XMqV-c","lat":48.2175191,"lon":16.3344108,"name":"Wiener Metropol","city":"Wien","category":"gastro","tags":["barrierefrei","google_wc_accessible"],"hours":{"type":"unknown"}},{"id":"gplace_ChIJicJv_dwHbUcROUAGu4cZu-I","lat":48.2178858,"lon":16.338126199999998,"name":"INTERSPAR","city":"Wien","category":"other","tags":["barrierefrei","google_wc_accessible"],"hours":{"type":"unknown"}},{"id":"gplace_ChIJ34HBZcUHbUcRPwwUSPut4D0","lat":48.223587099999996,"lon":16.346697499999998,"name":"Café Schopenhauer","city":"Wien","category":"gastro","tags":["google_has_restroom"],"hours":{"type":"unknown"}},{"id":"gplace_ChIJjcxV0w4HbUcRfg52IcKWvq0","lat":48.222203799999996,"lon":16.3413516,"name":"Hoskar Restaurant","city":"Wien","category":"gastro","tags":["barrierefrei","google_wc_accessible"],"hours":{"type":"unknown"}},{"id":"gplace_ChIJ1UGcGdAHbUcRcDHiyPhwMT0","lat":48.225381999999996,"lon":16.344827,"name":"Himmelblau","city":"Wien","category":"gastro","tags":["google_has_restroom"],"hours":{"type":"unknown"}},{"id":"gplace_ChIJoV3JGOgHbUcRbbrllP32ehg","lat":48.214669199999996,"lon":16.3408133,"name":"B72","city":"Wien","category":"gastro","tags":["barrierefrei","google_entrance_accessible"],"hours":{"type":"unknown"}},{"id":"gplace_ChIJm62mf94HbUcRziCFy7Vjh7s","lat":48.2182661,"lon":16.333852099999998,"name":"Tausend und eine Nacht Café Restaurant","city":"Wien","category":"gastro","tags":["google_has_restroom"],"hours":{"type":"unknown"}},{"id":"gplace_ChIJs2pnAtcHbUcRzQrTxJWbT3o","lat":48.228159899999994,"lon":16.3367769,"name":"Café|Restaurant|Bar aumann","city":"Wien","category":"gastro","tags":["barrierefrei","google_wc_accessible"],"hours":{"type":"unknown"}},{"id":"gplace_ChIJXeW7NeYHbUcRLGYGvq1fy5g","lat":48.2127195,"lon":16.3362642,"name":"Kent Restaurant","city":"Wien","category":"gastro","tags":["barrierefrei","google_wc_accessible"],"hours":{"type":"unknown"}},{"id":"gplace_ChIJ202XKMMHbUcRP7yYw9Wb3Bw","lat":48.217445299999994,"lon":16.3415487,"name":"Centimeter bei den Stadtbahnbögen","city":"Wien","category":"gastro","tags":["google_has_restroom"],"hours":{"type":"unknown"}},{"id":"gplace_ChIJGd-oPO0JbUcRKLidhOZyEk0","lat":48.2414499,"lon":16.3397393,"name":"Fiederchen","city":"Wien","category":"gastro","tags":["google_has_restroom"],"hours":{"type":"unknown"}},{"id":"gplace_ChIJwxtGFGYHbUcR3zGl35h6guQ","lat":48.2436534,"lon":16.341839699999998,"name":"Caffè a Casa","city":"Wien","category":"gastro","tags":["google_has_restroom"],"hours":{"type":"unknown"}},{"id":"gplace_ChIJ17prEgIHbUcRK6XQ_41oZV4","lat":48.2284956,"lon":16.3383003,"name":"Café Trabant","city":"Wien","category":"gastro","tags":["google_has_restroom"],"hours":{"type":"unknown"}},{"id":"gplace_ChIJDWR79SkGbUcRXTT1H-Fj-hQ","lat":48.240355,"lon":16.341965,"name":"bp","city":"Wien","category":"gastro","tags":["barrierefrei","google_wc_accessible"],"hours":{"type":"unknown"}},{"id":"gplace_ChIJI7b1X9mpbUcRS5JRTLF_JBw","lat":48.168228799999994,"lon":16.3481894,"name":"Restaurant Ebi 10","city":"Wien","category":"gastro","tags":["barrierefrei","google_wc_accessible","google_entrance_accessible"],"hours":{"type":"unknown"}},{"id":"gplace_ChIJc1IGzE2obUcRYb7Rj9g4vak","lat":48.1652202,"lon":16.346301699999998,"name":"McDonald's","city":"Wien","category":"gastro","tags":["barrierefrei","google_wc_accessible"],"hours":{"type":"unknown"}},{"id":"gplace_ChIJ9zrA7DSobUcRZlisZvDS0C4","lat":48.1753615,"lon":16.3568852,"name":"MiS Kebab","city":"Wien","category":"gastro","tags":["google_has_restroom"],"hours":{"type":"unknown"}},{"id":"gplace_ChIJkx-AFUaobUcRAed2CimIPRY","lat":48.1697853,"lon":16.3388812,"name":"BILLA PLUS","city":"Wien","category":"other","tags":["barrierefrei","google_wc_accessible"],"hours":{"type":"unknown"}},{"id":"gplace_ChIJhetkNUmobUcREKm9W0WBr0s","lat":48.1658985,"lon":16.3481258,"name":"Müller Bräu","city":"Wien","category":"gastro","tags":["barrierefrei","google_wc_accessible"],"hours":{"type":"unknown"}},{"id":"gplace_ChIJPcavA9-pbUcRxJ-hz_hn3Iw","lat":48.1764946,"lon":16.354257,"name":"clever fit Wien-Favoriten","city":"Wien","category":"gastro","tags":["barrierefrei","google_wc_accessible"],"hours":{"type":"unknown"}},{"id":"gplace_ChIJ_Ys701qobUcReqGH7_DEZpI","lat":48.164919999999995,"lon":16.334820000000004,"name":"HOFER","city":"Wien","category":"other","tags":["barrierefrei","google_wc_accessible"],"hours":{"type":"unknown"}},{"id":"gplace_ChIJ61P-IFSobUcR-1vtl8Kwffo","lat":48.1655714,"lon":16.346891199999998,"name":"bp","city":"Wien","category":"gastro","tags":["barrierefrei","google_wc_accessible"],"hours":{"type":"unknown"}},{"id":"gplace_ChIJF_x0fEOobUcRaxT_HJGjjE8","lat":48.1682729,"lon":16.332948,"name":"Schutzhaus Meidling","city":"Wien","category":"gastro","tags":["barrierefrei","google_wc_accessible"],"hours":{"type":"unknown"}},{"id":"gplace_ChIJYclsurSpbUcRtypoGlWXnDk","lat":48.167691999999995,"lon":16.3554675,"name":"Eni","city":"Wien","category":"tankstelle","tags":["barrierefrei","google_wc_accessible"],"hours":{"type":"unknown"}},{"id":"gplace_ChIJhetkNUmobUcRch_l1dU7iAg","lat":48.168228799999994,"lon":16.345315,"name":"BURGER KING® Wienerberg","city":"Wien","category":"gastro","tags":["barrierefrei","google_wc_accessible"],"hours":{"type":"unknown"}},{"id":"gplace_ChIJ1bvMDECobUcRdcyPIY-Mt-k","lat":48.174788,"lon":16.3318433,"name":"Damla","city":"Wien","category":"gastro","tags":["barrierefrei","google_entrance_accessible"],"hours":{"type":"unknown"}},{"id":"gplace_ChIJ32fZ6eipbUcRE54jDvSPido","lat":48.179449299999995,"lon":16.3474793,"name":"Gleis//Garten","city":"Wien","category":"gastro","tags":["barrierefrei","google_wc_accessible"],"hours":{"type":"unknown"}},{"id":"gplace_ChIJb-1LLieobUcRYK_CUnBmA6E","lat":48.1914929,"lon":16.3474192,"name":"Disco Volante","city":"Wien","category":"gastro","tags":["barrierefrei","google_entrance_accessible"],"hours":{"type":"unknown"}},{"id":"gplace_ChIJMQdQAzGobUcRrGNq5CkRFpg","lat":48.179538699999995,"lon":16.351109,"name":"McDonald's","city":"Wien","category":"gastro","tags":["barrierefrei","google_wc_accessible"],"hours":{"type":"unknown"}},{"id":"gplace_ChIJUQXzUrWpbUcRl516O1q4ipY","lat":48.177422899999996,"lon":16.3564516,"name":"OMV","city":"Wien","category":"tankstelle","tags":["barrierefrei","google_wc_accessible"],"hours":{"type":"unknown"}},{"id":"gplace_ChIJHx6Jh_-pbUcROvkajdf89_U","lat":48.1879053,"lon":16.35115,"name":"Laroche Restaurant - مطعم لاروش","city":"Wien","category":"gastro","tags":["google_has_restroom"],"hours":{"type":"unknown"}},{"id":"gplace_ChIJGaPCSfepbUcRk79SYcavick","lat":48.1853273,"lon":16.3540277,"name":"Fit Cake Vienna","city":"Wien","category":"gastro","tags":["barrierefrei","google_wc_accessible"],"hours":{"type":"unknown"}},{"id":"gplace_ChIJe6VNRTuobUcREuNpOO_ifVQ","lat":48.1832286,"lon":16.3430984,"name":"Uno Momento","city":"Wien","category":"gastro","tags":["barrierefrei","google_wc_accessible"],"hours":{"type":"unknown"}},{"id":"gplace_ChIJSWCrBjOobUcRMnAhdJXxcGM","lat":48.178850999999995,"lon":16.357798,"name":"Shell","city":"Wien","category":"gastro","tags":["barrierefrei","google_wc_accessible"],"hours":{"type":"unknown"}},{"id":"gplace_ChIJX8fnGS-obUcRQuvpiRIbICI","lat":48.1857444,"lon":16.353741799999998,"name":"Café Siebenbrunnen","city":"Wien","category":"gastro","tags":["barrierefrei","google_wc_accessible"],"hours":{"type":"unknown"}},{"id":"gplace_ChIJGaSWqhmobUcREiMTki2Awr8","lat":48.187725699999994,"lon":16.333835399999998,"name":"Hawidere | Bier · Burger · Bar","city":"Wien","category":"gastro","tags":["google_has_restroom"],"hours":{"type":"unknown"}},{"id":"gplace_ChIJ2-iEcY0HbUcRey8RJa8Iq9I","lat":48.2025369,"lon":16.3491982,"name":"Schnitzelwirt","city":"Wien","category":"gastro","tags":["google_has_restroom"],"hours":{"type":"unknown"}},{"id":"gplace_ChIJ219HP5IHbUcRbUPt1aeiwnw","lat":48.2043818,"lon":16.352873,"name":"ULRICH","city":"Wien","category":"gastro","tags":["barrierefrei","google_wc_accessible","google_has_restroom"],"hours":{"type":"unknown"}},{"id":"gplace_ChIJz860h4kHbUcRvp4byquVfPY","lat":48.1952021,"lon":16.3494101,"name":"Café Jelinek","city":"Wien","category":"gastro","tags":["google_has_restroom"],"hours":{"type":"unknown"}},{"id":"gplace_ChIJf9SSOowHbUcRb7NaeIzgOvs","lat":48.1998866,"lon":16.3508971,"name":"Café Europa","city":"Wien","category":"gastro","tags":["google_has_restroom"],"hours":{"type":"unknown"}},{"id":"gplace_ChIJB9G_RioHbUcRaLI6MfcRdKw","lat":48.198268299999995,"lon":16.3509136,"name":"CHEZ BERNARD Restaurant et Bar","city":"Wien","category":"gastro","tags":["barrierefrei","google_wc_accessible"],"hours":{"type":"unknown"}},{"id":"gplace_ChIJVVVViI4HbUcRdOtE65CxqB8","lat":48.1998168,"lon":16.3533821,"name":"Kaufhaus Gerngross","city":"Wien","category":"other","tags":["barrierefrei","google_wc_accessible"],"hours":{"type":"unknown"}},{"id":"gplace_ChIJb4IJjIgHbUcRgZzz7PM6N00","lat":48.195331100000004,"lon":16.355116499999998,"name":"Café Rüdigerhof","city":"Wien","category":"gastro","tags":["barrierefrei","google_entrance_accessible"],"hours":{"type":"unknown"}},{"id":"gplace_ChIJDaTAoo8HbUcRGkJAm7eJqUs","lat":48.200203800000004,"lon":16.3574535,"name":"Café Kafka","city":"Wien","category":"gastro","tags":["barrierefrei","google_entrance_accessible"],"hours":{"type":"unknown"}},{"id":"gplace_ChIJy_We-5EHbUcRbbyWqg1LPfQ","lat":48.2031852,"lon":16.354367099999997,"name":"Amerlingbeisl","city":"Wien","category":"gastro","tags":["barrierefrei","google_wc_accessible"],"hours":{"type":"unknown"}},{"id":"gplace_ChIJ2Y34y5EHbUcRgF-6e5kuLmc","lat":48.2031407,"lon":16.3571362,"name":"Glacis Beisl","city":"Wien","category":"gastro","tags":["barrierefrei","google_wc_accessible"],"hours":{"type":"unknown"}},{"id":"gplace_ChIJ2cCwoOoHbUcR-kPiahbtd50","lat":48.2132332,"lon":16.3513344,"name":"Via Toledo Enopizzeria","city":"Wien","category":"gastro","tags":["google_has_restroom"],"hours":{"type":"unknown"}},{"id":"gplace_ChIJL5nW7oMHbUcRU1UlclP4m84","lat":48.210480999999994,"lon":16.3540045,"name":"Centimeter beim Rathaus","city":"Wien","category":"gastro","tags":["barrierefrei","google_entrance_accessible"],"hours":{"type":"unknown"}},{"id":"gplace_ChIJmfUeQ5QHbUcRLHDmvAAJsHM","lat":48.20938760000001,"lon":16.3548005,"name":"Café Eiles","city":"Wien","category":"gastro","tags":["barrierefrei","google_entrance_accessible"],"hours":{"type":"unknown"}},{"id":"gplace_ChIJyzikK8MHbUcRO2R9NWqzzbE","lat":48.2027685,"lon":16.355773,"name":"Santos Neubau I Mexican Grill & Bar","city":"Wien","category":"gastro","tags":["barrierefrei","google_entrance_accessible"],"hours":{"type":"unknown"}},{"id":"gplace_ChIJqaJOBo4HbUcRLSRAGcYaP6c","lat":48.202198,"lon":16.353507999999998,"name":"7Stern Bräu","city":"Wien","category":"gastro","tags":["google_has_restroom"],"hours":{"type":"unknown"}},{"id":"gplace_ChIJYXIM02YHbUcRDzA5eXnj55Q","lat":48.2124246,"lon":16.3551087,"name":"The Long Hall Bar Vienna","city":"Wien","category":"gastro","tags":["barrierefrei","google_wc_accessible"],"hours":{"type":"unknown"}},{"id":"gplace_ChIJlVc37swHbUcROb217teIDog","lat":48.231037199999996,"lon":16.35172,"name":"Loco Bar","city":"Wien","category":"gastro","tags":["barrierefrei","google_wc_accessible"],"hours":{"type":"unknown"}},{"id":"gplace_ChIJ3a8QIcEHbUcRr8y9lFyb1Hw","lat":48.2173845,"lon":16.3511695,"name":"CoffeePirates","city":"Wien","category":"gastro","tags":["barrierefrei","google_entrance_accessible"],"hours":{"type":"unknown"}},{"id":"gplace_ChIJz45_pQ0HbUcRSb7xZK8UUEw","lat":48.2210025,"lon":16.360495999999998,"name":"DAS1090","city":"Wien","category":"gastro","tags":["barrierefrei","google_wc_accessible"],"hours":{"type":"unknown"}},{"id":"gplace_ChIJNQ1uLbAHbUcRCI7jIWi5Vkc","lat":48.215661499999996,"lon":16.3453315,"name":"Takumi Yakisoba & Ramen Alservorstadt Wien","city":"Wien","category":"gastro","tags":["google_has_restroom"],"hours":{"type":"unknown"}},{"id":"gplace_ChIJL8vCPsAHbUcRgQjjrUKlpb8","lat":48.2144043,"lon":16.3511785,"name":"Crème de la Crème","city":"Wien","category":"gastro","tags":["barrierefrei","google_wc_accessible"],"hours":{"type":"unknown"}},{"id":"gplace_ChIJ1dwnJb8HbUcRtwrhvgxG13E","lat":48.216644300000006,"lon":16.357193199999998,"name":"Welt Cafe (world Cafe)","city":"Wien","category":"gastro","tags":["barrierefrei","google_wc_accessible"],"hours":{"type":"unknown"}},{"id":"gplace_ChIJhSIYeOoHbUcRmFV5QRDBfp8","lat":48.213576599999996,"lon":16.3484914,"name":"SpielBar","city":"Wien","category":"gastro","tags":["google_has_restroom"],"hours":{"type":"unknown"}},{"id":"gplace_ChIJYyTRb-4HbUcRU95SiP2D-Ro","lat":48.2253025,"lon":16.3553194,"name":"Rado's Gasthaus","city":"Wien","category":"gastro","tags":["barrierefrei","google_entrance_accessible"],"hours":{"type":"unknown"}},{"id":"gplace_ChIJfQgDIAAHbUcRtXEQIYGBBbE","lat":48.221456100000005,"lon":16.3592984,"name":"Shaped by iB","city":"Wien","category":"other","tags":["google_has_restroom"],"hours":{"type":"unknown"}},{"id":"gplace_ChIJ6ww53bEHbUcR81-G9xxhOms","lat":48.213661599999995,"lon":16.3437111,"name":"Vevi Restaurant Albertgasse","city":"Wien","category":"gastro","tags":["barrierefrei","google_entrance_accessible"],"hours":{"type":"unknown"}},{"id":"gplace_ChIJRbPEKeoHbUcRaAm36KSJRlA","lat":48.2122636,"lon":16.3450792,"name":"L'Osteria Wien Florianigasse","city":"Wien","category":"gastro","tags":["barrierefrei","google_wc_accessible"],"hours":{"type":"unknown"}},{"id":"gplace_ChIJzYTy9zQGbUcR_RvHXJRe0mk","lat":48.2342754,"lon":16.3608934,"name":"Grelle Forelle","city":"Wien","category":"gastro","tags":["barrierefrei","google_wc_accessible"],"hours":{"type":"unknown"}},{"id":"gplace_ChIJUbIjsswHbUcRRphh7brw2sA","lat":48.2325994,"lon":16.355367299999997,"name":"Jasmin Al-Sham","city":"Wien","category":"gastro","tags":["google_has_restroom"],"hours":{"type":"unknown"}},{"id":"gplace_ChIJxR3PWC0GbUcRkaCngL-oS74","lat":48.2347275,"lon":16.3506221,"name":"Fischer Bräu - Erste Wiener Gasthaus-Brauerei","city":"Wien","category":"gastro","tags":["barrierefrei","google_wc_accessible"],"hours":{"type":"unknown"}},{"id":"gplace_ChIJdw9QZSYGbUcR_HYV9UopG4U","lat":48.246141699999995,"lon":16.3494889,"name":"Das Cottage","city":"Wien","category":"gastro","tags":["google_has_restroom"],"hours":{"type":"unknown"}},{"id":"gplace_ChIJlT3QEiQHbUcRljDMX-FxOOw","lat":48.234205599999996,"lon":16.3491169,"name":"Clever Fit Wien Döbling","city":"Wien","category":"other","tags":["barrierefrei","google_wc_accessible"],"hours":{"type":"unknown"}},{"id":"gplace_ChIJw2roBzMGbUcRXSxmY1ubwMs","lat":48.235590599999995,"lon":16.3558719,"name":"Brandauer Bierbögen","city":"Wien","category":"gastro","tags":["barrierefrei","google_entrance_accessible","google_has_restroom"],"hours":{"type":"unknown"}},{"id":"gplace_ChIJEQNukMsHbUcR42hMZ-nG_fs","lat":48.2296829,"lon":16.3562252,"name":"The Sign | Cocktail Bar | Bar","city":"Wien","category":"gastro","tags":["barrierefrei","google_wc_accessible"],"hours":{"type":"unknown"}},{"id":"gplace_ChIJwXWNYhMJbUcRfzRIyvGLYFk","lat":48.2457107,"lon":16.341254199999998,"name":"Café Friedl GmbH","city":"Wien","category":"gastro","tags":["barrierefrei","google_wc_accessible"],"hours":{"type":"unknown"}},{"id":"gplace_ChIJ2V_rts4HbUcRzKs1Zu5RTKc","lat":48.227341599999995,"lon":16.3532151,"name":"isaac's pub","city":"Wien","category":"gastro","tags":["google_has_restroom"],"hours":{"type":"unknown"}},{"id":"gplace_ChIJPSQb_AsHbUcRMnpXmyUSrYE","lat":48.225962700000004,"lon":16.3401554,"name":"Ariston Hellenic","city":"Wien","category":"gastro","tags":["barrierefrei","google_wc_accessible"],"hours":{"type":"unknown"}},{"id":"gplace_ChIJd2I_Qp0IbUcRXkFuinTdpG8","lat":48.2463074,"lon":16.3422823,"name":"McDonald's","city":"Wien","category":"gastro","tags":["barrierefrei","google_wc_accessible"],"hours":{"type":"unknown"}},{"id":"gplace_ChIJ_X8_OcMHbUcR9Aa6x1ugpKM","lat":48.23126440000001,"lon":16.3524839,"name":"CellaVie Aviation Club & Lounge","city":"Wien","category":"gastro","tags":["barrierefrei","google_wc_accessible"],"hours":{"type":"unknown"}},{"id":"gplace_ChIJCZl7KiAGbUcRMKkK4osruDs","lat":48.2541897,"lon":16.3513435,"name":"Weingut Feuerwehr Wagner","city":"Wien","category":"gastro","tags":["barrierefrei","google_entrance_accessible"],"hours":{"type":"unknown"}},{"id":"gplace_ChIJReB2zp0IbUcRBmF_SwQ_qcg","lat":48.2496337,"lon":16.3421918,"name":"L'autentico","city":"Wien","category":"gastro","tags":["google_has_restroom"],"hours":{"type":"unknown"}},{"id":"gplace_ChIJxd4oXZ8IbUcRVWHO_hYp8p8","lat":48.2548394,"lon":16.3427828,"name":"L'Osteria Wien Grinzing","city":"Wien","category":"gastro","tags":["barrierefrei","google_wc_accessible"],"hours":{"type":"unknown"}},{"id":"gplace_ChIJSWrI9RgGbUcR4bBGLgdLe9g","lat":48.2545986,"lon":16.3586885,"name":"Pfarrwirt","city":"Wien","category":"gastro","tags":["barrierefrei","google_wc_accessible"],"hours":{"type":"unknown"}},{"id":"gplace_ChIJx86BLCAGbUcREYULEP-1x0s","lat":48.253622799999995,"lon":16.351067099999998,"name":"Francesco Grinzing","city":"Wien","category":"gastro","tags":["barrierefrei","google_entrance_accessible"],"hours":{"type":"unknown"}},{"id":"gplace_ChIJL92H26EIbUcRtDGo4geE0C8","lat":48.2556619,"lon":16.3438277,"name":"Heuriger Maly","city":"Wien","category":"gastro","tags":["barrierefrei","google_wc_accessible"],"hours":{"type":"unknown"}},{"id":"gplace_ChIJeb3P4yEGbUcRMszQCoeQen4","lat":48.2538652,"lon":16.3535786,"name":"Restaurant Athene","city":"Wien","category":"gastro","tags":["barrierefrei","google_entrance_accessible"],"hours":{"type":"unknown"}},{"id":"gplace_ChIJMybtLpsIbUcRaYWd1Pr7t88","lat":48.2470381,"lon":16.3334771,"name":"Restaurant Eckel","city":"Wien","category":"gastro","tags":["barrierefrei","google_wc_accessible"],"hours":{"type":"unknown"}},{"id":"gplace_ChIJ-U6r3KEIbUcRDEeX0fSjDQ4","lat":48.255949799999996,"lon":16.3449199,"name":"Weingut-Heuriger Alter Bach-Hengl","city":"Wien","category":"gastro","tags":["barrierefrei","google_entrance_accessible"],"hours":{"type":"unknown"}},{"id":"gplace_ChIJUV5dfRgGbUcRXHN5xPvHT-U","lat":48.2539302,"lon":16.3586121,"name":"Restaurant Amador","city":"Wien","category":"gastro","tags":["barrierefrei","google_entrance_accessible"],"hours":{"type":"unknown"}},{"id":"gplace_ChIJr31b8s4HbUcRR0PGt33p7SU","lat":48.2547424,"lon":16.3569042,"name":"Weingut Heuriger Muth","city":"Wien","category":"gastro","tags":["barrierefrei","google_wc_accessible"],"hours":{"type":"unknown"}},{"id":"gplace_ChIJ5YGA-SYGbUcRgLtA5d0iAsk","lat":48.2474156,"lon":16.3482445,"name":"Hengl-Haselbrunner, Weingut und Buschenschank Matthias Hengl e.U.","city":"Wien","category":"gastro","tags":["barrierefrei","google_entrance_accessible"],"hours":{"type":"unknown"}},{"id":"gplace_ChIJI3dcEZcIbUcRUcKafbTM5v0","lat":48.2535926,"lon":16.330368099999998,"name":"Weingut Zawodsky","city":"Wien","category":"gastro","tags":["barrierefrei","google_entrance_accessible"],"hours":{"type":"unknown"}},{"id":"gplace_ChIJ_9Pf86IIbUcRvM0lhHkvz1w","lat":48.2576116,"lon":16.338632399999998,"name":"Müllers Heuriger & Weingut","city":"Wien","category":"gastro","tags":["barrierefrei","google_entrance_accessible"],"hours":{"type":"unknown"}},{"id":"gplace_ChIJCecbRwCpbUcRM9VbHEs50mI","lat":48.1697193,"lon":16.3671071,"name":"Bab Al Yemen","city":"Wien","category":"gastro","tags":["barrierefrei","google_entrance_accessible"],"hours":{"type":"unknown"}},{"id":"gplace_ChIJr7oVKcmpbUcRG0yKsiwMO88","lat":48.1745792,"lon":16.369066699999998,"name":"Cafe Bar Restaurant Prestige","city":"Wien","category":"gastro","tags":["google_has_restroom"],"hours":{"type":"unknown"}},{"id":"gplace_ChIJbbSmZgCpbUcRHhzh86gOtUw","lat":48.176130099999995,"lon":16.364103099999998,"name":"Etiler Smash Burger","city":"Wien","category":"gastro","tags":["google_has_restroom"],"hours":{"type":"unknown"}},{"id":"gplace_ChIJgQ5JKsapbUcR72wSHAJ_m10","lat":48.1722679,"lon":16.371082299999998,"name":"McFIT Fitnessstudio Wien Favoriten (10. Bezirk)","city":"Wien","category":"other","tags":["google_has_restroom"],"hours":{"type":"unknown"}},{"id":"gplace_ChIJscms2rapbUcRMBne9Q9vRbM","lat":48.1658883,"lon":16.3632538,"name":"Groissböck Zentrale","city":"Wien","category":"gastro","tags":["barrierefrei","google_wc_accessible"],"hours":{"type":"unknown"}},{"id":"gplace_ChIJmWTxzLCpbUcRumv4jxBcxbY","lat":48.1652136,"lon":16.3653548,"name":"JET Tankstelle","city":"Wien","category":"tankstelle","tags":["barrierefrei","google_wc_accessible"],"hours":{"type":"unknown"}},{"id":"gplace_ChIJ611rBLipbUcR-uILt04gzyo","lat":48.169241899999996,"lon":16.3704014,"name":"MABEL'S No90","city":"Wien","category":"gastro","tags":["google_has_restroom"],"hours":{"type":"unknown"}},{"id":"gplace_ChIJA5O-nimobUcR3v5jivFRB2I","lat":48.184471699999996,"lon":16.362252899999998,"name":"Hotline 5 | Smash Burger","city":"Wien","category":"gastro","tags":["barrierefrei","google_entrance_accessible"],"hours":{"type":"unknown"}},{"id":"gplace_ChIJf7f_V4cHbUcRW10fyYadlTg","lat":48.1915145,"lon":16.3604719,"name":"Zum alten Fassl","city":"Wien","category":"gastro","tags":["google_has_restroom"],"hours":{"type":"unknown"}},{"id":"gplace_ChIJn5RT3SmobUcR3yN_miS5loc","lat":48.191017699999996,"lon":16.3592025,"name":"Silberwirt","city":"Wien","category":"gastro","tags":["barrierefrei","google_entrance_accessible"],"hours":{"type":"unknown"}},{"id":"gplace_ChIJjwbSF9GpbUcRi3mF6GDeJIs","lat":48.183288999999995,"lon":16.373414,"name":"bp","city":"Wien","category":"gastro","tags":["barrierefrei","google_wc_accessible"],"hours":{"type":"unknown"}},{"id":"gplace_ChIJv9PM-tCpbUcRnNbRnarSufI","lat":48.1823067,"lon":16.374535299999998,"name":"Das Columbus","city":"Wien","category":"gastro","tags":["barrierefrei","google_wc_accessible","google_has_restroom"],"hours":{"type":"unknown"}},{"id":"gplace_ChIJc0XzPSiobUcRDLMKFRzNaAE","lat":48.1909959,"lon":16.3560654,"name":"WerkzeugH","city":"Wien","category":"gastro","tags":["barrierefrei","google_wc_accessible"],"hours":{"type":"unknown"}},{"id":"gplace_ChIJiSL_ggSpbUcR83o8QWKhOGA","lat":48.185527199999996,"lon":16.3711986,"name":"Restaurant Sarajevo","city":"Wien","category":"gastro","tags":["google_has_restroom"],"hours":{"type":"unknown"}},{"id":"gplace_ChIJ2XE5E4UHbUcRnNXnuwsVah8","lat":48.1998326,"lon":16.3611306,"name":"Café Sperl","city":"Wien","category":"gastro","tags":["barrierefrei","google_entrance_accessible","google_wc_accessible"],"hours":{"type":"unknown"}},{"id":"gplace_ChIJ7fk-ioMHbUcRO4DB3TvBYPQ","lat":48.1976187,"lon":16.3651295,"name":"Vollpension","city":"Wien","category":"gastro","tags":["google_has_restroom"],"hours":{"type":"unknown"}},{"id":"gplace_ChIJXWQAVpwHbUcRVEWlweA4xVw","lat":48.2031954,"lon":16.3628841,"name":"SiL - coffee breakfast & more","city":"Wien","category":"gastro","tags":["barrierefrei","google_wc_accessible"],"hours":{"type":"unknown"}},{"id":"gplace_ChIJm2ztMcMHbUcRla9gkOmfLvg","lat":48.1933651,"lon":16.361387999999998,"name":"propeller","city":"Wien","category":"gastro","tags":["barrierefrei","google_wc_accessible"],"hours":{"type":"unknown"}},{"id":"gplace_ChIJ6y6cUYQHbUcRIJKUDEqhSdI","lat":48.1984679,"lon":16.3624537,"name":"Drechsler Wienzeile","city":"Wien","category":"gastro","tags":["barrierefrei","google_wc_accessible"],"hours":{"type":"unknown"}},{"id":"gplace_ChIJTaKjjIQHbUcRr1Cvk38JjHI","lat":48.1979007,"lon":16.3621063,"name":"NENI am Naschmarkt","city":"Wien","category":"gastro","tags":["barrierefrei","google_entrance_accessible"],"hours":{"type":"unknown"}},{"id":"gplace_ChIJLzsM95cHbUcRSS5C-z-H-ls","lat":48.21042740000001,"lon":16.3654339,"name":"Café Central","city":"Wien","category":"gastro","tags":["barrierefrei","google_wc_accessible"],"hours":{"type":"unknown"}},{"id":"gplace_ChIJiY3_UpgHbUcRWCIbHu4EWXY","lat":48.208596199999995,"lon":16.3672185,"name":"Demel Vienna cafe","city":"Wien","category":"gastro","tags":["barrierefrei","google_wc_accessible"],"hours":{"type":"unknown"}},{"id":"gplace_ChIJI85wbpwHbUcR2nlviUzwg9s","lat":48.2039459,"lon":16.3698418,"name":"Café Sacher","city":"Wien","category":"gastro","tags":["barrierefrei","google_wc_accessible","google_entrance_accessible"],"hours":{"type":"unknown"}},{"id":"gplace_ChIJualQc5wHbUcRrzBxds3JZ7I","lat":48.211546899999995,"lon":16.3615167,"name":"Café Landtmann","city":"Wien","category":"gastro","tags":["barrierefrei","google_wc_accessible"],"hours":{"type":"unknown"}},{"id":"gplace_ChIJgw3_f-GnbUcRnYtWHT1XVRc","lat":48.2051035,"lon":16.3667287,"name":"Brasserie Palmenhaus Wien","city":"Wien","category":"gastro","tags":["barrierefrei","google_entrance_accessible"],"hours":{"type":"unknown"}},{"id":"gplace_ChIJ5eAG2LsHbUcRV8rw9zX5pV8","lat":48.2186272,"lon":16.3630759,"name":"Sigmund Freud Museum","city":"Wien","category":"gastro","tags":["barrierefrei","google_wc_accessible"],"hours":{"type":"unknown"}},{"id":"gplace_ChIJyUHiB5EHbUcReYQd2GSG7kg","lat":48.209366900000006,"lon":16.374633799999998,"name":"Figlmüller at Wollzeile","city":"Wien","category":"gastro","tags":["google_has_restroom"],"hours":{"type":"unknown"}},{"id":"gplace_ChIJfx1lJ5kHbUcRsKCobUkQm5U","lat":48.2079768,"lon":16.3699139,"name":"Reinthaler's Beisl","city":"Wien","category":"gastro","tags":["barrierefrei","google_entrance_accessible"],"hours":{"type":"unknown"}},{"id":"gplace_ChIJJYQ1_58HbUcRLEFLK-lDFes","lat":48.2084841,"lon":16.3709983,"name":"Five Guys","city":"Wien","category":"gastro","tags":["barrierefrei","google_wc_accessible"],"hours":{"type":"unknown"}},{"id":"gplace_ChIJ6-JMXJwHbUcRbmUqrz9AwkI","lat":48.203382999999995,"lon":16.3704336,"name":"Gerstner K. u. K. Hofzuckerbäcker","city":"Wien","category":"gastro","tags":["barrierefrei","google_wc_accessible"],"hours":{"type":"unknown"}},{"id":"gplace_ChIJ7Wt7ZJgHbUcRhmIQOTicWhs","lat":48.2100189,"lon":16.3682914,"name":"Zum Schwarzen Kameel","city":"Wien","category":"gastro","tags":["barrierefrei","google_entrance_accessible"],"hours":{"type":"unknown"}},{"id":"gplace_ChIJwxQWv54HbUcRByL7YwlYUA8","lat":48.20648260000001,"lon":16.3715963,"name":"Steffl","city":"Wien","category":"other","tags":["barrierefrei","google_wc_accessible"],"hours":{"type":"unknown"}},{"id":"gplace_ChIJQ0wqUo0HbUcR9GgeaLZto-s","lat":48.217804699999995,"lon":16.3709293,"name":"Flex","city":"Wien","category":"gastro","tags":["google_has_restroom"],"hours":{"type":"unknown"}},{"id":"gplace_ChIJ03Ujz74HbUcRSHXlevHWvfY","lat":48.2166716,"lon":16.3596388,"name":"Charlie P's","city":"Wien","category":"gastro","tags":["barrierefrei","google_entrance_accessible"],"hours":{"type":"unknown"}},{"id":"gplace_ChIJm9MIsb0HbUcR2RCHvhq2RI4","lat":48.213343599999995,"lon":16.3619666,"name":"McDonald's","city":"Wien","category":"gastro","tags":["barrierefrei","google_entrance_accessible"],"hours":{"type":"unknown"}},{"id":"gplace_ChIJKWT3X4kHbUcRtkrNZAvP2-U","lat":48.2137179,"lon":16.3633424,"name":"JOHN REED Fitness Wien Schottentor","city":"Wien","category":"other","tags":["barrierefrei","google_wc_accessible"],"hours":{"type":"unknown"}},{"id":"gplace_ChIJAxjV0bsHbUcR5YjfaHB8ia0","lat":48.2186543,"lon":16.3639629,"name":"Gasthaus Rebhuhn","city":"Wien","category":"gastro","tags":["barrierefrei","google_wc_accessible"],"hours":{"type":"unknown"}},{"id":"gplace_ChIJO6Fmn74HbUcR81fy8FlrJ20","lat":48.215801400000004,"lon":16.360949299999998,"name":"Cafe Francais","city":"Wien","category":"gastro","tags":["google_has_restroom"],"hours":{"type":"unknown"}},{"id":"gplace_ChIJcbjg-7sHbUcRi_51ByyEzZw","lat":48.2171023,"lon":16.362683699999998,"name":"Der Wiener Deewan","city":"Wien","category":"gastro","tags":["google_has_restroom"],"hours":{"type":"unknown"}},{"id":"gplace_ChIJHxc-TicHbUcReZymoqjBDb4","lat":48.2128592,"lon":16.358614199999998,"name":"Ramen Makotoya RATHAUS","city":"Wien","category":"gastro","tags":["barrierefrei","google_entrance_accessible"],"hours":{"type":"unknown"}},{"id":"gplace_ChIJRTBOzbsHbUcR_2kilX0YCUs","lat":48.2191197,"lon":16.3644177,"name":"La Mercerie","city":"Wien","category":"gastro","tags":["google_has_restroom"],"hours":{"type":"unknown"}},{"id":"gplace_ChIJG8JUXvEHbUcRp2MlDl4UqO0","lat":48.2263476,"lon":16.3627167,"name":"Wolke","city":"Wien","category":"gastro","tags":["barrierefrei","google_entrance_accessible"],"hours":{"type":"unknown"}},{"id":"gplace_ChIJ2TCJEToGbUcRlV-DomsRHR8","lat":48.2431407,"lon":16.3616085,"name":"McDonald's Wien Heiligenstädter","city":"Wien","category":"gastro","tags":["barrierefrei","google_wc_accessible"],"hours":{"type":"unknown"}},{"id":"gplace_ChIJvUG33LYHbUcRNtgavNf3tEc","lat":48.236598,"lon":16.370666,"name":"McFIT Fitnessstudio Wien Jägerstraße (20. Bezirk)","city":"Wien","category":"other","tags":["barrierefrei","google_entrance_accessible"],"hours":{"type":"unknown"}},{"id":"gplace_ChIJ-0IpVksGbUcRimyO80syu2s","lat":48.231327099999994,"lon":16.3703747,"name":"Kent Restaurant Brigittenau","city":"Wien","category":"gastro","tags":["barrierefrei","google_entrance_accessible"],"hours":{"type":"unknown"}},{"id":"gplace_ChIJwUE82zYGbUcRHTPIIjDJTpg","lat":48.2392839,"lon":16.3618414,"name":"Manhattan Fitness Club Wien","city":"Wien","category":"other","tags":["barrierefrei","google_wc_accessible"],"hours":{"type":"unknown"}},{"id":"gplace_ChIJOzATebYHbUcRXe4dYt4WVe4","lat":48.2265034,"lon":16.3633562,"name":"The Golden Harp - Irish Pub Alsergrund","city":"Wien","category":"gastro","tags":["barrierefrei","google_wc_accessible"],"hours":{"type":"unknown"}},{"id":"gplace_ChIJVZywP7YHbUcRqoeQV3x5QCM","lat":48.2260645,"lon":16.3609282,"name":"McDonald's Wien Julius-Tandler-Platz","city":"Wien","category":"gastro","tags":["barrierefrei","google_wc_accessible"],"hours":{"type":"unknown"}},{"id":"gplace_ChIJfwmI0csHbUcRopMKDHxq4OY","lat":48.228208099999996,"lon":16.357465299999998,"name":"Reznicek","city":"Wien","category":"gastro","tags":["barrierefrei","google_entrance_accessible"],"hours":{"type":"unknown"}},{"id":"gplace_ChIJ-2MKihYGbUcRFx0oQjL4LN0","lat":48.2538889,"lon":16.3675,"name":"Q19","city":"Wien","category":"other","tags":["barrierefrei","google_wc_accessible"],"hours":{"type":"unknown"}},{"id":"gplace_ChIJd4EG-hgGbUcRZemvOwfpNGU","lat":48.255073900000006,"lon":16.358889599999998,"name":"Mayer am Pfarrplatz - Heuriger - Beethovenhaus - Weingut","city":"Wien","category":"gastro","tags":["barrierefrei","google_wc_accessible"],"hours":{"type":"unknown"}},{"id":"gplace_ChIJxyxRwRAGbUcRs3rm9R9Snk4","lat":48.257943999999995,"lon":16.3668423,"name":"Plachutta Nussdorf","city":"Wien","category":"gastro","tags":["barrierefrei","google_entrance_accessible"],"hours":{"type":"unknown"}},{"id":"gplace_ChIJV4PQNNgHbUcRIqojlWXu0MU","lat":48.2534,"lon":16.3669571,"name":"FITINN","city":"Wien","category":"other","tags":["barrierefrei","google_wc_accessible"],"hours":{"type":"unknown"}},{"id":"gplace_ChIJL84DOxoGbUcRCgmh2ildXdI","lat":48.2584035,"lon":16.3623427,"name":"Heuriger Schübel-Auer","city":"Wien","category":"gastro","tags":["barrierefrei","google_entrance_accessible"],"hours":{"type":"unknown"}},{"id":"gplace_ChIJSft06ZsIbUcRejq3vydQvko","lat":48.2416291,"lon":16.3613945,"name":"Shell","city":"Wien","category":"gastro","tags":["barrierefrei","google_wc_accessible"],"hours":{"type":"unknown"}},{"id":"gplace_ChIJFaQ4bDkGbUcRjHn2HLLpO-o","lat":48.245310599999996,"lon":16.3657721,"name":"OMV","city":"Wien","category":"gastro","tags":["barrierefrei","google_wc_accessible"],"hours":{"type":"unknown"}},{"id":"gplace_ChIJmemQy8WpbUcRppF7uvYYXyE","lat":48.174912199999994,"lon":16.376544,"name":"Damak Etli Ekmek-Grill Restaurant-Cafe","city":"Wien","category":"gastro","tags":["google_has_restroom"],"hours":{"type":"unknown"}},{"id":"gplace_ChIJqdMhp_2pbUcRhwAF_tSeyXk","lat":48.1755585,"lon":16.376542500000003,"name":"Cio's Grill & Kebap","city":"Wien","category":"gastro","tags":["barrierefrei","google_entrance_accessible"],"hours":{"type":"unknown"}},{"id":"gplace_ChIJWREEX6ypbUcRqbjsZXGgZgE","lat":48.1778974,"lon":16.376568199999998,"name":"KÖZDE Döner Restaurant","city":"Wien","category":"gastro","tags":["barrierefrei","google_wc_accessible"],"hours":{"type":"unknown"}},{"id":"gplace_ChIJWY0iz3ypbUcR4BRiPhEtnj0","lat":48.178315399999995,"lon":16.3769764,"name":"Günay Restaurant | Cafe","city":"Wien","category":"gastro","tags":["barrierefrei","google_wc_accessible"],"hours":{"type":"unknown"}},{"id":"gplace_ChIJkVTcOsWpbUcRFf8oa4V0DBI","lat":48.177295699999995,"lon":16.3768074,"name":"Kent Restaurant Favoriten","city":"Wien","category":"gastro","tags":["barrierefrei","google_wc_accessible"],"hours":{"type":"unknown"}},{"id":"gplace_ChIJVayCLsGpbUcRhp-B9fxNmlI","lat":48.171489099999995,"lon":16.378716,"name":"Restaurant Lovac","city":"Wien","category":"gastro","tags":["barrierefrei","google_wc_accessible"],"hours":{"type":"unknown"}},{"id":"gplace_ChIJa7Vb9cOpbUcR9wP9bGt_3JI","lat":48.174633,"lon":16.3801479,"name":"Meixners Gastwirtschaft","city":"Wien","category":"gastro","tags":["google_has_restroom"],"hours":{"type":"unknown"}},{"id":"gplace_ChIJIYudCacHbUcRzr6YiaOaoyo","lat":48.1808561,"lon":16.3753712,"name":"FERHAT DÖNER","city":"Wien","category":"gastro","tags":["barrierefrei","google_wc_accessible"],"hours":{"type":"unknown"}},{"id":"gplace_ChIJDZ5uF9epbUcR1jnANBHqADA","lat":48.185175,"lon":16.376543,"name":"BahnhofCity Wien Hauptbahnhof","city":"Wien","category":"gastro","tags":["barrierefrei","google_wc_accessible"],"hours":{"type":"unknown"}},{"id":"gplace_ChIJWWvn830HbUcRbrUzChzF55I","lat":48.1896662,"lon":16.3761635,"name":"Café Goldegg","city":"Wien","category":"gastro","tags":["google_has_restroom"],"hours":{"type":"unknown"}},{"id":"gplace_ChIJl-dY8dCpbUcRnLKolT_X3lQ","lat":48.182064499999996,"lon":16.3751812,"name":"1100 Columbus Shops & Offices","city":"Wien","category":"other","tags":["barrierefrei","google_wc_accessible"],"hours":{"type":"unknown"}},{"id":"gplace_ChIJ_dN0DOGpbUcRgZ2ghdohP5g","lat":48.1852166,"lon":16.3833195,"name":"Aurora Rooftop Bar","city":"Wien","category":"gastro","tags":["barrierefrei","google_wc_accessible"],"hours":{"type":"unknown"}},{"id":"gplace_ChIJ12yr93GpbUcRZqSZXSjxr2M","lat":48.1867601,"lon":16.378678,"name":"hans im glück","city":"Wien","category":"gastro","tags":["barrierefrei","google_wc_accessible"],"hours":{"type":"unknown"}},{"id":"gplace_ChIJ81DveNapbUcRKl_EISdEM7w","lat":48.187458799999995,"lon":16.3736451,"name":"15 sweet minutes Café","city":"Wien","category":"gastro","tags":["google_has_restroom"],"hours":{"type":"unknown"}},{"id":"gplace_ChIJK0cuv9ipbUcRnbpeOH7VE0w","lat":48.1861691,"lon":16.3864277,"name":"Klein Steiermark","city":"Wien","category":"gastro","tags":["barrierefrei","google_wc_accessible"],"hours":{"type":"unknown"}},{"id":"gplace_ChIJswPi3NapbUcRQCowAHR02j4","lat":48.1854328,"lon":16.375056999999998,"name":"L’Osteria","city":"Wien","category":"gastro","tags":["barrierefrei","google_wc_accessible"],"hours":{"type":"unknown"}},{"id":"gplace_ChIJvygGgJ0HbUcRUOU9epLpWyc","lat":48.2022415,"lon":16.3749336,"name":"Restaurant Meissl & Schadn Wien","city":"Wien","category":"gastro","tags":["barrierefrei","google_wc_accessible"],"hours":{"type":"unknown"}},{"id":"gplace_ChIJhe6wTnoHbUcRSpAP5TYBg80","lat":48.196667,"lon":16.380861,"name":"Salm Bräu","city":"Wien","category":"gastro","tags":["barrierefrei","google_wc_accessible"],"hours":{"type":"unknown"}},{"id":"gplace_ChIJHR94a54HbUcR9_nuuHrp3Dw","lat":48.2057765,"lon":16.375004800000003,"name":"Ribs of Vienna","city":"Wien","category":"gastro","tags":["google_has_restroom"],"hours":{"type":"unknown"}},{"id":"gplace_ChIJj10_up0HbUcRniqFMP0MmME","lat":48.2033681,"lon":16.3730843,"name":"1516 Brewing Company","city":"Wien","category":"gastro","tags":["barrierefrei","google_wc_accessible"],"hours":{"type":"unknown"}},{"id":"gplace_ChIJXxy6AAAHbUcRiJXWyFKDDlw","lat":48.2054049,"lon":16.370376399999998,"name":"Schnitzel One","city":"Wien","category":"gastro","tags":["google_has_restroom"],"hours":{"type":"unknown"}},{"id":"gplace_ChIJ2UEGcJ0HbUcRZRxYx_V5gdY","lat":48.201794299999996,"lon":16.3738665,"name":"Café Schwarzenberg","city":"Wien","category":"gastro","tags":["barrierefrei","google_wc_accessible"],"hours":{"type":"unknown"}},{"id":"gplace_ChIJIY2tY3MHbUcR_UGinhDxZQo","lat":48.2069471,"lon":16.3852459,"name":"Wien Mitte The Mall","city":"Wien","category":"other","tags":["barrierefrei","google_wc_accessible"],"hours":{"type":"unknown"}},{"id":"gplace_ChIJbU-Egp8HbUcRDZ_dZN6qW34","lat":48.209311899999996,"lon":16.375577,"name":"Figlmüller – Restaurant Bäckerstraße","city":"Wien","category":"gastro","tags":["barrierefrei","google_wc_accessible"],"hours":{"type":"unknown"}},{"id":"gplace_ChIJ8aGpZXUHbUcR7RhDMQpSArs","lat":48.207521,"lon":16.378671999999998,"name":"Plachutta Wollzeile","city":"Wien","category":"gastro","tags":["barrierefrei","google_wc_accessible"],"hours":{"type":"unknown"}},{"id":"gplace_ChIJeymFraEHbUcRH9LfTuXIG4g","lat":48.212007199999995,"lon":16.3780011,"name":"Café & Restaurant Motto am Fluss","city":"Wien","category":"gastro","tags":["barrierefrei","google_wc_accessible"],"hours":{"type":"unknown"}},{"id":"gplace_ChIJHdM6uqEHbUcRndCn2LM5BDM","lat":48.2113174,"lon":16.3754822,"name":"Hard Rock Cafe","city":"Wien","category":"gastro","tags":["barrierefrei","google_wc_accessible"],"hours":{"type":"unknown"}},{"id":"gplace_ChIJ3d2I8KUHbUcRg7T_04T29ZA","lat":48.219262199999996,"lon":16.376948199999998,"name":"Pizza Mari","city":"Wien","category":"gastro","tags":["barrierefrei","google_wc_accessible"],"hours":{"type":"unknown"}},{"id":"gplace_ChIJT7Yr7VsHbUcRtfajfpuNBhI","lat":48.216931699999996,"lon":16.3736468,"name":"NENI am Wasser","city":"Wien","category":"gastro","tags":["barrierefrei","google_entrance_accessible"],"hours":{"type":"unknown"}},{"id":"gplace_ChIJyQCoA6MHbUcR12JIrirupKg","lat":48.212287599999996,"lon":16.373295499999998,"name":"THE DISTRICT KEBAB | PIDE | LAHMACUN | PIZZA","city":"Wien","category":"gastro","tags":["barrierefrei","google_entrance_accessible"],"hours":{"type":"unknown"}},{"id":"gplace_ChIJ2T_nXa8HbUcRfklhoMYIjk0","lat":48.2201719,"lon":16.376705899999997,"name":"Skopik & Lohn","city":"Wien","category":"gastro","tags":["barrierefrei","google_wc_accessible"],"hours":{"type":"unknown"}},{"id":"gplace_ChIJKzUe7aIHbUcRjuGEXxARzmQ","lat":48.212114299999996,"lon":16.3688626,"name":"Needle Vinyl Bar","city":"Wien","category":"gastro","tags":["google_has_restroom"],"hours":{"type":"unknown"}},{"id":"gplace_ChIJ5UxO7FoGbUcR-U4e2GleU6Q","lat":48.240615999999996,"lon":16.3857577,"name":"Millennium City","city":"Wien","category":"gastro","tags":["barrierefrei","google_wc_accessible"],"hours":{"type":"unknown"}},{"id":"gplace_ChIJL4F8vVAGbUcR_8nbIgirtjw","lat":48.23781,"lon":16.3871546,"name":"Gasthaus Kopp","city":"Wien","category":"gastro","tags":["google_has_restroom"],"hours":{"type":"unknown"}},{"id":"gplace_ChIJ-XQUQE0GbUcReMwA7OY540U","lat":48.2313852,"lon":16.376217200000003,"name":"Mraz & Sohn","city":"Wien","category":"gastro","tags":["google_has_restroom"],"hours":{"type":"unknown"}},{"id":"gplace_ChIJlbKwQTgHbUcR8qIhcgC2PGw","lat":48.2280923,"lon":16.3666509,"name":"Prinz | Pizza & Shawarma","city":"Wien","category":"gastro","tags":["google_has_restroom"],"hours":{"type":"unknown"}},{"id":"gplace_ChIJ55MgkAcHbUcRpTTfWaxeyLI","lat":48.2405492,"lon":16.3866092,"name":"DUNKIN'","city":"Wien","category":"gastro","tags":["google_has_restroom"],"hours":{"type":"unknown"}},{"id":"gplace_ChIJn4dbMFsGbUcREuEehaXDKGs","lat":48.241898,"lon":16.384296799999998,"name":"McDonald's Wien","city":"Wien","category":"gastro","tags":["barrierefrei","google_wc_accessible"],"hours":{"type":"unknown"}},{"id":"gplace_ChIJpRZuGkYGbUcRgcNUaz2ZuKg","lat":48.240908999999995,"lon":16.374750199999998,"name":"bp","city":"Wien","category":"gastro","tags":["barrierefrei","google_wc_accessible"],"hours":{"type":"unknown"}},{"id":"gplace_ChIJKZUT0awHbUcRz-e1p23dLkw","lat":48.228744,"lon":16.380807,"name":"Hofer","city":"Wien","category":"other","tags":["barrierefrei","google_wc_accessible"],"hours":{"type":"unknown"}},{"id":"gplace_ChIJfWolV0sHbUcRiuiz5fcqQQs","lat":48.2316222,"lon":16.369010499999998,"name":"سوق 20","city":"Wien","category":"other","tags":["barrierefrei","google_entrance_accessible"],"hours":{"type":"unknown"}},{"id":"gplace_ChIJzWoQPkAGbUcRK1yeinxt5LY","lat":48.249628699999995,"lon":16.3753206,"name":"Brigittenauer Stadl","city":"Wien","category":"gastro","tags":["barrierefrei","google_wc_accessible"],"hours":{"type":"unknown"}},{"id":"gplace_ChIJvwxEX0YGbUcRzdNUO1MSdkg","lat":48.243089999999995,"lon":16.375350000000005,"name":"OMV","city":"Wien","category":"gastro","tags":["barrierefrei","google_wc_accessible"],"hours":{"type":"unknown"}},{"id":"gplace_ChIJHTG16j4GbUcRefFIXBRWgZc","lat":48.247747,"lon":16.368258,"name":"HOFER","city":"Wien","category":"other","tags":["barrierefrei","google_wc_accessible"],"hours":{"type":"unknown"}},{"id":"gplace_ChIJdfucWxYGbUcRWHyfe7_xpEg","lat":48.2542669,"lon":16.368223399999998,"name":"Billardcafé KÖÖ Q19","city":"Wien","category":"gastro","tags":["barrierefrei","google_wc_accessible"],"hours":{"type":"unknown"}},{"id":"gplace_ChIJrVCPQToGbUcRrwFPNxP4MBY","lat":48.243887699999995,"lon":16.361276099999998,"name":"bp","city":"Wien","category":"gastro","tags":["barrierefrei","google_wc_accessible"],"hours":{"type":"unknown"}},{"id":"gplace_ChIJzVPf3pCpbUcRw5SmxwlXch8","lat":48.159385199999996,"lon":16.3871319,"name":"McDonald's","city":"Wien","category":"gastro","tags":["barrierefrei","google_wc_accessible"],"hours":{"type":"unknown"}},{"id":"gplace_ChIJb6HXVsOpbUcR0pc2ZWAsmjM","lat":48.1774184,"lon":16.3852386,"name":"INTERSPAR","city":"Wien","category":"other","tags":["barrierefrei","google_wc_accessible"],"hours":{"type":"unknown"}},{"id":"gplace_ChIJa1Pp1pCpbUcR7s1XKenX4I8","lat":48.1598809,"lon":16.384606299999998,"name":"BURGER KING® Wien Verteilerkreis","city":"Wien","category":"gastro","tags":["barrierefrei","google_wc_accessible"],"hours":{"type":"unknown"}},{"id":"gplace_ChIJ7WwVSMSpbUcRqAY5VTlgAy0","lat":48.1750755,"lon":16.3777004,"name":"McDonald‘s","city":"Wien","category":"gastro","tags":["barrierefrei","google_wc_accessible"],"hours":{"type":"unknown"}},{"id":"gplace_ChIJp3TyP7WpbUcRIqHZgCpfUIQ","lat":48.1749765,"lon":16.378544899999998,"name":"RUKN EL- DIN مطعم ركن الدين","city":"Wien","category":"gastro","tags":["google_has_restroom"],"hours":{"type":"unknown"}},{"id":"gplace_ChIJPwMXQ3wHbUcRzDfOjrNTuiw","lat":48.192722599999996,"lon":16.3788014,"name":"Stöckl im Park","city":"Wien","category":"gastro","tags":["barrierefrei","google_wc_accessible"],"hours":{"type":"unknown"}},{"id":"gplace_ChIJ9_OoE3cHbUcRznMNwYalDLU","lat":48.2004539,"lon":16.3785907,"name":"Gmoa Keller","city":"Wien","category":"gastro","tags":["google_has_restroom"],"hours":{"type":"unknown"}},{"id":"gplace_ChIJB7TA8J0HbUcRcASCUVuVMxw","lat":48.203951100000005,"lon":16.3754769,"name":"Elissar - Lebanese cuisine","city":"Wien","category":"gastro","tags":["barrierefrei","google_entrance_accessible"],"hours":{"type":"unknown"}},{"id":"gplace_ChIJM5rZkXMHbUcRKcRlV5a1_eI","lat":48.2057958,"lon":16.3844738,"name":"Center Wien Mitte","city":"Wien","category":"gastro","tags":["barrierefrei","google_wc_accessible"],"hours":{"type":"unknown"}},{"id":"gplace_ChIJKS_u4XYHbUcRFEBBkdJ8HG0","lat":48.2044578,"lon":16.3813958,"name":"Steirereck","city":"Wien","category":"gastro","tags":["barrierefrei","google_wc_accessible"],"hours":{"type":"unknown"}},{"id":"gplace_ChIJ-4Y1dG4HbUcRIwjJEgwxMe8","lat":48.2021856,"lon":16.391523199999998,"name":"Rochus","city":"Wien","category":"gastro","tags":["barrierefrei","google_wc_accessible"],"hours":{"type":"unknown"}},{"id":"gplace_ChIJJQOwn50HbUcRqVQdRQoWRTk","lat":48.2023422,"lon":16.3736729,"name":"In-Dish","city":"Wien","category":"gastro","tags":["barrierefrei","google_wc_accessible"],"hours":{"type":"unknown"}},{"id":"gplace_ChIJIxZwdW4HbUcR5E5mkfJrxto","lat":48.2026824,"lon":16.391567,"name":"El Gaucho at the Rochusmarkt","city":"Wien","category":"gastro","tags":["barrierefrei","google_wc_accessible"],"hours":{"type":"unknown"}},{"id":"gplace_ChIJV3zcOIIHbUcR_9_eUl2PQEA","lat":48.1967126,"lon":16.3694477,"name":"Wiener Wiazhaus","city":"Wien","category":"gastro","tags":["google_has_restroom"],"hours":{"type":"unknown"}},{"id":"gplace_ChIJS-sk02gHbUcRt_vXbs8BBwY","lat":48.198930999999995,"lon":16.3950465,"name":"GALLERIA","city":"Wien","category":"other","tags":["barrierefrei","google_wc_accessible"],"hours":{"type":"unknown"}},{"id":"gplace_ChIJ_ZkAYZ0HbUcR74X5wovq_fE","lat":48.201183799999995,"lon":16.3741329,"name":"McDonald's","city":"Wien","category":"gastro","tags":["google_has_restroom"],"hours":{"type":"unknown"}},{"id":"gplace_ChIJt-UFoXMHbUcRD4N8qkYmiWg","lat":48.2055272,"lon":16.3859738,"name":"Joseph Brot • Wien Bio Bäckerei","city":"Wien","category":"gastro","tags":["barrierefrei","google_entrance_accessible"],"hours":{"type":"unknown"}},{"id":"gplace_ChIJ8edul6AHbUcR6faY3loHwaI","lat":48.212732599999995,"lon":16.379785,"name":"Das LOFT","city":"Wien","category":"gastro","tags":["barrierefrei","google_wc_accessible"],"hours":{"type":"unknown"}},{"id":"gplace_ChIJoY8VFnUHbUcRWhR8IXaIed4","lat":48.2075943,"lon":16.3804047,"name":"Café Prückel","city":"Wien","category":"gastro","tags":["barrierefrei","google_entrance_accessible"],"hours":{"type":"unknown"}},{"id":"gplace_ChIJ07OAqVoHbUcRx-v-iObueR4","lat":48.2078546,"lon":16.379787399999998,"name":"Viva la Mamma","city":"Wien","category":"gastro","tags":["barrierefrei","google_entrance_accessible"],"hours":{"type":"unknown"}},{"id":"gplace_ChIJxbJGSKAHbUcRYkajfP16obQ","lat":48.210745499999994,"lon":16.3772573,"name":"Griechenbeisl","city":"Wien","category":"gastro","tags":["google_has_restroom"],"hours":{"type":"unknown"}},{"id":"gplace_ChIJjfgBvwsHbUcR4gLsL01cSLI","lat":48.2118773,"lon":16.3857175,"name":"Strandbar Herrmann","city":"Wien","category":"gastro","tags":["barrierefrei","google_wc_accessible"],"hours":{"type":"unknown"}},{"id":"gplace_ChIJnU4p8f4HbUcRZZbKYUtCn2I","lat":48.2136456,"lon":16.3819785,"name":"goldener papagei","city":"Wien","category":"gastro","tags":["barrierefrei","google_wc_accessible"],"hours":{"type":"unknown"}},{"id":"gplace_ChIJ34DhZwUHbUcR9v1IZGG4eds","lat":48.21744580000001,"lon":16.3969633,"name":"ROLLERCOASTERRESTAURANT Vienna","city":"Wien","category":"gastro","tags":["barrierefrei","google_wc_accessible"],"hours":{"type":"unknown"}},{"id":"gplace_ChIJbVDnogkHbUcRzCYLSkea1mQ","lat":48.214836999999996,"lon":16.385303999999998,"name":"Balthasar Coffee Bar","city":"Wien","category":"gastro","tags":["barrierefrei","google_wc_accessible"],"hours":{"type":"unknown"}},{"id":"gplace_ChIJETXwTH0HbUcRtCnlhCi2new","lat":48.2168764,"lon":16.3893239,"name":"Cucina Itameshi","city":"Wien","category":"gastro","tags":["barrierefrei","google_entrance_accessible"],"hours":{"type":"unknown"}},{"id":"gplace_ChIJqdM4gwUHbUcRZfBmU9CPa_M","lat":48.217763,"lon":16.394665,"name":"Shell","city":"Wien","category":"gastro","tags":["barrierefrei","google_wc_accessible"],"hours":{"type":"unknown"}},{"id":"gplace_ChIJx4vwIwUHbUcRCV_eF-t7yGU","lat":48.2189315,"lon":16.3978547,"name":"Gasthaus Reinthaler (in 2nd district near Prater)","city":"Wien","category":"gastro","tags":["barrierefrei","google_wc_accessible"],"hours":{"type":"unknown"}},{"id":"gplace_ChIJY3qYGrsHbUcRBCgYTWlLcvQ","lat":48.241002699999996,"lon":16.3986466,"name":"USUS am Wasser","city":"Wien","category":"gastro","tags":["barrierefrei","google_entrance_accessible"],"hours":{"type":"unknown"}},{"id":"gplace_ChIJ22VKh6wHbUcRJR3smWej9PY","lat":48.226658,"lon":16.381887,"name":"Am Nordpol 3","city":"Wien","category":"gastro","tags":["google_has_restroom"],"hours":{"type":"unknown"}},{"id":"gplace_ChIJa9q5vfgGbUcRnv8ldmlAcL8","lat":48.233444899999995,"lon":16.3950346,"name":"McDonald's Wien","city":"Wien","category":"gastro","tags":["barrierefrei","google_wc_accessible"],"hours":{"type":"unknown"}},{"id":"gplace_ChIJpWq0dgYHbUcRe4_EJ8tMa7A","lat":48.2273903,"lon":16.3881586,"name":"Uno Momento 1020","city":"Wien","category":"gastro","tags":["barrierefrei","google_wc_accessible"],"hours":{"type":"unknown"}},{"id":"gplace_ChIJh0lNYVgGbUcR_s-9hqNHUHc","lat":48.239774,"lon":16.395739,"name":"Summerstation","city":"Wien","category":"gastro","tags":["google_has_restroom"],"hours":{"type":"unknown"}},{"id":"gplace_ChIJfaI-RJYHbUcRE8JjL27GlI8","lat":48.2390461,"lon":16.3877321,"name":"FITINN Fitnessstudio","city":"Wien","category":"other","tags":["google_has_restroom"],"hours":{"type":"unknown"}},{"id":"gplace_ChIJvXbZQGEGbUcRwFvx-ASjvyA","lat":48.2512137,"lon":16.398160800000003,"name":"La Crêperie","city":"Wien","category":"gastro","tags":["barrierefrei","google_wc_accessible"],"hours":{"type":"unknown"}},{"id":"gplace_ChIJSQwvTmUGbUcRb29SRdBhl9U","lat":48.2576557,"lon":16.3944033,"name":"Gasthaus Schwaigerwirt","city":"Wien","category":"gastro","tags":["google_has_restroom"],"hours":{"type":"unknown"}},{"id":"gplace_ChIJadukNPQGbUcRYLu3y6PH4YY","lat":48.254393,"lon":16.394112,"name":"Shell","city":"Wien","category":"gastro","tags":["google_has_restroom"],"hours":{"type":"unknown"}},{"id":"gplace_ChIJedZL3GAGbUcRJTYwQBW9kOg","lat":48.2494829,"lon":16.3976353,"name":"NEUERWirt","city":"Wien","category":"gastro","tags":["barrierefrei","google_wc_accessible"],"hours":{"type":"unknown"}},{"id":"gplace_ChIJFQjxhYoGbUcR4QenPgXNsW4","lat":48.248754,"lon":16.400394,"name":"Golfstüberl","city":"Wien","category":"gastro","tags":["barrierefrei","google_entrance_accessible"],"hours":{"type":"unknown"}},{"id":"gplace_ChIJZaP7ifapbUcR6daCPWXaQXk","lat":48.169999999999995,"lon":16.40953,"name":"OMV","city":"Wien","category":"gastro","tags":["barrierefrei","google_wc_accessible"],"hours":{"type":"unknown"}},{"id":"gplace_ChIJT47wgfWpbUcRDV3I_7UY15M","lat":48.165045,"lon":16.4107421,"name":"IQ gas station Wien Gadnergasse","city":"Wien","category":"tankstelle","tags":["barrierefrei","google_wc_accessible"],"hours":{"type":"unknown"}},{"id":"gplace_ChIJFRgVLh6qbUcRRhPxjqFILUw","lat":48.165844,"lon":16.411982000000002,"name":"BILLA PLUS","city":"Wien","category":"other","tags":["barrierefrei","google_wc_accessible"],"hours":{"type":"unknown"}},{"id":"gplace_ChIJrwBlcHWpbUcRp6IKZ1bdVBU","lat":48.1647622,"lon":16.3911841,"name":"Pause am Berg","city":"Wien","category":"gastro","tags":["barrierefrei","google_entrance_accessible"],"hours":{"type":"unknown"}},{"id":"gplace_ChIJ90RFy-epbUcR6GpWLdjVnZc","lat":48.1776695,"lon":16.3928944,"name":"bp","city":"Wien","category":"gastro","tags":["barrierefrei","google_wc_accessible"],"hours":{"type":"unknown"}},{"id":"gplace_ChIJjSGnuAupbUcRZ-pymN1WEKc","lat":48.176344099999994,"lon":16.4006993,"name":"Portofino Vienna","city":"Wien","category":"gastro","tags":["barrierefrei","google_wc_accessible"],"hours":{"type":"unknown"}},{"id":"gplace_ChIJHyAABuapbUcRs3vN2aEwBjA","lat":48.1759178,"lon":16.396245699999998,"name":"HOFER","city":"Wien","category":"other","tags":["barrierefrei","google_wc_accessible"],"hours":{"type":"unknown"}},{"id":"gplace_ChIJa7WICZOpbUcRX50eoSAN9kg","lat":48.164233499999995,"lon":16.3908992,"name":"Shell","city":"Wien","category":"gastro","tags":["barrierefrei","google_wc_accessible"],"hours":{"type":"unknown"}},{"id":"gplace_ChIJVy3fhfKpbUcR_63pcQfH7b0","lat":48.1675517,"lon":16.398510599999998,"name":"Bierstadl","city":"Wien","category":"gastro","tags":["barrierefrei","google_wc_accessible"],"hours":{"type":"unknown"}},{"id":"gplace_ChIJKxXxDvqpbUcRnmb3XwUpP_Q","lat":48.174907,"lon":16.407979,"name":"bp","city":"Wien","category":"gastro","tags":["barrierefrei","google_wc_accessible"],"hours":{"type":"unknown"}},{"id":"gplace_ChIJPS5vLfipbUcRaLM_yh8OXXE","lat":48.174349199999995,"lon":16.41256,"name":"Grill Restaurant\"ZLATNO BURENCE\"","city":"Wien","category":"gastro","tags":["barrierefrei","google_entrance_accessible"],"hours":{"type":"unknown"}},{"id":"gplace_ChIJP6VPaZOpbUcRhh97Z996uqo","lat":48.165262299999995,"lon":16.3905307,"name":"Hofer","city":"Wien","category":"other","tags":["barrierefrei","google_wc_accessible"],"hours":{"type":"unknown"}},{"id":"gplace_ChIJf1hvePWpbUcRZhMT62EuDVo","lat":48.16551,"lon":16.410439,"name":"HOFER","city":"Wien","category":"other","tags":["barrierefrei","google_wc_accessible"],"hours":{"type":"unknown"}},{"id":"gplace_ChIJ5VRQNOqpbUcRSlVt3rpoPlw","lat":48.1710547,"lon":16.388649,"name":"Turmöl","city":"Wien","category":"gastro","tags":["barrierefrei","google_wc_accessible"],"hours":{"type":"unknown"}},{"id":"gplace_ChIJ64nUHVkHbUcReyrBKyHq7fk","lat":48.1877881,"lon":16.4043852,"name":"Globe Wien","city":"Wien","category":"gastro","tags":["barrierefrei","google_wc_accessible"],"hours":{"type":"unknown"}},{"id":"gplace_ChIJ2Z3Y-l4HbUcRhxJBCWB21pQ","lat":48.1888918,"lon":16.4000679,"name":"The Oak","city":"Wien","category":"gastro","tags":["google_has_restroom"],"hours":{"type":"unknown"}},{"id":"gplace_ChIJ2ZBZFV4HbUcRv1UABLKa89c","lat":48.1900866,"lon":16.397641999999998,"name":"Restaurant Babylon 1030","city":"Wien","category":"gastro","tags":["barrierefrei","google_wc_accessible"],"hours":{"type":"unknown"}},{"id":"gplace_ChIJtxxnJ2IHbUcRmfvIXL8ieyw","lat":48.189074299999994,"lon":16.3886354,"name":"Falkensteiner Stüberl","city":"Wien","category":"gastro","tags":["barrierefrei","google_wc_accessible"],"hours":{"type":"unknown"}},{"id":"gplace_ChIJBZvxWWcHbUcRDO_MDxYg0TY","lat":48.1922423,"lon":16.395592399999998,"name":"USI Sportstätte Rennweg","city":"Wien","category":"other","tags":["barrierefrei","google_entrance_accessible"],"hours":{"type":"unknown"}},{"id":"gplace_ChIJ_znua1kHbUcR6-qljlCHF1s","lat":48.1889098,"lon":16.4051132,"name":"the nice guys","city":"Wien","category":"gastro","tags":["barrierefrei","google_entrance_accessible"],"hours":{"type":"unknown"}},{"id":"gplace_ChIJrwRQtVcHbUcRg3rRe46poEM","lat":48.185688,"lon":16.412065,"name":"Hofer","city":"Wien","category":"other","tags":["barrierefrei","google_wc_accessible"],"hours":{"type":"unknown"}},{"id":"gplace_ChIJoRkRfdupbUcRjL47JhyPaHk","lat":48.18022920000001,"lon":16.383516999999998,"name":"Der Mann","city":"Wien","category":"gastro","tags":["barrierefrei","google_wc_accessible"],"hours":{"type":"unknown"}},{"id":"gplace_ChIJAcVP_FYHbUcRkSXEPjlbLn0","lat":48.186888499999995,"lon":16.4129331,"name":"bp","city":"Wien","category":"gastro","tags":["barrierefrei","google_wc_accessible"],"hours":{"type":"unknown"}},{"id":"gplace_ChIJTYHXC2wHbUcRL-lC2HiFmoE","lat":48.2019076,"lon":16.400883999999998,"name":"Restaurant Ebi 3","city":"Wien","category":"gastro","tags":["barrierefrei","google_entrance_accessible"],"hours":{"type":"unknown"}},{"id":"gplace_ChIJLQ7K20AHbUcRJoF-hLdkym8","lat":48.1946029,"lon":16.411391599999998,"name":"Odessa Restaurant","city":"Wien","category":"gastro","tags":["barrierefrei","google_wc_accessible"],"hours":{"type":"unknown"}},{"id":"gplace_ChIJY37S724HbUcRZJLLzwIqfZM","lat":48.2003798,"lon":16.392781499999998,"name":"Ströck - Feierabend Landstraße","city":"Wien","category":"gastro","tags":["barrierefrei","google_wc_accessible"],"hours":{"type":"unknown"}},{"id":"gplace_ChIJuYvg8nYHbUcRYzDnbiD-32U","lat":48.198115699999995,"lon":16.3951559,"name":"Arizona Burger & Bar","city":"Wien","category":"gastro","tags":["barrierefrei","google_entrance_accessible"],"hours":{"type":"unknown"}},{"id":"gplace_ChIJbyYzxmYHbUcRjP57_s_wjG0","lat":48.1926465,"lon":16.3928464,"name":"BIBIM","city":"Wien","category":"gastro","tags":["google_has_restroom"],"hours":{"type":"unknown"}},{"id":"gplace_ChIJYWwTbcgHbUcRHY2Aj4cvM5g","lat":48.190695,"lon":16.3855002,"name":"Moment Cafe and Restaurant","city":"Wien","category":"gastro","tags":["barrierefrei","google_wc_accessible"],"hours":{"type":"unknown"}},{"id":"gplace_ChIJEymwBmwHbUcRand3KKlYz1A","lat":48.2020147,"lon":16.396062999999998,"name":"The Golden Harp - Irish Pub Landstraße","city":"Wien","category":"gastro","tags":["barrierefrei","google_entrance_accessible"],"hours":{"type":"unknown"}},{"id":"gplace_ChIJz-QgDbEHbUcRuX7GtTm57Ig","lat":48.196701,"lon":16.3905587,"name":"Restaurant Das Essen FM","city":"Wien","category":"gastro","tags":["google_has_restroom"],"hours":{"type":"unknown"}},{"id":"gplace_ChIJY6GrTT8HbUcR9LGo6Zxp5_w","lat":48.2154648,"lon":16.4001739,"name":"Prater","city":"Wien","category":"gastro","tags":["barrierefrei","google_wc_accessible"],"hours":{"type":"unknown"}},{"id":"gplace_ChIJo1Ih5xAHbUcRyilEDOdNNsQ","lat":48.2140973,"lon":16.401712700000004,"name":"Schweizerhaus","city":"Wien","category":"gastro","tags":["barrierefrei","google_wc_accessible"],"hours":{"type":"unknown"}},{"id":"gplace_ChIJhd_i1RYHbUcROWEKW0AgJ18","lat":48.213041,"lon":16.403413399999998,"name":"Luftburg Kolarik in Prater","city":"Wien","category":"gastro","tags":["barrierefrei","google_wc_accessible"],"hours":{"type":"unknown"}},{"id":"gplace_ChIJfSwLCNQHbUcRJTx6K4ohSrA","lat":48.2161975,"lon":16.4030856,"name":"NENI am Prater","city":"Wien","category":"gastro","tags":["barrierefrei","google_wc_accessible"],"hours":{"type":"unknown"}},{"id":"gplace_ChIJl4WvUwoHbUcRHYYVU59OKOE","lat":48.2115613,"lon":16.383796,"name":"KLYO Wien","city":"Wien","category":"gastro","tags":["barrierefrei","google_wc_accessible"],"hours":{"type":"unknown"}},{"id":"gplace_ChIJVwQvUhcHbUcRSmvrJvAw8lg","lat":48.214790699999995,"lon":16.404588699999998,"name":"L'Osteria","city":"Wien","category":"gastro","tags":["barrierefrei","google_wc_accessible"],"hours":{"type":"unknown"}},{"id":"gplace_ChIJv69rPtMHbUcRXljCzZHbhj4","lat":48.2047844,"lon":16.3881734,"name":"Öfferl - Landstraßer Hauptstraße 19","city":"Wien","category":"gastro","tags":["google_has_restroom"],"hours":{"type":"unknown"}},{"id":"gplace_ChIJv5QWpRwHbUcRnh_HHeljcps","lat":48.221968999999994,"lon":16.4023723,"name":"Mochi Ramen Bar","city":"Wien","category":"gastro","tags":["barrierefrei","google_entrance_accessible"],"hours":{"type":"unknown"}},{"id":"gplace_ChIJA6gGlh0HbUcRhBv4zhUDP_0","lat":48.2247609,"lon":16.4075865,"name":"The View Restaurant-Bar","city":"Wien","category":"gastro","tags":["barrierefrei","google_wc_accessible"],"hours":{"type":"unknown"}},{"id":"gplace_ChIJKWeMiBkHbUcRofLSKDHfKIY","lat":48.2174513,"lon":16.405966499999998,"name":"McDonalds","city":"Wien","category":"gastro","tags":["barrierefrei","google_wc_accessible"],"hours":{"type":"unknown"}},{"id":"gplace_ChIJqWbZ8hAHbUcRM70ax0fg9Vw","lat":48.214667,"lon":16.400707999999998,"name":"Zum Englischen Reiter","city":"Wien","category":"gastro","tags":["barrierefrei","google_wc_accessible"],"hours":{"type":"unknown"}},{"id":"gplace_ChIJsafF7ggHbUcRZVWgkkL5DBw","lat":48.2164931,"lon":16.388251099999998,"name":"McFIT Fitnessstudio Wien Leopoldstadt (2. Bezirk)","city":"Wien","category":"other","tags":["barrierefrei","google_wc_accessible"],"hours":{"type":"unknown"}},{"id":"gplace_ChIJ1XOkZhkHbUcRsaympW9f8NU","lat":48.2189122,"lon":16.4069279,"name":"Stuwer - Neues Wiener Beisl","city":"Wien","category":"gastro","tags":["barrierefrei","google_entrance_accessible"],"hours":{"type":"unknown"}},{"id":"gplace_ChIJMfC15nkHbUcRKnNi3epiT8E","lat":48.2252576,"lon":16.3931658,"name":"Vogel Kaffee","city":"Wien","category":"gastro","tags":["barrierefrei","google_wc_accessible"],"hours":{"type":"unknown"}},{"id":"gplace_ChIJEetNU-MGbUcRTuqSo43Vxno","lat":48.2304904,"lon":16.406126399999998,"name":"Porto Pollo","city":"Wien","category":"gastro","tags":["google_has_restroom"],"hours":{"type":"unknown"}},{"id":"gplace_ChIJ6c3DuOUGbUcRQO-lbPOD_So","lat":48.2318506,"lon":16.4128713,"name":"Altia Restaurant","city":"Wien","category":"gastro","tags":["barrierefrei","google_wc_accessible"],"hours":{"type":"unknown"}},{"id":"gplace_ChIJTeYvt-UGbUcRRxYa4uZh8R8","lat":48.232893999999995,"lon":16.412301,"name":"Hofer","city":"Wien","category":"other","tags":["barrierefrei","google_wc_accessible"],"hours":{"type":"unknown"}},{"id":"gplace_ChIJnx9qEVcGbUcRL_tOeRfLmb0","lat":48.23694,"lon":16.39059,"name":"HOFER","city":"Wien","category":"other","tags":["barrierefrei","google_wc_accessible"],"hours":{"type":"unknown"}},{"id":"gplace_ChIJu3gXcuUGbUcRy98QYk2hAbk","lat":48.2351384,"lon":16.4110771,"name":"Café Restaurant Denito","city":"Wien","category":"gastro","tags":["barrierefrei","google_wc_accessible"],"hours":{"type":"unknown"}},{"id":"gplace_ChIJbVy-DYoGbUcRwCCSAOd7iwk","lat":48.250513,"lon":16.4043209,"name":"Strandgasthaus Birner","city":"Wien","category":"gastro","tags":["barrierefrei","google_wc_accessible"],"hours":{"type":"unknown"}},{"id":"gplace_ChIJR1KEMnsGbUcRlRUogIwWXNI","lat":48.2573175,"lon":16.3988738,"name":"INTERSPAR Take Away","city":"Wien","category":"other","tags":["barrierefrei","google_wc_accessible"],"hours":{"type":"unknown"}},{"id":"gplace_ChIJWYpPjsMHbUcRmAMCTcqwBSM","lat":48.2556741,"lon":16.406966399999998,"name":"Burgallio","city":"Wien","category":"gastro","tags":["barrierefrei","google_entrance_accessible"],"hours":{"type":"unknown"}},{"id":"gplace_ChIJF4eN5yMHbUcRLDnnQXgieWw","lat":48.2582375,"lon":16.398915,"name":"KFC","city":"Wien","category":"gastro","tags":["barrierefrei","google_wc_accessible"],"hours":{"type":"unknown"}},{"id":"gplace_ChIJh3o_qmUGbUcRF-Mja7lH34U","lat":48.25516,"lon":16.39527,"name":"HOFER","city":"Wien","category":"other","tags":["barrierefrei","google_wc_accessible"],"hours":{"type":"unknown"}},{"id":"gplace_ChIJh5O8knoGbUcRNq8Di5g4ZUk","lat":48.259713,"lon":16.396281,"name":"Restaurant Akropolis 21","city":"Wien","category":"gastro","tags":["barrierefrei","google_wc_accessible"],"hours":{"type":"unknown"}},{"id":"gplace_ChIJtQBvJAoHbUcRdubpLkBawpk","lat":48.2572884,"lon":16.397656899999998,"name":"Bäckerei Mokka GmbH","city":"Wien","category":"gastro","tags":["barrierefrei","google_entrance_accessible"],"hours":{"type":"unknown"}},{"id":"gplace_ChIJqdMFRp0HbUcRY86lShyjYtg","lat":48.2574566,"lon":16.4006498,"name":"BURGER KING® Wien Floridsdorf","city":"Wien","category":"gastro","tags":["google_has_restroom"],"hours":{"type":"unknown"}},{"id":"gplace_ChIJe7HEr28HbUcRQfluTaym0cQ","lat":48.2536621,"lon":16.3937211,"name":"LOVT Floridsdorf Fitnessstudio","city":"Wien","category":"other","tags":["barrierefrei","google_wc_accessible"],"hours":{"type":"unknown"}},{"id":"gplace_ChIJGe36rAKqbUcRntP5oLvLLUo","lat":48.1737257,"lon":16.4163698,"name":"Centre Simmering","city":"Wien","category":"gastro","tags":["barrierefrei","google_wc_accessible"],"hours":{"type":"unknown"}},{"id":"gplace_ChIJpaqqqm6qbUcRpqDvvWOJihk","lat":48.1851312,"lon":16.4180149,"name":"McDonald's","city":"Wien","category":"gastro","tags":["barrierefrei","google_wc_accessible"],"hours":{"type":"unknown"}},{"id":"gplace_ChIJQ2czNlEHbUcRp4-SN4OqaKs","lat":48.1888881,"lon":16.4155792,"name":"MARX beer and more","city":"Wien","category":"gastro","tags":["barrierefrei","google_wc_accessible"],"hours":{"type":"unknown"}},{"id":"gplace_ChIJo21-HPypbUcR9KBNjWsY858","lat":48.17862720000001,"lon":16.411348,"name":"The Golden Harp - Irish Pub Simmering","city":"Wien","category":"gastro","tags":["google_has_restroom"],"hours":{"type":"unknown"}},{"id":"gplace_ChIJowmcvVgHbUcRRTk6Bq29zzM","lat":48.186810799999996,"lon":16.402667700000002,"name":"CrossFit Vienna - The Starship","city":"Wien","category":"other","tags":["barrierefrei","google_entrance_accessible"],"hours":{"type":"unknown"}},{"id":"gplace_ChIJA-SSrucHbUcRbSzWrkwhVy8","lat":48.193164599999996,"lon":16.4019652,"name":"575 Sagmeister","city":"Wien","category":"gastro","tags":["barrierefrei","google_entrance_accessible"],"hours":{"type":"unknown"}},{"id":"gplace_ChIJG8o9dWcHbUcRZ6eTwiS4-Rk","lat":48.1937825,"lon":16.3970733,"name":"Eni","city":"Wien","category":"tankstelle","tags":["barrierefrei","google_wc_accessible"],"hours":{"type":"unknown"}},{"id":"gplace_ChIJ4eli2OUHbUcRw9eRRJIIy1A","lat":48.199617499999995,"lon":16.399132899999998,"name":"Casolaro Bros 2.0","city":"Wien","category":"gastro","tags":["google_has_restroom"],"hours":{"type":"unknown"}},{"id":"gplace_ChIJ4wA-XkMHbUcRDJetyuu7LrE","lat":48.196153100000004,"lon":16.4073139,"name":"Gasthof Schwabl Wirt","city":"Wien","category":"gastro","tags":["barrierefrei","google_wc_accessible"],"hours":{"type":"unknown"}},{"id":"gplace_ChIJfR05gOKpbUcRN7t2uMaVfXs","lat":48.1931758,"lon":16.4103434,"name":"bp","city":"Wien","category":"gastro","tags":["barrierefrei","google_wc_accessible"],"hours":{"type":"unknown"}},{"id":"gplace_ChIJHbsV_WkHbUcRdFvdbKaFaoc","lat":48.2001865,"lon":16.4024245,"name":"FitInn","city":"Wien","category":"other","tags":["barrierefrei","google_entrance_accessible"],"hours":{"type":"unknown"}},{"id":"gplace_ChIJ06znJFYHbUcRl98eXP2Iqvs","lat":48.1935182,"lon":16.3998685,"name":"Lili's Kitchen","city":"Wien","category":"gastro","tags":["google_has_restroom"],"hours":{"type":"unknown"}},{"id":"gplace_ChIJoT9pogcHbUcRwIxzxS_3HKU","lat":48.200264,"lon":16.406454,"name":"HOFER","city":"Wien","category":"other","tags":["barrierefrei","google_wc_accessible"],"hours":{"type":"unknown"}},{"id":"gplace_ChIJCQl1nTAHbUcRvdjQKYotMcE","lat":48.209633,"lon":16.4228165,"name":"Stadion Center","city":"Wien","category":"other","tags":["barrierefrei","google_wc_accessible"],"hours":{"type":"unknown"}},{"id":"gplace_ChIJiTMtajEHbUcRJz4vb5Z5VVE","lat":48.2088646,"lon":16.427656199999998,"name":"DASGYM.- Intelligent Strength","city":"Wien","category":"other","tags":["google_has_restroom"],"hours":{"type":"unknown"}},{"id":"gplace_ChIJOb5QgRYHbUcRhfC7GgTgu80","lat":48.2108771,"lon":16.404869599999998,"name":"die Allee","city":"Wien","category":"gastro","tags":["barrierefrei","google_wc_accessible"],"hours":{"type":"unknown"}},{"id":"gplace_ChIJi0I2PrsHbUcRNdzOR0qBNtk","lat":48.2118693,"lon":16.4120869,"name":"Das Glashaus - Restaurant & Bar","city":"Wien","category":"gastro","tags":["barrierefrei","google_wc_accessible"],"hours":{"type":"unknown"}},{"id":"gplace_ChIJsZ4ycBgHbUcRkQCWTIM2YbA","lat":48.208997499999995,"lon":16.4030409,"name":"Der Garten","city":"Wien","category":"gastro","tags":["google_has_restroom"],"hours":{"type":"unknown"}},{"id":"gplace_ChIJcSDCnKwHbUcRmghCiwf1kMY","lat":48.2148593,"lon":16.417219799999998,"name":"Cafe Little Britain","city":"Wien","category":"gastro","tags":["barrierefrei","google_wc_accessible"],"hours":{"type":"unknown"}},{"id":"gplace_ChIJ0SeqaBgHbUcRIORymcOE_Ow","lat":48.2167161,"lon":16.410971699999997,"name":"Burger's Bar","city":"Wien","category":"gastro","tags":["barrierefrei","google_wc_accessible"],"hours":{"type":"unknown"}},{"id":"gplace_ChIJJYWNjA8HbUcR2_5Pmc-GzqM","lat":48.212759,"lon":16.402204299999998,"name":"Toni Mörwald - Palazzo Vienna","city":"Wien","category":"gastro","tags":["barrierefrei","google_wc_accessible"],"hours":{"type":"unknown"}},{"id":"gplace_ChIJM3FrrxwHbUcRE2f1yrbRBsQ","lat":48.221757100000005,"lon":16.4011138,"name":"Pizzeria il mercato","city":"Wien","category":"gastro","tags":["barrierefrei","google_entrance_accessible"],"hours":{"type":"unknown"}},{"id":"gplace_ChIJKWVXY9sHbUcRNGzp4JyeDQs","lat":48.219614,"lon":16.4037269,"name":"brösl","city":"Wien","category":"gastro","tags":["barrierefrei","google_entrance_accessible"],"hours":{"type":"unknown"}},{"id":"gplace_ChIJ4VC_vK0HbUcR9ryaZLCPsh8","lat":48.218182399999996,"lon":16.4032545,"name":"Mesze_Vienna","city":"Wien","category":"gastro","tags":["barrierefrei","google_wc_accessible"],"hours":{"type":"unknown"}},{"id":"gplace_ChIJz6_2WwMHbUcRB9cOn_hRof4","lat":48.2218886,"lon":16.3996073,"name":"Mährischer Spatz 1925","city":"Wien","category":"gastro","tags":["google_has_restroom"],"hours":{"type":"unknown"}},{"id":"gplace_ChIJXdekqO0HbUcRSYsOPxlJU3g","lat":48.219611199999996,"lon":16.405438900000004,"name":"The Good Coffee Society 1020","city":"Wien","category":"gastro","tags":["google_has_restroom"],"hours":{"type":"unknown"}},{"id":"gplace_ChIJkyCeAsMGbUcR5yCotC1jolY","lat":48.234871999999996,"lon":16.4266178,"name":"Zur Alten Kaisermühle","city":"Wien","category":"gastro","tags":["google_has_restroom"],"hours":{"type":"unknown"}},{"id":"gplace_ChIJc9L9gOoGbUcRcgdOvJWijng","lat":48.2407787,"lon":16.4263531,"name":"Ufertaverne","city":"Wien","category":"gastro","tags":["barrierefrei","google_entrance_accessible"],"hours":{"type":"unknown"}},{"id":"gplace_ChIJD-wMwusGbUcRgu4jw4RlJVw","lat":48.239677099999994,"lon":16.4204738,"name":"China Sichuan Restaurant","city":"Wien","category":"gastro","tags":["barrierefrei","google_entrance_accessible"],"hours":{"type":"unknown"}},{"id":"gplace_ChIJT6ptAj4BbUcRPxYnqtqV32A","lat":48.2336871,"lon":16.4203692,"name":"Shell","city":"Wien","category":"gastro","tags":["barrierefrei","google_wc_accessible"],"hours":{"type":"unknown"}},{"id":"gplace_ChIJIXkTl10HbUcRX7yJ82w-SuU","lat":48.2381803,"lon":16.4225535,"name":"Oide Donau - Pizza & Grill","city":"Wien","category":"gastro","tags":["barrierefrei","google_wc_accessible"],"hours":{"type":"unknown"}},{"id":"gplace_ChIJQ0UEONwGbUcR8eaaVzFdOVY","lat":48.2294388,"lon":16.4244499,"name":"Das Schinakl","city":"Wien","category":"gastro","tags":["barrierefrei","google_entrance_accessible"],"hours":{"type":"unknown"}},{"id":"gplace_ChIJQ3PTbuIHbUcRDnCaI360f70","lat":48.2402154,"lon":16.410015299999998,"name":"Turm Restaurant","city":"Wien","category":"gastro","tags":["google_has_restroom"],"hours":{"type":"unknown"}},{"id":"gplace_ChIJVUj_UK0HbUcRbYBgfOVgMFQ","lat":48.2341273,"lon":16.421042099999998,"name":"Seven Botanicals Bar & Kitchen","city":"Wien","category":"gastro","tags":["barrierefrei","google_wc_accessible"],"hours":{"type":"unknown"}},{"id":"gplace_ChIJRfR7ugSqbUcRao_e8gWFpYQ","lat":48.1728107,"lon":16.4234403,"name":"Gaststätte Pistauer","city":"Wien","category":"gastro","tags":["google_has_restroom"],"hours":{"type":"unknown"}},{"id":"gplace_ChIJ3djqq1UHbUcRfRQ1O98iOII","lat":48.185799300000006,"lon":16.4209048,"name":"Gasometer Shopping- und Entertainment Center","city":"Wien","category":"gastro","tags":["barrierefrei","google_wc_accessible"],"hours":{"type":"unknown"}},{"id":"gplace_ChIJzU-H5KAAbUcRv3Z10iIAvGU","lat":48.172057099999996,"lon":16.431793799999998,"name":"Schutzhaus Haideröslein","city":"Wien","category":"gastro","tags":["barrierefrei","google_wc_accessible"],"hours":{"type":"unknown"}},{"id":"gplace_ChIJC9E6JACpbUcRKcra90mAV9Q","lat":48.1773488,"lon":16.4133992,"name":"Delta H11 Gourmet","city":"Wien","category":"gastro","tags":["google_has_restroom"],"hours":{"type":"unknown"}},{"id":"gplace_ChIJ84Tp7YEHbUcRyEnChSqzKdY","lat":48.184807299999996,"lon":16.4129364,"name":"EVO Fitness Wien Modecenterstraße","city":"Wien","category":"gastro","tags":["google_has_restroom","barrierefrei","google_entrance_accessible"],"hours":{"type":"unknown"}},{"id":"gplace_ChIJ-7jMKFUHbUcRWL_6z9pQstg","lat":48.184537,"lon":16.421670499999998,"name":"FITINN","city":"Wien","category":"other","tags":["google_has_restroom"],"hours":{"type":"unknown"}},{"id":"gplace_ChIJXYQ3WbAAbUcRBvr-IAXSCDo","lat":48.1925506,"lon":16.4389707,"name":"Lusthaus","city":"Wien","category":"gastro","tags":["barrierefrei","google_wc_accessible"],"hours":{"type":"unknown"}},{"id":"gplace_ChIJ8zPVK0UHbUcRFP0LbpP3AcM","lat":48.194524699999995,"lon":16.4105621,"name":"INJOY Health Club Wien","city":"Wien","category":"other","tags":["barrierefrei","google_wc_accessible"],"hours":{"type":"unknown"}},{"id":"gplace_ChIJ7d100MoAbUcRCO0AGOo3vlE","lat":48.20315,"lon":16.43298,"name":"Hofer","city":"Wien","category":"other","tags":["barrierefrei","google_wc_accessible"],"hours":{"type":"unknown"}},{"id":"gplace_ChIJPRHS9rAAbUcR2dvG0Nav6gk","lat":48.1931345,"lon":16.43923,"name":"Altes Jägerhaus","city":"Wien","category":"gastro","tags":["barrierefrei","google_wc_accessible"],"hours":{"type":"unknown"}},{"id":"gplace_ChIJexNt-8oAbUcRHXkGGdrOUIQ","lat":48.2030391,"lon":16.4360307,"name":"Eni","city":"Wien","category":"tankstelle","tags":["barrierefrei","google_wc_accessible"],"hours":{"type":"unknown"}},{"id":"gplace_ChIJWVoknZkHbUcRYxruHhzex-8","lat":48.1949969,"lon":16.4108146,"name":"Tretorria","city":"Wien","category":"gastro","tags":["barrierefrei","google_wc_accessible"],"hours":{"type":"unknown"}},{"id":"gplace_ChIJlcRih7YAbUcR5mxniopt5Xs","lat":48.1982247,"lon":16.4377478,"name":"Schutzhaus Heustadlwasser","city":"Wien","category":"gastro","tags":["barrierefrei","google_entrance_accessible"],"hours":{"type":"unknown"}},{"id":"gplace_ChIJ7aJYSqsAbUcRyc467veBULY","lat":48.1862553,"lon":16.4242786,"name":"Eni","city":"Wien","category":"tankstelle","tags":["google_has_restroom"],"hours":{"type":"unknown"}},{"id":"gplace_ChIJeddmOYgHbUcRrxQOpOuxLCE","lat":48.1907321,"lon":16.414019,"name":"VIB Bistro & Coffee Container","city":"Wien","category":"gastro","tags":["barrierefrei","google_wc_accessible"],"hours":{"type":"unknown"}},{"id":"gplace_ChIJP-qvsCgHbUcR9dcgg0Mkrkk","lat":48.2176161,"lon":16.429069,"name":"Vienna City Beach Club","city":"Wien","category":"gastro","tags":["barrierefrei","google_wc_accessible"],"hours":{"type":"unknown"}},{"id":"gplace_ChIJUbFtPZ8HbUcRGZwTW4q9sik","lat":48.2133463,"lon":16.436584,"name":"Wake Up","city":"Wien","category":"gastro","tags":["barrierefrei","google_wc_accessible"],"hours":{"type":"unknown"}},{"id":"gplace_ChIJ2y6W8DgHbUcR2G8hNNZBXT8","lat":48.2060635,"lon":16.4300894,"name":"L'arte Restaurant","city":"Wien","category":"gastro","tags":["barrierefrei","google_entrance_accessible"],"hours":{"type":"unknown"}},{"id":"gplace_ChIJjT_mCSMHbUcRLwFtUJuIMfQ","lat":48.2164553,"lon":16.4170908,"name":"bp","city":"Wien","category":"gastro","tags":["barrierefrei","google_wc_accessible"],"hours":{"type":"unknown"}},{"id":"gplace_ChIJFwq7hHwHbUcRlZIi8eod3Ko","lat":48.2129719,"lon":16.4155044,"name":"Oma Küche","city":"Wien","category":"gastro","tags":["barrierefrei","google_entrance_accessible"],"hours":{"type":"unknown"}},{"id":"gplace_ChIJk7oBEtgHbUcRHCuv06bERW8","lat":48.2062003,"lon":16.430814599999998,"name":"ALFA SPORTSCLUB Wien","city":"Wien","category":"other","tags":["barrierefrei","google_entrance_accessible"],"hours":{"type":"unknown"}},{"id":"gplace_ChIJO-ndYjoHbUcRVYBoIrvy2YE","lat":48.209374399999994,"lon":16.4237383,"name":"FITINN","city":"Wien","category":"other","tags":["barrierefrei","google_wc_accessible"],"hours":{"type":"unknown"}},{"id":"gplace_ChIJX_DgGj0HbUcRVwpo2G8rYto","lat":48.2127057,"lon":16.4125083,"name":"CrossFit Viertel Zwei","city":"Wien","category":"other","tags":["barrierefrei","google_entrance_accessible"],"hours":{"type":"unknown"}},{"id":"gplace_ChIJBX8kt9IAbUcRbJKWJ0Bz_gI","lat":48.211726,"lon":16.438958,"name":"Barbados Inseltreff","city":"Wien","category":"gastro","tags":["barrierefrei","google_entrance_accessible"],"hours":{"type":"unknown"}},{"id":"gplace_ChIJDZmUDtYGbUcRUhywOS6PNk0","lat":48.222167899999995,"lon":16.4364892,"name":"Strandbeisl Selbstverständlich","city":"Wien","category":"gastro","tags":["barrierefrei","google_entrance_accessible"],"hours":{"type":"unknown"}},{"id":"gplace_ChIJl1024NcGbUcRvLzup0-LKHA","lat":48.2222095,"lon":16.4323618,"name":"Zum Straba - Straßenbahnerbad","city":"Wien","category":"gastro","tags":["barrierefrei","google_wc_accessible"],"hours":{"type":"unknown"}},{"id":"gplace_ChIJxzVP3tMGbUcRo8tBAu39Ak0","lat":48.227187099999995,"lon":16.440440799999998,"name":"Restaurant Sternberg 1220","city":"Wien","category":"gastro","tags":["barrierefrei","google_wc_accessible"],"hours":{"type":"unknown"}},{"id":"gplace_ChIJfW3PWLcHbUcR7rJY8YxmYuk","lat":48.225564899999995,"lon":16.421625499999998,"name":"Curry Vibes - Spice Up Your Life!","city":"Wien","category":"gastro","tags":["google_has_restroom","barrierefrei","google_wc_accessible"],"hours":{"type":"unknown"}},{"id":"gplace_ChIJe8wpESkHbUcRKntVnE2-IN4","lat":48.222730399999996,"lon":16.429836599999998,"name":"PSV Lounge - Polizeisportverein Wien","city":"Wien","category":"gastro","tags":["barrierefrei","google_entrance_accessible"],"hours":{"type":"unknown"}},{"id":"gplace_ChIJd8B25t4GbUcRs6bfeh4n2Ak","lat":48.226360799999995,"lon":16.422971999999998,"name":"Vorstadtwirt","city":"Wien","category":"gastro","tags":["barrierefrei","google_wc_accessible"],"hours":{"type":"unknown"}},{"id":"gplace_ChIJpVtls98GbUcR1SxKFuT_ifM","lat":48.226095,"lon":16.420215799999998,"name":"Pizzakeller","city":"Wien","category":"gastro","tags":["google_has_restroom"],"hours":{"type":"unknown"}},