[{"id":"fuel_82766592","lat":47.579403,"lon":10.7418991,"name":"Aral","city":"","category":"other","tags":[],"operator":"REWE Kunkel OHG"},{"id":"fuel_139523876","lat":47.9993435,"lon":10.1528549,"name":"ESSO","city":"","category":"other","tags":[],"opening_hours":"24/7","operator":"ESSO"},{"id":"fuel_183881566","lat":47.8806041,"lon":10.0400732,"name":"Shell","city":"Aichstetten","category":"other","tags":[],"opening_hours":"24/7","operator":"Shell"},{"id":"fuel_255281218","lat":47.5243047,"lon":10.261975,"name":"Tankstelle","city":"","category":"other","tags":[]},{"id":"fuel_258338915","lat":47.6203979,"lon":10.5062738,"name":"Esso","city":"","category":"other","tags":[],"opening_hours":"Mo-Su 06:00-22:00","operator":"Esso"},{"id":"fuel_267570967","lat":47.8213046,"lon":10.0080637,"name":"Tankstelle Feneberg","city":"","category":"other","tags":[],"opening_hours":"24/7","operator":"Feneberg"},{"id":"fuel_268264019","lat":47.6424526,"lon":10.8278711,"name":"Agip","city":"Halblech","category":"other","tags":[],"opening_hours":"Mo-Su 06:00-22:00","operator":"Agip"},{"id":"fuel_268265166","lat":47.6967314,"lon":10.7932516,"name":"Sunoil","city":"","category":"other","tags":[]},{"id":"fuel_268657219","lat":47.6198024,"lon":10.5088442,"name":"VMarkt Tankstelle","city":"","category":"other","tags":[],"operator":"Georg Jos. Kaes Gmbh"},{"id":"fuel_270409739","lat":47.4153981,"lon":10.2750528,"name":"Esso","city":"Oberstdorf","category":"other","tags":[],"opening_hours":"Mo- Fr 06:00-22:00; Sa-Su 07:00-22:00","operator":"Mario Karsch"},{"id":"fuel_274112192","lat":47.5191233,"lon":10.2817623,"name":"Esso","city":"","category":"other","tags":[],"operator":"Esso"},{"id":"fuel_276903768","lat":47.612379,"lon":10.6346029,"name":"Avia","city":"","category":"other","tags":[],"operator":"Avia"},{"id":"fuel_281462272","lat":47.5040577,"lon":10.3592943,"name":"Avia","city":"","category":"other","tags":[],"opening_hours":"Mo-Fr 07:30-20:00, Sa 08:00-20:00, Su,PH 07:30-20:00"},{"id":"fuel_288034102","lat":47.6975969,"lon":10.7918086,"name":"OMV","city":"","category":"other","tags":[],"operator":"OMV"},{"id":"fuel_288245064","lat":47.7032728,"lon":10.0493566,"name":"Feneberg Kaufmarkt","city":"","category":"other","tags":[],"opening_hours":"Mo-Sa 08:00-21:00; PH off","operator":"Fehneberg"},{"id":"fuel_289251664","lat":47.4318867,"lon":10.2692832,"name":"V-Markt","city":"Fischen im Allgäu","category":"other","tags":[],"opening_hours":"24/7","operator":"V-Markt"},{"id":"fuel_291366532","lat":47.6895274,"lon":10.0328754,"name":"Aral","city":"Isny im Allgäu","category":"other","tags":[],"opening_hours":"24/7","operator":"Aral"},{"id":"fuel_292042334","lat":47.6979326,"lon":10.0415958,"name":"Avia","city":"Isny im Allgäu","category":"other","tags":[],"opening_hours":"Mo-Sa 06:00-22:00, Su 07:00-22:00; PH 07:00-22:00","operator":"Avia"},{"id":"fuel_293441281","lat":47.8463712,"lon":10.2829118,"name":"Agip","city":"","category":"other","tags":[],"opening_hours":"24/7","operator":"Agip"},{"id":"fuel_297823937","lat":47.5553634,"lon":10.0255644,"name":"Esso","city":"Oberstaufen","category":"other","tags":[],"opening_hours":"Mo-Su 07:00-22:00","operator":"Esso"},{"id":"fuel_302742733","lat":47.5149178,"lon":10.4027811,"name":"Sunoil","city":"","category":"other","tags":[],"opening_hours":"Mo-Su,PH 07:30-20:00"},{"id":"fuel_305785571","lat":47.4136569,"lon":10.275568,"name":"Agip","city":"Oberstdorf","category":"other","tags":[],"opening_hours":"Mo-Sa 06:30-20:00; Su 08:00-20:00","operator":"Agip"},{"id":"fuel_310247047","lat":47.7476209,"lon":10.2395097,"name":"Avia","city":"","category":"other","tags":[],"opening_hours":"24/7","operator":"AVIA"},{"id":"fuel_313546500","lat":47.7716156,"lon":10.7485115,"name":"Pflanzenöl","city":"","category":"other","tags":[]},{"id":"fuel_316010200","lat":47.5583762,"lon":10.6950673,"name":"Osterried","city":"","category":"other","tags":[]},{"id":"fuel_316011991","lat":47.8493154,"lon":10.2810498,"name":"Agip","city":"","category":"other","tags":[],"opening_hours":"24/7","operator":"Agip"},{"id":"fuel_324556730","lat":47.6563638,"lon":10.0885693,"name":"Agip","city":"","category":"other","tags":[],"operator":"Agip"},{"id":"fuel_326847423","lat":47.5510948,"lon":10.2511433,"name":"SB-Tank","city":"","category":"other","tags":[],"opening_hours":"24/7"},{"id":"fuel_343406352","lat":47.5830731,"lon":10.5647082,"name":"Autohaus Brunhuber","city":"Pfronten","category":"other","tags":[],"opening_hours":"Mo-Sa 08:00-19:00; Su 09:00-18:00","operator":"Autohaus Brunhuber"},{"id":"fuel_345282120","lat":47.5844052,"lon":10.5594995,"name":"Eni Tankstelle Pfronten","city":"Pfronten","category":"other","tags":[],"opening_hours":"Mo-Fr 06:00-22:00; Sa-Su 07:00-22:00","operator":"Eni"},{"id":"fuel_355951769","lat":47.7896232,"lon":10.94224,"name":"Tankstelle","city":"","category":"other","tags":[],"operator":"BayWa"},{"id":"fuel_383738534","lat":47.7735399,"lon":10.6034059,"name":"Aral","city":"","category":"other","tags":[],"operator":"Aral"},{"id":"fuel_383745220","lat":47.782846,"lon":10.620411,"name":"Jet","city":"","category":"other","tags":[],"operator":"JET"},{"id":"fuel_383745223","lat":47.785446,"lon":10.622004,"name":"ESSO","city":"Marktoberdorf","category":"other","tags":[],"operator":"Esso"},{"id":"fuel_383836787","lat":47.7753731,"lon":10.6085361,"name":"Freie Tankstelle Huber","city":"","category":"other","tags":[],"operator":"Freie Tankstelle"},{"id":"fuel_392243066","lat":47.9946891,"lon":10.1792651,"name":"BK Tankstelle","city":"","category":"other","tags":[],"operator":"BK Benzin Kontor AG"},{"id":"fuel_392768868","lat":47.8932865,"lon":10.0816245,"name":"Sunoil","city":"Aichstetten","category":"other","tags":[],"opening_hours":"24/7"},{"id":"fuel_476364574","lat":47.8610315,"lon":10.1293973,"name":"AVIA","city":"","category":"other","tags":[],"operator":"AVIA"},{"id":"fuel_506486406","lat":47.946898,"lon":10.385503,"name":"BK","city":"","category":"other","tags":[],"operator":"Koller"},{"id":"fuel_506486485","lat":47.9476383,"lon":10.3902936,"name":"Avia-Tankstelle","city":"","category":"other","tags":[],"operator":"Kern"},{"id":"fuel_528854028","lat":47.9794398,"lon":10.1713903,"name":"Esso HARALD MAYER","city":"Memmingen","category":"other","tags":[],"opening_hours":"Mo-Fr 06:00-23:00; Sa-Su 07:00-23:00","operator":"Esso"},{"id":"fuel_614228728","lat":47.923455,"lon":10.9268374,"name":"Mayr Reichling","city":"","category":"other","tags":[]},{"id":"fuel_675080111","lat":47.9035266,"lon":10.6384272,"name":"V-Markt","city":"Kaufbeuren","category":"other","tags":[],"opening_hours":"24/7","operator":"V-Markt"},{"id":"fuel_679776908","lat":47.5551198,"lon":10.2309187,"name":"Avia","city":"Immenstadt im Allgäu","category":"other","tags":[],"opening_hours":"24/7","operator":"Avia"},{"id":"fuel_705938097","lat":47.6120218,"lon":10.102964,"name":"PIA Tankstelle","city":"","category":"other","tags":[]},{"id":"fuel_732712681","lat":47.6180438,"lon":10.8084048,"name":"Köpf Quadconnection","city":"","category":"other","tags":[]},{"id":"fuel_732712918","lat":47.9917083,"lon":10.1605298,"name":"Aral","city":"","category":"other","tags":[],"opening_hours":"Mo-Su 06:00-24:00","operator":"ADOLF PRÄG GMBH & CO. KG"},{"id":"fuel_732713173","lat":47.95533,"lon":10.1839,"name":"Karl Stetter","city":"Memmingen","category":"other","tags":[],"opening_hours":"Mo-Fr 09:00-12:00,13:00-18:00; Sa 09:00-12:00"},{"id":"fuel_732713438","lat":47.90044,"lon":10.97349,"name":"BST Car Service","city":"","category":"other","tags":[],"opening_hours":"Mo-Fr 06:00-18:00"},{"id":"fuel_732715528","lat":47.654239,"lon":10.6087661,"name":"Avia","city":"","category":"other","tags":[],"opening_hours":"Mo-Fr 07:00-19:00; Sa 07:00-18:00; Su 09:00-13:00","operator":"Avia"},{"id":"fuel_732716530","lat":47.5777705,"lon":10.2413138,"name":"BK Tankstelle","city":"Immenstadt im Allgäu","category":"other","tags":[],"opening_hours":"Mo-Fr 05:00-22:00; Sa-Su 07:00-22:00"},{"id":"fuel_1312153655","lat":47.5726221,"lon":10.2890623,"name":"AVIA","city":"Rettenberg","category":"other","tags":[],"opening_hours":"Mo-Fr 07:00-19:00; Sa 08:00-18:00; Su 09:00-18:00","operator":"Avia"},{"id":"fuel_1732151142","lat":47.5588014,"lon":10.2109192,"name":"V-Markt Immenstadt","city":"Immenstadt im Allgäu","category":"other","tags":[],"opening_hours":"24/7"},{"id":"fuel_2103540920","lat":47.6015579,"lon":10.2548836,"name":"Agip","city":"","category":"other","tags":[],"opening_hours":"Mo-Fr 05:00-22:00; Sa 06:00-22:00; Su 07:00-22:00","operator":"Agip"},{"id":"fuel_2154407323","lat":47.7763513,"lon":10.7510832,"name":"Tankstelle","city":"","category":"other","tags":[],"opening_hours":"24/7","operator":"Avia"},{"id":"fuel_2324497995","lat":47.6481777,"lon":10.4547355,"name":"AVIA Tankstelle","city":"Oy-Mittelberg","category":"other","tags":[],"opening_hours":"24/7","operator":"Keslar GmbH"},{"id":"fuel_3109336285","lat":47.9010289,"lon":10.6401146,"name":"Erdgas","city":"","category":"other","tags":[],"operator":"Erdgas Schwaben","opening_hours":"Mo-Th 04:00-23:30; Fr-Sa 04:00-00:00; Su 04:00-23:00"},{"id":"fuel_3305509556","lat":47.5632972,"lon":10.2262284,"name":"Avia","city":"Immenstadt im Allgäu","category":"other","tags":[],"opening_hours":"Mo-Fr 06:00-22:00; Sa 07:00-22:00; Su 08:00-22:00"},{"id":"fuel_3640830063","lat":47.8838909,"lon":10.2483245,"name":"Aral","city":"Bad Grönenbach","category":"other","tags":[],"opening_hours":"24/7","operator":"Aral"},{"id":"fuel_3714164445","lat":47.6933928,"lon":10.9885898,"name":"Tankstelle","city":"","category":"other","tags":[]},{"id":"fuel_4241049806","lat":47.8309087,"lon":10.0043125,"name":"JET","city":"Leutkirch im Allgäu","category":"other","tags":[],"operator":"Yilmaz Zorba"},{"id":"fuel_4446903966","lat":47.7768546,"lon":10.4764573,"name":"JET","city":"","category":"other","tags":[],"operator":"JET"},{"id":"fuel_4464603817","lat":47.9977399,"lon":10.0840077,"name":"BFT","city":"","category":"other","tags":[],"operator":"BFT"},{"id":"fuel_4492449076","lat":47.5740959,"lon":10.6671362,"name":"Avia XPress","city":"Füssen","category":"other","tags":[],"operator":"Avia"},{"id":"fuel_4697688672","lat":47.7880249,"lon":10.9272273,"name":"Freie Tankstelle","city":"","category":"other","tags":[],"opening_hours":"24/7","operator":"Freie Tankstelle"},{"id":"fuel_4912034688","lat":47.4618263,"lon":10.267999,"name":"Esso","city":"Fischen im Allgäu","category":"other","tags":[],"opening_hours":"06:00-22:00","operator":"Esso"},{"id":"fuel_5157277425","lat":47.9442212,"lon":10.7440744,"name":"AVIA-Tankstelle","city":"","category":"other","tags":[],"operator":"Ulrike Karg"},{"id":"fuel_5180245899","lat":47.8941327,"lon":10.2636236,"name":"Tankstelle Bumann","city":"","category":"other","tags":[]},{"id":"fuel_5282397174","lat":47.610032,"lon":10.6369112,"name":"Tankstelle","city":"","category":"other","tags":[]},{"id":"fuel_5542128060","lat":47.8432427,"lon":10.4166068,"name":"Aral","city":"","category":"other","tags":[],"operator":"Aral"},{"id":"fuel_5815956578","lat":47.8802487,"lon":10.0387332,"name":"tankpool24","city":"Aichstetten","category":"other","tags":[],"opening_hours":"24/7","operator":"tankpool24.de"},{"id":"fuel_6128096496","lat":47.8816617,"lon":10.8914973,"name":"Total","city":"","category":"other","tags":[],"opening_hours":"Mo-Sa 06:00-21:00; Su 07:00-21:00","operator":"Total"},{"id":"fuel_6149527505","lat":47.8160349,"lon":10.9030723,"name":"V-MARKT","city":"Schongau","category":"other","tags":[],"opening_hours":"24/7","operator":"V-Markt"},{"id":"fuel_6237056985","lat":47.8069856,"lon":10.8733602,"name":"Esso","city":"","category":"other","tags":[],"operator":"Esso"},{"id":"fuel_6364940028","lat":47.6411536,"lon":10.1131295,"name":"Tankstelle","city":"","category":"other","tags":[]},{"id":"fuel_6397332355","lat":47.9852489,"lon":10.237098,"name":"Tankstelle","city":"","category":"other","tags":[]},{"id":"fuel_6400236476","lat":47.98595,"lon":10.2368975,"name":"Flugtankstelle","city":"","category":"other","tags":[],"operator":"Flugtankstelle"},{"id":"fuel_6463814170","lat":47.8703655,"lon":10.6291217,"name":"Jet","city":"","category":"other","tags":[],"operator":"JET"},{"id":"fuel_6722983452","lat":47.9353789,"lon":10.8322511,"name":"SEELoel","city":"Fuchstal","category":"other","tags":[],"operator":"SEEL Mineralöl-Handels GmbH & Co. KG"},{"id":"fuel_6812700858","lat":47.6246169,"lon":10.8017978,"name":"1A Autoservice Gschwill","city":"","category":"other","tags":[],"operator":"Freie Tankstelle"},{"id":"fuel_7111759501","lat":47.8845304,"lon":10.6368756,"name":"Aral","city":"","category":"other","tags":[],"operator":"Aral"},{"id":"fuel_7178713326","lat":47.8835633,"lon":10.620723,"name":"Independent","city":"","category":"other","tags":[],"operator":"V-Markt"},{"id":"fuel_7194863057","lat":47.8781988,"lon":10.6123771,"name":"Agip","city":"","category":"other","tags":[],"operator":"Agip"},{"id":"fuel_7256039910","lat":47.9332312,"lon":10.6073582,"name":"Jet","city":"Pforzen","category":"other","tags":[],"opening_hours":"Mo-Fr 05:00-22:00; Sa 06:00-22:00; Su 07:00-22:00","operator":"JET"},{"id":"fuel_7456875951","lat":47.5652825,"lon":10.0148427,"name":"Avia","city":"","category":"other","tags":[],"operator":"Avia"},{"id":"fuel_8438864915","lat":47.9242608,"lon":10.6688923,"name":"PINOIL Service-Station Nieberle","city":"","category":"other","tags":[],"opening_hours":"Mo-Fr 06:30-19:30; Sa 07:30-19:30; Su 08:30-19:30","operator":"C. Nieberle"},{"id":"fuel_8494720972","lat":47.8917512,"lon":10.6122864,"name":"Agip","city":"","category":"other","tags":[],"operator":"AGIP"},{"id":"fuel_8521519574","lat":47.70408,"lon":10.862639,"name":"Avia","city":"","category":"other","tags":[],"opening_hours":"24/7","operator":"Avia"},{"id":"fuel_8585315684","lat":47.8362536,"lon":10.6398486,"name":"Avia XPress","city":"Biessenhofen","category":"other","tags":[],"opening_hours":"24/7","operator":"OEST ENERGIES GmbH & Co. KG"},{"id":"fuel_8744948853","lat":47.8758768,"lon":10.5397357,"name":"Avia","city":"","category":"other","tags":[],"operator":"Avia"},{"id":"fuel_8821431236","lat":47.9019938,"lon":10.6393553,"name":"Jet","city":"","category":"other","tags":[],"operator":"Jet"},{"id":"fuel_8821448719","lat":47.8986993,"lon":10.6443214,"name":"Shell","city":"Kaufbeuren","category":"other","tags":[],"opening_hours":"24/7","operator":"Shell"},{"id":"fuel_9031941173","lat":47.5121613,"lon":10.2904797,"name":"Tankstelle","city":"","category":"other","tags":[],"operator":"BayWa"},{"id":"fuel_9320546738","lat":47.8488073,"lon":10.4178458,"name":"Autohaus Kramer","city":"","category":"other","tags":[]},{"id":"fuel_9591701577","lat":47.5685681,"lon":10.6879766,"name":"JET","city":"Füssen","category":"other","tags":[],"opening_hours":"Mo-Sa 06:00-22:00; Su 07:00-22:00","operator":"JET"},{"id":"fuel_9623180432","lat":47.7061404,"lon":10.3114745,"name":"Aral","city":"Kempten (Allgäu)","category":"other","tags":[],"opening_hours":"Mo-Su 06:00-23:00","operator":"Adolf Präg GmbH & Co. KG"},{"id":"fuel_9724250480","lat":47.8963819,"lon":10.6444811,"name":"V-Markt Tankstelle und Waschanlage","city":"","category":"other","tags":[],"opening_hours":"Mo-Sa 08:00-20:00","operator":"V-Markt"},{"id":"fuel_9894411639","lat":47.6935136,"lon":10.7846395,"name":"V-Markt","city":"Lechbruck am See","category":"other","tags":[],"opening_hours":"24/7"},{"id":"fuel_10244901641","lat":47.8038935,"lon":10.2998234,"name":"Avia Express","city":"","category":"other","tags":[],"operator":"Keslar"},{"id":"fuel_10265587244","lat":47.9659542,"lon":10.1847764,"name":"LNG","city":"","category":"other","tags":[]},{"id":"fuel_10734403080","lat":47.8231477,"lon":10.0157165,"name":"RAN","city":"Leutkirch im Allgäu","category":"other","tags":[],"opening_hours":"Mo-Fr,Sa-Su, PH 05:30-22:00","operator":"Magnus Baumann"},{"id":"fuel_11434780542","lat":47.9963779,"lon":10.1994008,"name":"Aral","city":"Memmingen","category":"other","tags":[],"operator":"Aral"},{"id":"fuel_11768612726","lat":47.8150973,"lon":10.5380614,"name":"Weinhart","city":"","category":"other","tags":[],"opening_hours":"24/7"},{"id":"fuel_12344484613","lat":47.8918185,"lon":10.6358207,"name":"HEM","city":"Kaufbeuren","category":"other","tags":[],"operator":"HEM"},{"id":"fuel_13194392336","lat":47.9156023,"lon":10.8573239,"name":"Deltin","city":"","category":"other","tags":[]},{"id":"fuel_13411302142","lat":47.9729565,"lon":10.0502519,"name":"Avia","city":"","category":"other","tags":[],"operator":"Avia"}]