[{"id":"fuel_25635415","lat":47.9887042,"lon":11.87446,"name":"Gartner","city":"","category":"other","tags":[],"gplace_id":"ChIJYS52W7H7nUcR6zTrl00U6tA","hours":{"type":"unknown"}},{"id":"fuel_25635419","lat":47.9877997,"lon":11.8630254,"name":"AVIA","city":"","category":"tankstelle","tags":[],"operator":"Avia","opening_hours":"Su 09:00-12:00; Mo 06:00-19:00; Tu 06:00-19:00; We 06:00-19:00; Th 06:00-19:00; Fr 06:00-19:00; Sa 08:00-16:00","gplace_id":"ChIJYZ2YFqz7nUcRnfBhicgZsJ4","hours":{"type":"weekly","weekly":{"0":{"isOpen":true,"periods":[{"open":540,"close":720}]},"1":{"isOpen":true,"periods":[{"open":360,"close":1140}]},"2":{"isOpen":true,"periods":[{"open":360,"close":1140}]},"3":{"isOpen":true,"periods":[{"open":360,"close":1140}]},"4":{"isOpen":true,"periods":[{"open":360,"close":1140}]},"5":{"isOpen":true,"periods":[{"open":360,"close":1140}]},"6":{"isOpen":true,"periods":[{"open":480,"close":960}]}},"original":"Su 09:00-12:00; Mo 06:00-19:00; Tu 06:00-19:00; We 06:00-19:00; Th 06:00-19:00; Fr 06:00-19:00; Sa 08:00-16:00"}},{"id":"fuel_30040118","lat":47.6943528,"lon":11.7726387,"name":"Agip","city":"","category":"tankstelle","tags":[],"operator":"Agip","opening_hours":"Su 06:30-23:00; Mo 05:30-23:00; Tu 05:30-23:00; We 05:30-23:00; Th 05:30-23:00; Fr 05:30-23:00; Sa 06:00-23:00","gplace_id":"ChIJp2f_7LeOnUcR88ehoTuiPSg","hours":{"type":"weekly","weekly":{"0":{"isOpen":true,"periods":[{"open":390,"close":1380}]},"1":{"isOpen":true,"periods":[{"open":330,"close":1380}]},"2":{"isOpen":true,"periods":[{"open":330,"close":1380}]},"3":{"isOpen":true,"periods":[{"open":330,"close":1380}]},"4":{"isOpen":true,"periods":[{"open":330,"close":1380}]},"5":{"isOpen":true,"periods":[{"open":330,"close":1380}]},"6":{"isOpen":true,"periods":[{"open":360,"close":1380}]}},"original":"Su 06:30-23:00; Mo 05:30-23:00; Tu 05:30-23:00; We 05:30-23:00; Th 05:30-23:00; Fr 05:30-23:00; Sa 06:00-23:00"}},{"id":"fuel_31382959","lat":47.8883893,"lon":11.684734,"name":"Esso","city":"Holzkirchen","category":"tankstelle","tags":[],"opening_hours":"24/7","operator":"Esso","hours":{"type":"24_7"}},{"id":"fuel_34729838","lat":47.8434311,"lon":11.1469573,"name":"Agip","city":"","category":"tankstelle","tags":[],"operator":"Agip","opening_hours":"Su 06:00-22:00; Mo 05:00-22:00; Tu 05:00-22:00; We 05:00-22:00; Th 05:00-22:00; Fr 05:00-22:00; Sa 05:00-22:00","gplace_id":"ChIJJd6KGmm1nUcRS-ew4NzQPnM","hours":{"type":"weekly","weekly":{"0":{"isOpen":true,"periods":[{"open":360,"close":1320}]},"1":{"isOpen":true,"periods":[{"open":300,"close":1320}]},"2":{"isOpen":true,"periods":[{"open":300,"close":1320}]},"3":{"isOpen":true,"periods":[{"open":300,"close":1320}]},"4":{"isOpen":true,"periods":[{"open":300,"close":1320}]},"5":{"isOpen":true,"periods":[{"open":300,"close":1320}]},"6":{"isOpen":true,"periods":[{"open":300,"close":1320}]}},"original":"Su 06:00-22:00; Mo 05:00-22:00; Tu 05:00-22:00; We 05:00-22:00; Th 05:00-22:00; Fr 05:00-22:00; Sa 05:00-22:00"}},{"id":"fuel_59641066","lat":47.9083165,"lon":11.4282167,"name":"Shell","city":"Wolfratshausen","category":"tankstelle","tags":[],"opening_hours":"Mo-Fr 05:00-23:59; Sa,Su 06:00-23:59","operator":"Shell","hours":{"type":"weekly","weekly":{"0":{"isOpen":true,"periods":[{"open":360,"close":1439}]},"1":{"isOpen":true,"periods":[{"open":300,"close":1439}]},"2":{"isOpen":true,"periods":[{"open":300,"close":1439}]},"3":{"isOpen":true,"periods":[{"open":300,"close":1439}]},"4":{"isOpen":true,"periods":[{"open":300,"close":1439}]},"5":{"isOpen":true,"periods":[{"open":300,"close":1439}]},"6":{"isOpen":true,"periods":[{"open":360,"close":1439}]}},"original":"Mo-Fr 05:00-23:59; Sa,Su 06:00-23:59"}},{"id":"fuel_59641083","lat":47.91007,"lon":11.421517,"name":"Esso","city":"Wolfratshausen","category":"tankstelle","tags":[],"operator":"ESSO","opening_hours":"Su 06:00-22:00; Mo 06:00-22:00; Tu 06:00-22:00; We 06:00-22:00; Th 06:00-22:00; Fr 06:00-22:00; Sa 06:00-22:00","gplace_id":"ChIJDf52aifEnUcRpt00-g6hYS0","hours":{"type":"weekly","weekly":{"0":{"isOpen":true,"periods":[{"open":360,"close":1320}]},"1":{"isOpen":true,"periods":[{"open":360,"close":1320}]},"2":{"isOpen":true,"periods":[{"open":360,"close":1320}]},"3":{"isOpen":true,"periods":[{"open":360,"close":1320}]},"4":{"isOpen":true,"periods":[{"open":360,"close":1320}]},"5":{"isOpen":true,"periods":[{"open":360,"close":1320}]},"6":{"isOpen":true,"periods":[{"open":360,"close":1320}]}},"original":"Su 06:00-22:00; Mo 06:00-22:00; Tu 06:00-22:00; We 06:00-22:00; Th 06:00-22:00; Fr 06:00-22:00; Sa 06:00-22:00"}},{"id":"fuel_60146651","lat":47.8757003,"lon":11.7101785,"name":"Aral","city":"Holzkirchen","category":"tankstelle","tags":[],"opening_hours":"24/7","operator":"Sepp Killy","hours":{"type":"24_7"}},{"id":"fuel_70416138","lat":47.8288525,"lon":11.905724,"name":"Shell","city":"Irschenberg","category":"tankstelle","tags":[],"opening_hours":"24/7","operator":"Shell","hours":{"type":"24_7"}},{"id":"fuel_70433847","lat":47.8917311,"lon":11.7317837,"name":"Shell Holzkirchen-Nord","city":"","category":"tankstelle","tags":["sanifair","barrierefrei","kostenpflichtig"],"opening_hours":"24/7","operator":"Shell","hours":{"type":"24_7"},"fee":"yes"},{"id":"fuel_211363733","lat":47.6603553,"lon":11.3720066,"name":"Esso","city":"","category":"tankstelle","tags":[],"opening_hours":"Mo-Fr 06:00-19:00; PH,Sa,Su 07:00-19:00","operator":"Esso","hours":{"type":"weekly","weekly":{"0":{"isOpen":true,"periods":[{"open":420,"close":1140}]},"1":{"isOpen":true,"periods":[{"open":360,"close":1140}]},"2":{"isOpen":true,"periods":[{"open":360,"close":1140}]},"3":{"isOpen":true,"periods":[{"open":360,"close":1140}]},"4":{"isOpen":true,"periods":[{"open":360,"close":1140}]},"5":{"isOpen":true,"periods":[{"open":360,"close":1140}]},"6":{"isOpen":true,"periods":[{"open":420,"close":1140}]}},"original":"Mo-Fr 06:00-19:00; PH,Sa,Su 07:00-19:00"}},{"id":"fuel_248106437","lat":47.4837468,"lon":11.2372119,"name":"eni","city":"","category":"tankstelle","tags":[],"operator":"Agip","opening_hours":"Su 06:00-20:00; Mo 06:00-20:00; Tu 06:00-20:00; We 06:00-20:00; Th 06:00-20:00; Fr 06:00-20:00; Sa 06:00-20:00","gplace_id":"ChIJ8TGnWAEJnUcRHhE_5Iccybw","hours":{"type":"weekly","weekly":{"0":{"isOpen":true,"periods":[{"open":360,"close":1200}]},"1":{"isOpen":true,"periods":[{"open":360,"close":1200}]},"2":{"isOpen":true,"periods":[{"open":360,"close":1200}]},"3":{"isOpen":true,"periods":[{"open":360,"close":1200}]},"4":{"isOpen":true,"periods":[{"open":360,"close":1200}]},"5":{"isOpen":true,"periods":[{"open":360,"close":1200}]},"6":{"isOpen":true,"periods":[{"open":360,"close":1200}]}},"original":"Su 06:00-20:00; Mo 06:00-20:00; Tu 06:00-20:00; We 06:00-20:00; Th 06:00-20:00; Fr 06:00-20:00; Sa 06:00-20:00"}},{"id":"fuel_257076364","lat":47.9505632,"lon":11.9682255,"name":"BayWa","city":"","category":"other","tags":[],"opening_hours":"Su 00:00+","gplace_id":"ChIJfQ-9VT74nUcR2iY25qSVFoo","hours":{"type":"unknown","original":"Su 00:00+"}},{"id":"fuel_266024251","lat":47.8267369,"lon":11.8982565,"name":"ENI Service Station","city":"Irschenberg","category":"tankstelle","tags":[],"opening_hours":"24/7","operator":"I-Tank Waldschutz GmbH","hours":{"type":"24_7"}},{"id":"fuel_266988034","lat":47.7368939,"lon":11.859825,"name":"BX SB-TANK","city":"","category":"other","tags":[],"opening_hours":"Mo-Fr 07:30-20:00; Sa,Su 09:00-20:00","operator":"Autohaus Feher","hours":{"type":"weekly","weekly":{"0":{"isOpen":true,"periods":[{"open":540,"close":1200}]},"1":{"isOpen":true,"periods":[{"open":450,"close":1200}]},"2":{"isOpen":true,"periods":[{"open":450,"close":1200}]},"3":{"isOpen":true,"periods":[{"open":450,"close":1200}]},"4":{"isOpen":true,"periods":[{"open":450,"close":1200}]},"5":{"isOpen":true,"periods":[{"open":450,"close":1200}]},"6":{"isOpen":true,"periods":[{"open":540,"close":1200}]}},"original":"Mo-Fr 07:30-20:00; Sa,Su 09:00-20:00"}},{"id":"fuel_268703525","lat":47.8319003,"lon":11.1460469,"name":"Esso","city":"","category":"tankstelle","tags":[],"operator":"Esso","opening_hours":"Su 06:00-22:00; Mo 06:00-22:00; Tu 06:00-22:00; We 06:00-22:00; Th 06:00-22:00; Fr 06:00-22:00; Sa 06:00-22:00","gplace_id":"ChIJIbOX5RO1nUcRO1VhUwBUrGs","hours":{"type":"weekly","weekly":{"0":{"isOpen":true,"periods":[{"open":360,"close":1320}]},"1":{"isOpen":true,"periods":[{"open":360,"close":1320}]},"2":{"isOpen":true,"periods":[{"open":360,"close":1320}]},"3":{"isOpen":true,"periods":[{"open":360,"close":1320}]},"4":{"isOpen":true,"periods":[{"open":360,"close":1320}]},"5":{"isOpen":true,"periods":[{"open":360,"close":1320}]},"6":{"isOpen":true,"periods":[{"open":360,"close":1320}]}},"original":"Su 06:00-22:00; Mo 06:00-22:00; Tu 06:00-22:00; We 06:00-22:00; Th 06:00-22:00; Fr 06:00-22:00; Sa 06:00-22:00"}},{"id":"fuel_271970057","lat":47.9677496,"lon":11.3575101,"name":"Esso","city":"Berg","category":"tankstelle","tags":[],"operator":"Esso","opening_hours":"Su 06:00-22:00; Mo 06:00-22:00; Tu 06:00-22:00; We 06:00-22:00; Th 06:00-22:00; Fr 06:00-22:00; Sa 06:00-22:00","gplace_id":"ChIJa8Z0-5DPnUcRDNf5L-iI_WQ","hours":{"type":"weekly","weekly":{"0":{"isOpen":true,"periods":[{"open":360,"close":1320}]},"1":{"isOpen":true,"periods":[{"open":360,"close":1320}]},"2":{"isOpen":true,"periods":[{"open":360,"close":1320}]},"3":{"isOpen":true,"periods":[{"open":360,"close":1320}]},"4":{"isOpen":true,"periods":[{"open":360,"close":1320}]},"5":{"isOpen":true,"periods":[{"open":360,"close":1320}]},"6":{"isOpen":true,"periods":[{"open":360,"close":1320}]}},"original":"Su 06:00-22:00; Mo 06:00-22:00; Tu 06:00-22:00; We 06:00-22:00; Th 06:00-22:00; Fr 06:00-22:00; Sa 06:00-22:00"}},{"id":"fuel_272119260","lat":47.7690436,"lon":11.6795503,"name":"AlpinOil","city":"","category":"other","tags":[],"opening_hours":"Su 07:00-22:00; Mo 06:00-22:00; Tu 06:00-22:00; We 06:00-22:00; Th 06:00-22:00; Fr 06:00-22:00; Sa 07:00-22:00","gplace_id":"ChIJHTWN6fOSnUcRB_Z662mTH_U","hours":{"type":"weekly","weekly":{"0":{"isOpen":true,"periods":[{"open":420,"close":1320}]},"1":{"isOpen":true,"periods":[{"open":360,"close":1320}]},"2":{"isOpen":true,"periods":[{"open":360,"close":1320}]},"3":{"isOpen":true,"periods":[{"open":360,"close":1320}]},"4":{"isOpen":true,"periods":[{"open":360,"close":1320}]},"5":{"isOpen":true,"periods":[{"open":360,"close":1320}]},"6":{"isOpen":true,"periods":[{"open":420,"close":1320}]}},"original":"Su 07:00-22:00; Mo 06:00-22:00; Tu 06:00-22:00; We 06:00-22:00; Th 06:00-22:00; Fr 06:00-22:00; Sa 07:00-22:00"}},{"id":"fuel_272506986","lat":47.9241505,"lon":11.509134,"name":"Tankstelle Huber Egling","city":"","category":"tankstelle","tags":[],"opening_hours":"Mo-Sa 06:45-20:00; PH,Su 08:00-19:30","hours":{"type":"weekly","weekly":{"0":{"isOpen":true,"periods":[{"open":480,"close":1170}]},"1":{"isOpen":true,"periods":[{"open":405,"close":1200}]},"2":{"isOpen":true,"periods":[{"open":405,"close":1200}]},"3":{"isOpen":true,"periods":[{"open":405,"close":1200}]},"4":{"isOpen":true,"periods":[{"open":405,"close":1200}]},"5":{"isOpen":true,"periods":[{"open":405,"close":1200}]},"6":{"isOpen":true,"periods":[{"open":405,"close":1200}]}},"original":"Mo-Sa 06:45-20:00; PH,Su 08:00-19:30"}},{"id":"fuel_281069602","lat":47.9843464,"lon":11.7173817,"name":"Freie Tankstelle Hans Ritz","city":"","category":"tankstelle","tags":[],"opening_hours":"Mo-Fr 6:30-19:30; Sa 08:00-18:00; Su 09:00-12:00","operator":"Hans Ritz GmbH","hours":{"type":"weekly","weekly":{"0":{"isOpen":true,"periods":[{"open":540,"close":720}]},"1":{"isOpen":true,"periods":[{"open":390,"close":1170}]},"2":{"isOpen":true,"periods":[{"open":390,"close":1170}]},"3":{"isOpen":true,"periods":[{"open":390,"close":1170}]},"4":{"isOpen":true,"periods":[{"open":390,"close":1170}]},"5":{"isOpen":true,"periods":[{"open":390,"close":1170}]},"6":{"isOpen":true,"periods":[{"open":480,"close":1080}]}},"original":"Mo-Fr 6:30-19:30; Sa 08:00-18:00; Su 09:00-12:00"}},{"id":"fuel_286673704","lat":47.8429515,"lon":11.1488883,"name":"Kaufland","city":"Weilheim in Oberbayern","category":"other","tags":[],"opening_hours":"Mo-Sa 07:00-20:00","hours":{"type":"weekly","weekly":{"0":{"isOpen":false,"periods":[]},"1":{"isOpen":true,"periods":[{"open":420,"close":1200}]},"2":{"isOpen":true,"periods":[{"open":420,"close":1200}]},"3":{"isOpen":true,"periods":[{"open":420,"close":1200}]},"4":{"isOpen":true,"periods":[{"open":420,"close":1200}]},"5":{"isOpen":true,"periods":[{"open":420,"close":1200}]},"6":{"isOpen":true,"periods":[{"open":420,"close":1200}]}},"original":"Mo-Sa 07:00-20:00"}},{"id":"fuel_290189695","lat":47.9082253,"lon":11.6759848,"name":"Avia","city":"","category":"tankstelle","tags":[],"operator":"Avia","opening_hours":"Su 08:00-18:00; Mo 06:30-20:00; Tu 06:30-20:00; We 06:30-20:00; Th 06:30-20:00; Fr 06:30-20:00; Sa 07:30-18:00","gplace_id":"ChIJfbz5s8junUcR00qH8izEXpU","hours":{"type":"weekly","weekly":{"0":{"isOpen":true,"periods":[{"open":480,"close":1080}]},"1":{"isOpen":true,"periods":[{"open":390,"close":1200}]},"2":{"isOpen":true,"periods":[{"open":390,"close":1200}]},"3":{"isOpen":true,"periods":[{"open":390,"close":1200}]},"4":{"isOpen":true,"periods":[{"open":390,"close":1200}]},"5":{"isOpen":true,"periods":[{"open":390,"close":1200}]},"6":{"isOpen":true,"periods":[{"open":450,"close":1080}]}},"original":"Su 08:00-18:00; Mo 06:30-20:00; Tu 06:30-20:00; We 06:30-20:00; Th 06:30-20:00; Fr 06:30-20:00; Sa 07:30-18:00"}},{"id":"fuel_291247296","lat":47.8820229,"lon":11.9330747,"name":"ESSO","city":"Bruckmühl","category":"tankstelle","tags":[],"opening_hours":"24/7","operator":"Albert Stahuber","hours":{"type":"24_7"}},{"id":"fuel_297477465","lat":47.8763776,"lon":11.4703008,"name":"Freie Tankstelle","city":"Geretsried","category":"tankstelle","tags":[],"opening_hours":"Mo-Su 07:00-22:00","operator":"Schwägerl-Bäde","hours":{"type":"weekly","weekly":{"0":{"isOpen":true,"periods":[{"open":420,"close":1320}]},"1":{"isOpen":true,"periods":[{"open":420,"close":1320}]},"2":{"isOpen":true,"periods":[{"open":420,"close":1320}]},"3":{"isOpen":true,"periods":[{"open":420,"close":1320}]},"4":{"isOpen":true,"periods":[{"open":420,"close":1320}]},"5":{"isOpen":true,"periods":[{"open":420,"close":1320}]},"6":{"isOpen":true,"periods":[{"open":420,"close":1320}]}},"original":"Mo-Su 07:00-22:00"}},{"id":"fuel_300448590","lat":47.8162078,"lon":11.712996,"name":"Eni","city":"","category":"tankstelle","tags":[],"opening_hours":"Mo-Sa 07:00-20:00; Su 08:00-20:00","operator":"Adolf Schwarzer","hours":{"type":"weekly","weekly":{"0":{"isOpen":true,"periods":[{"open":480,"close":1200}]},"1":{"isOpen":true,"periods":[{"open":420,"close":1200}]},"2":{"isOpen":true,"periods":[{"open":420,"close":1200}]},"3":{"isOpen":true,"periods":[{"open":420,"close":1200}]},"4":{"isOpen":true,"periods":[{"open":420,"close":1200}]},"5":{"isOpen":true,"periods":[{"open":420,"close":1200}]},"6":{"isOpen":true,"periods":[{"open":420,"close":1200}]}},"original":"Mo-Sa 07:00-20:00; Su 08:00-20:00"}},{"id":"fuel_302389577","lat":47.9545186,"lon":11.9150836,"name":"Tankstelle Eierstock","city":"Baiern","category":"tankstelle","tags":[],"opening_hours":"24/7","operator":"Michael Eierstock GmbH","hours":{"type":"24_7"}},{"id":"fuel_315090521","lat":47.971748,"lon":11.6643609,"name":"Tankhof Sauerlach","city":"Sauerlach","category":"other","tags":[],"opening_hours":"24/7","hours":{"type":"24_7"}},{"id":"fuel_332700179","lat":47.8025696,"lon":11.0770638,"name":"Esso","city":"Peißenberg","category":"tankstelle","tags":[],"operator":"Esso","opening_hours":"Su 06:00-22:00; Mo 05:00-22:00; Tu 05:00-22:00; We 05:00-22:00; Th 05:00-22:00; Fr 05:00-22:00; Sa 06:00-22:00","gplace_id":"ChIJB7fYZUBLnEcRf7T3JL1P8LU","hours":{"type":"weekly","weekly":{"0":{"isOpen":true,"periods":[{"open":360,"close":1320}]},"1":{"isOpen":true,"periods":[{"open":300,"close":1320}]},"2":{"isOpen":true,"periods":[{"open":300,"close":1320}]},"3":{"isOpen":true,"periods":[{"open":300,"close":1320}]},"4":{"isOpen":true,"periods":[{"open":300,"close":1320}]},"5":{"isOpen":true,"periods":[{"open":300,"close":1320}]},"6":{"isOpen":true,"periods":[{"open":360,"close":1320}]}},"original":"Su 06:00-22:00; Mo 05:00-22:00; Tu 05:00-22:00; We 05:00-22:00; Th 05:00-22:00; Fr 05:00-22:00; Sa 06:00-22:00"}},{"id":"fuel_333786454","lat":47.8718133,"lon":11.7171952,"name":"Shell","city":"Holzkirchen","category":"tankstelle","tags":[],"opening_hours":"Mo-Fr 06:30-20:00; Sa 08:00-17:00","operator":"Timo Dietz","hours":{"type":"weekly","weekly":{"0":{"isOpen":false,"periods":[]},"1":{"isOpen":true,"periods":[{"open":390,"close":1200}]},"2":{"isOpen":true,"periods":[{"open":390,"close":1200}]},"3":{"isOpen":true,"periods":[{"open":390,"close":1200}]},"4":{"isOpen":true,"periods":[{"open":390,"close":1200}]},"5":{"isOpen":true,"periods":[{"open":390,"close":1200}]},"6":{"isOpen":true,"periods":[{"open":480,"close":1020}]}},"original":"Mo-Fr 06:30-20:00; Sa 08:00-17:00"}},{"id":"fuel_347602855","lat":47.6890539,"lon":11.7689206,"name":"HEM","city":"Rottach-Egern","category":"tankstelle","tags":[],"operator":"HEM","opening_hours":"Su 07:00-22:00; Mo 06:00-22:00; Tu 06:00-22:00; We 06:00-22:00; Th 06:00-22:00; Fr 06:00-22:00; Sa 07:00-22:00","gplace_id":"ChIJmZ7mLsaOnUcRznwdsIIoxyI","hours":{"type":"weekly","weekly":{"0":{"isOpen":true,"periods":[{"open":420,"close":1320}]},"1":{"isOpen":true,"periods":[{"open":360,"close":1320}]},"2":{"isOpen":true,"periods":[{"open":360,"close":1320}]},"3":{"isOpen":true,"periods":[{"open":360,"close":1320}]},"4":{"isOpen":true,"periods":[{"open":360,"close":1320}]},"5":{"isOpen":true,"periods":[{"open":360,"close":1320}]},"6":{"isOpen":true,"periods":[{"open":420,"close":1320}]}},"original":"Su 07:00-22:00; Mo 06:00-22:00; Tu 06:00-22:00; We 06:00-22:00; Th 06:00-22:00; Fr 06:00-22:00; Sa 07:00-22:00"}},{"id":"fuel_347602858","lat":47.6892283,"lon":11.767139,"name":"Esso","city":"Rottach-Egern","category":"tankstelle","tags":[],"operator":"Esso","opening_hours":"Su 08:00-22:00; Mo 06:00-22:00; Tu 06:00-22:00; We 06:00-22:00; Th 06:00-22:00; Fr 06:00-22:00; Sa 07:00-22:00","gplace_id":"ChIJuyS7dcaOnUcRiKy-CdEbenE","hours":{"type":"weekly","weekly":{"0":{"isOpen":true,"periods":[{"open":480,"close":1320}]},"1":{"isOpen":true,"periods":[{"open":360,"close":1320}]},"2":{"isOpen":true,"periods":[{"open":360,"close":1320}]},"3":{"isOpen":true,"periods":[{"open":360,"close":1320}]},"4":{"isOpen":true,"periods":[{"open":360,"close":1320}]},"5":{"isOpen":true,"periods":[{"open":360,"close":1320}]},"6":{"isOpen":true,"periods":[{"open":420,"close":1320}]}},"original":"Su 08:00-22:00; Mo 06:00-22:00; Tu 06:00-22:00; We 06:00-22:00; Th 06:00-22:00; Fr 06:00-22:00; Sa 07:00-22:00"}},{"id":"fuel_349195703","lat":47.9578681,"lon":11.1022968,"name":"Aral Tankstelle Hans Sedlmeier","city":"Dießen am Ammersee","category":"tankstelle","tags":[],"opening_hours":"Mo-Fr 06:00-21:00; Sa 06:30-20:00; Su 08:00-20:00","operator":"Hans Sedlmeier","hours":{"type":"weekly","weekly":{"0":{"isOpen":true,"periods":[{"open":480,"close":1200}]},"1":{"isOpen":true,"periods":[{"open":360,"close":1260}]},"2":{"isOpen":true,"periods":[{"open":360,"close":1260}]},"3":{"isOpen":true,"periods":[{"open":360,"close":1260}]},"4":{"isOpen":true,"periods":[{"open":360,"close":1260}]},"5":{"isOpen":true,"periods":[{"open":360,"close":1260}]},"6":{"isOpen":true,"periods":[{"open":390,"close":1200}]}},"original":"Mo-Fr 06:00-21:00; Sa 06:30-20:00; Su 08:00-20:00"}},{"id":"fuel_389021971","lat":47.7030751,"lon":11.8820438,"name":"SB Tankstelle","city":"","category":"tankstelle","tags":[],"opening_hours":"05:00-24:00","operator":"Baumann / Freie Tankstelle","hours":{"type":"weekly","weekly":{"0":{"isOpen":true,"periods":[{"open":300,"close":1440}]},"1":{"isOpen":true,"periods":[{"open":300,"close":1440}]},"2":{"isOpen":true,"periods":[{"open":300,"close":1440}]},"3":{"isOpen":true,"periods":[{"open":300,"close":1440}]},"4":{"isOpen":true,"periods":[{"open":300,"close":1440}]},"5":{"isOpen":true,"periods":[{"open":300,"close":1440}]},"6":{"isOpen":true,"periods":[{"open":300,"close":1440}]}},"original":"05:00-24:00"}},{"id":"fuel_401541506","lat":47.7688055,"lon":11.724761,"name":"Stang Spedition & Logistik","city":"","category":"other","tags":[],"opening_hours":"07:00-22:00","hours":{"type":"weekly","weekly":{"0":{"isOpen":true,"periods":[{"open":420,"close":1320}]},"1":{"isOpen":true,"periods":[{"open":420,"close":1320}]},"2":{"isOpen":true,"periods":[{"open":420,"close":1320}]},"3":{"isOpen":true,"periods":[{"open":420,"close":1320}]},"4":{"isOpen":true,"periods":[{"open":420,"close":1320}]},"5":{"isOpen":true,"periods":[{"open":420,"close":1320}]},"6":{"isOpen":true,"periods":[{"open":420,"close":1320}]}},"original":"07:00-22:00"}},{"id":"fuel_403407880","lat":47.7178362,"lon":11.7189834,"name":"Aral","city":"Bad Wiessee","category":"tankstelle","tags":[],"opening_hours":"Mo-Su 06:00-23:00","operator":"Aral","hours":{"type":"weekly","weekly":{"0":{"isOpen":true,"periods":[{"open":360,"close":1380}]},"1":{"isOpen":true,"periods":[{"open":360,"close":1380}]},"2":{"isOpen":true,"periods":[{"open":360,"close":1380}]},"3":{"isOpen":true,"periods":[{"open":360,"close":1380}]},"4":{"isOpen":true,"periods":[{"open":360,"close":1380}]},"5":{"isOpen":true,"periods":[{"open":360,"close":1380}]},"6":{"isOpen":true,"periods":[{"open":360,"close":1380}]}},"original":"Mo-Su 06:00-23:00"}},{"id":"fuel_428962992","lat":47.9456827,"lon":11.1044169,"name":"Aurohaus Schürer","city":"Dießen am Ammersee","category":"other","tags":[],"opening_hours":"Mo-Fr 08:00-18:30; Sa 09:00-12:30","operator":"Independent","hours":{"type":"weekly","weekly":{"0":{"isOpen":false,"periods":[]},"1":{"isOpen":true,"periods":[{"open":480,"close":1110}]},"2":{"isOpen":true,"periods":[{"open":480,"close":1110}]},"3":{"isOpen":true,"periods":[{"open":480,"close":1110}]},"4":{"isOpen":true,"periods":[{"open":480,"close":1110}]},"5":{"isOpen":true,"periods":[{"open":480,"close":1110}]},"6":{"isOpen":true,"periods":[{"open":540,"close":750}]}},"original":"Mo-Fr 08:00-18:30; Sa 09:00-12:30"}},{"id":"fuel_428962993","lat":47.9408755,"lon":11.105031,"name":"Hirschauer","city":"","category":"other","tags":[],"opening_hours":"Mo-Fr 06:15-19:30; Sa 07:00-17:00; PH off","operator":"Independent","hours":{"type":"weekly","weekly":{"0":{"isOpen":false,"periods":[]},"1":{"isOpen":true,"periods":[{"open":375,"close":1170}]},"2":{"isOpen":true,"periods":[{"open":375,"close":1170}]},"3":{"isOpen":true,"periods":[{"open":375,"close":1170}]},"4":{"isOpen":true,"periods":[{"open":375,"close":1170}]},"5":{"isOpen":true,"periods":[{"open":375,"close":1170}]},"6":{"isOpen":true,"periods":[{"open":420,"close":1020}]}},"original":"Mo-Fr 06:15-19:30; Sa 07:00-17:00; PH off"}},{"id":"fuel_437041179","lat":47.7480383,"lon":11.3843447,"name":"Freie Tankstelle Clemens Maier","city":"","category":"tankstelle","tags":[],"opening_hours":"Mo-Fr 05:45-22:00; Sa 06:30-22:00; Su 07:00-22:00","operator":"Freie Tankstelle","hours":{"type":"weekly","weekly":{"0":{"isOpen":true,"periods":[{"open":420,"close":1320}]},"1":{"isOpen":true,"periods":[{"open":345,"close":1320}]},"2":{"isOpen":true,"periods":[{"open":345,"close":1320}]},"3":{"isOpen":true,"periods":[{"open":345,"close":1320}]},"4":{"isOpen":true,"periods":[{"open":345,"close":1320}]},"5":{"isOpen":true,"periods":[{"open":345,"close":1320}]},"6":{"isOpen":true,"periods":[{"open":390,"close":1320}]}},"original":"Mo-Fr 05:45-22:00; Sa 06:30-22:00; Su 07:00-22:00"}},{"id":"fuel_442869008","lat":47.8263163,"lon":11.2976327,"name":"Jet Seeshaupt","city":"","category":"tankstelle","tags":[],"operator":"Jet","opening_hours":"Su 07:00-22:00; Mo 05:30-22:00; Tu 05:30-22:00; We 05:30-22:00; Th 05:30-22:00; Fr 05:30-22:30; Sa 05:30-22:30","gplace_id":"ChIJN_SS_Ou3nUcRoiSyMm5LJpo","hours":{"type":"weekly","weekly":{"0":{"isOpen":true,"periods":[{"open":420,"close":1320}]},"1":{"isOpen":true,"periods":[{"open":330,"close":1320}]},"2":{"isOpen":true,"periods":[{"open":330,"close":1320}]},"3":{"isOpen":true,"periods":[{"open":330,"close":1320}]},"4":{"isOpen":true,"periods":[{"open":330,"close":1320}]},"5":{"isOpen":true,"periods":[{"open":330,"close":1350}]},"6":{"isOpen":true,"periods":[{"open":330,"close":1350}]}},"original":"Su 07:00-22:00; Mo 05:30-22:00; Tu 05:30-22:00; We 05:30-22:00; Th 05:30-22:00; Fr 05:30-22:30; Sa 05:30-22:30"}},{"id":"fuel_450999800","lat":47.8184153,"lon":11.4828133,"name":"Freie Tankstelle Oliv","city":"","category":"tankstelle","tags":[],"opening_hours":"24/7","hours":{"type":"24_7"}},{"id":"fuel_492002331","lat":47.9544282,"lon":11.4385984,"name":"AVIA","city":"","category":"tankstelle","tags":[],"opening_hours":"6:00-21:00","operator":"Avia","hours":{"type":"weekly","weekly":{"0":{"isOpen":true,"periods":[{"open":360,"close":1260}]},"1":{"isOpen":true,"periods":[{"open":360,"close":1260}]},"2":{"isOpen":true,"periods":[{"open":360,"close":1260}]},"3":{"isOpen":true,"periods":[{"open":360,"close":1260}]},"4":{"isOpen":true,"periods":[{"open":360,"close":1260}]},"5":{"isOpen":true,"periods":[{"open":360,"close":1260}]},"6":{"isOpen":true,"periods":[{"open":360,"close":1260}]}},"original":"6:00-21:00"}},{"id":"fuel_495609424","lat":47.508758,"lon":11.2791005,"name":"SB Tanken","city":"Krün","category":"tankstelle","tags":[],"opening_hours":"Mo-Su 06:00-20:00","operator":"Berta Achner","hours":{"type":"weekly","weekly":{"0":{"isOpen":true,"periods":[{"open":360,"close":1200}]},"1":{"isOpen":true,"periods":[{"open":360,"close":1200}]},"2":{"isOpen":true,"periods":[{"open":360,"close":1200}]},"3":{"isOpen":true,"periods":[{"open":360,"close":1200}]},"4":{"isOpen":true,"periods":[{"open":360,"close":1200}]},"5":{"isOpen":true,"periods":[{"open":360,"close":1200}]},"6":{"isOpen":true,"periods":[{"open":360,"close":1200}]}},"original":"Mo-Su 06:00-20:00"}},{"id":"fuel_627779973","lat":47.7881861,"lon":11.8450472,"name":"Auto Killer GmbH","city":"","category":"other","tags":[],"operator":"Batrox","opening_hours":"Su 09:00-20:00; Mo 07:00-20:00; Tu 07:00-20:00; We 07:00-20:00; Th 07:00-20:00; Fr 07:00-20:00; Sa 08:00-20:00","gplace_id":"ChIJsdj-FCv1nUcROA98UXjRpm8","hours":{"type":"weekly","weekly":{"0":{"isOpen":true,"periods":[{"open":540,"close":1200}]},"1":{"isOpen":true,"periods":[{"open":420,"close":1200}]},"2":{"isOpen":true,"periods":[{"open":420,"close":1200}]},"3":{"isOpen":true,"periods":[{"open":420,"close":1200}]},"4":{"isOpen":true,"periods":[{"open":420,"close":1200}]},"5":{"isOpen":true,"periods":[{"open":420,"close":1200}]},"6":{"isOpen":true,"periods":[{"open":480,"close":1200}]}},"original":"Su 09:00-20:00; Mo 07:00-20:00; Tu 07:00-20:00; We 07:00-20:00; Th 07:00-20:00; Fr 07:00-20:00; Sa 08:00-20:00"}},{"id":"fuel_654183061","lat":47.831776,"lon":11.4787924,"name":"Krenn Tank & Shop","city":"","category":"other","tags":[],"opening_hours":"Mo-Su,PH 06:00-22:00","hours":{"type":"weekly","weekly":{"0":{"isOpen":true,"periods":[{"open":360,"close":1320}]},"1":{"isOpen":true,"periods":[{"open":360,"close":1320}]},"2":{"isOpen":true,"periods":[{"open":360,"close":1320}]},"3":{"isOpen":true,"periods":[{"open":360,"close":1320}]},"4":{"isOpen":true,"periods":[{"open":360,"close":1320}]},"5":{"isOpen":true,"periods":[{"open":360,"close":1320}]},"6":{"isOpen":true,"periods":[{"open":360,"close":1320}]}},"original":"Mo-Su,PH 06:00-22:00"}},{"id":"fuel_732713309","lat":47.8837802,"lon":11.458987,"name":"Tyczka GmbH","city":"Geretsried","category":"other","tags":[],"opening_hours":"Mo-Th 07:30-17:00; Fr 07:30-14:00","operator":"Tyczka GmbH","hours":{"type":"weekly","weekly":{"0":{"isOpen":false,"periods":[]},"1":{"isOpen":true,"periods":[{"open":450,"close":1020}]},"2":{"isOpen":true,"periods":[{"open":450,"close":1020}]},"3":{"isOpen":true,"periods":[{"open":450,"close":1020}]},"4":{"isOpen":true,"periods":[{"open":450,"close":1020}]},"5":{"isOpen":true,"periods":[{"open":450,"close":840}]},"6":{"isOpen":false,"periods":[]}},"original":"Mo-Th 07:30-17:00; Fr 07:30-14:00"}},{"id":"fuel_732714389","lat":47.7883807,"lon":11.0579574,"name":"Autohaus Berghofer","city":"","category":"other","tags":[],"gplace_id":"not_found","hours":{"type":"unknown"}},{"id":"fuel_732715897","lat":47.79633,"lon":11.00408,"name":"Auto Schelle","city":"Hohenpeißenberg","category":"other","tags":[],"opening_hours":"Mo-Fr 07:30-18:00","hours":{"type":"weekly","weekly":{"0":{"isOpen":false,"periods":[]},"1":{"isOpen":true,"periods":[{"open":450,"close":1080}]},"2":{"isOpen":true,"periods":[{"open":450,"close":1080}]},"3":{"isOpen":true,"periods":[{"open":450,"close":1080}]},"4":{"isOpen":true,"periods":[{"open":450,"close":1080}]},"5":{"isOpen":true,"periods":[{"open":450,"close":1080}]},"6":{"isOpen":false,"periods":[]}},"original":"Mo-Fr 07:30-18:00"}},{"id":"fuel_732716975","lat":47.8522176,"lon":11.1433462,"name":"Erdgastankstelle","city":"Weilheim in Oberbayern","category":"other","tags":[],"opening_hours":"24/7","hours":{"type":"24_7"}},{"id":"fuel_732717693","lat":47.904365,"lon":11.4225744,"name":"Erdgastankstelle","city":"Wolfratshausen","category":"other","tags":[],"opening_hours":"24/7","operator":"Energie Südbayern","hours":{"type":"24_7"}},{"id":"fuel_788405778","lat":47.7931147,"lon":11.0630389,"name":"Agip","city":"Peißenberg","category":"tankstelle","tags":[],"operator":"Beate Müller","opening_hours":"Su 06:00-23:00; Mo 05:00-23:00; Tu 05:00-23:00; We 05:00-23:00; Th 05:00-23:00; Fr 05:00-23:00; Sa 06:00-23:00","gplace_id":"ChIJvyx7v2VLnEcRgMxP7dLVbpk","hours":{"type":"weekly","weekly":{"0":{"isOpen":true,"periods":[{"open":360,"close":1380}]},"1":{"isOpen":true,"periods":[{"open":300,"close":1380}]},"2":{"isOpen":true,"periods":[{"open":300,"close":1380}]},"3":{"isOpen":true,"periods":[{"open":300,"close":1380}]},"4":{"isOpen":true,"periods":[{"open":300,"close":1380}]},"5":{"isOpen":true,"periods":[{"open":300,"close":1380}]},"6":{"isOpen":true,"periods":[{"open":360,"close":1380}]}},"original":"Su 06:00-23:00; Mo 05:00-23:00; Tu 05:00-23:00; We 05:00-23:00; Th 05:00-23:00; Fr 05:00-23:00; Sa 06:00-23:00"}},{"id":"fuel_876500932","lat":47.7463716,"lon":11.8443209,"name":"Agip","city":"Hausham","category":"tankstelle","tags":[],"opening_hours":"Mo-Sa 05:00-22:00; Su 06:30-22:00","operator":"Agip","hours":{"type":"weekly","weekly":{"0":{"isOpen":true,"periods":[{"open":390,"close":1320}]},"1":{"isOpen":true,"periods":[{"open":300,"close":1320}]},"2":{"isOpen":true,"periods":[{"open":300,"close":1320}]},"3":{"isOpen":true,"periods":[{"open":300,"close":1320}]},"4":{"isOpen":true,"periods":[{"open":300,"close":1320}]},"5":{"isOpen":true,"periods":[{"open":300,"close":1320}]},"6":{"isOpen":true,"periods":[{"open":300,"close":1320}]}},"original":"Mo-Sa 05:00-22:00; Su 06:30-22:00"}},{"id":"fuel_876500934","lat":47.7601491,"lon":11.8278646,"name":"Agip","city":"Hausham","category":"tankstelle","tags":[],"opening_hours":"Mo-Fr 05:00-23:00; Sa,Su,PH 06:00-23:00","operator":"Nadica Kranjec","hours":{"type":"weekly","weekly":{"0":{"isOpen":true,"periods":[{"open":360,"close":1380}]},"1":{"isOpen":true,"periods":[{"open":300,"close":1380}]},"2":{"isOpen":true,"periods":[{"open":300,"close":1380}]},"3":{"isOpen":true,"periods":[{"open":300,"close":1380}]},"4":{"isOpen":true,"periods":[{"open":300,"close":1380}]},"5":{"isOpen":true,"periods":[{"open":300,"close":1380}]},"6":{"isOpen":true,"periods":[{"open":360,"close":1380}]}},"original":"Mo-Fr 05:00-23:00; Sa,Su,PH 06:00-23:00"}},{"id":"fuel_1069505515","lat":47.9040952,"lon":11.4258346,"name":"Freie Tankstelle","city":"","category":"tankstelle","tags":[],"opening_hours":"Mo-Su,PH 00:00+","operator":"Oliv","hours":{"type":"unknown","original":"Mo-Su,PH 00:00+"}},{"id":"fuel_1079621806","lat":47.7936913,"lon":11.0634156,"name":"Freie Tankstelle","city":"","category":"tankstelle","tags":[],"operator":"Vogl","gplace_id":"ChIJUYvC7WVLnEcRwttaUcfRWx4","hours":{"type":"unknown"}},{"id":"fuel_1201604693","lat":47.7889478,"lon":11.8431381,"name":"Freie Tankstelle","city":"","category":"tankstelle","tags":[],"operator":"BrummiFit","gplace_id":"not_found","hours":{"type":"unknown"}},{"id":"fuel_1270580443","lat":47.9934628,"lon":11.1730312,"name":"OMV","city":"Herrsching am Ammersee","category":"tankstelle","tags":[],"opening_hours":"06:00-22:00","operator":"OMV","hours":{"type":"weekly","weekly":{"0":{"isOpen":true,"periods":[{"open":360,"close":1320}]},"1":{"isOpen":true,"periods":[{"open":360,"close":1320}]},"2":{"isOpen":true,"periods":[{"open":360,"close":1320}]},"3":{"isOpen":true,"periods":[{"open":360,"close":1320}]},"4":{"isOpen":true,"periods":[{"open":360,"close":1320}]},"5":{"isOpen":true,"periods":[{"open":360,"close":1320}]},"6":{"isOpen":true,"periods":[{"open":360,"close":1320}]}},"original":"06:00-22:00"}},{"id":"fuel_1278145770","lat":47.665715,"lon":11.2009738,"name":"MP-21","city":"","category":"other","tags":[],"opening_hours":"Mo-Su 06:00-22:00","operator":"Kern GmbH & Co. Multi Power KG","hours":{"type":"weekly","weekly":{"0":{"isOpen":true,"periods":[{"open":360,"close":1320}]},"1":{"isOpen":true,"periods":[{"open":360,"close":1320}]},"2":{"isOpen":true,"periods":[{"open":360,"close":1320}]},"3":{"isOpen":true,"periods":[{"open":360,"close":1320}]},"4":{"isOpen":true,"periods":[{"open":360,"close":1320}]},"5":{"isOpen":true,"periods":[{"open":360,"close":1320}]},"6":{"isOpen":true,"periods":[{"open":360,"close":1320}]}},"original":"Mo-Su 06:00-22:00"}},{"id":"fuel_1278986343","lat":47.6830933,"lon":11.2036548,"name":"Esso","city":"Murnau am Staffelsee","category":"tankstelle","tags":[],"opening_hours":"Mo-Su 06:00-22:00","operator":"Esso","hours":{"type":"weekly","weekly":{"0":{"isOpen":true,"periods":[{"open":360,"close":1320}]},"1":{"isOpen":true,"periods":[{"open":360,"close":1320}]},"2":{"isOpen":true,"periods":[{"open":360,"close":1320}]},"3":{"isOpen":true,"periods":[{"open":360,"close":1320}]},"4":{"isOpen":true,"periods":[{"open":360,"close":1320}]},"5":{"isOpen":true,"periods":[{"open":360,"close":1320}]},"6":{"isOpen":true,"periods":[{"open":360,"close":1320}]}},"original":"Mo-Su 06:00-22:00"}},{"id":"fuel_1469989672","lat":47.7980949,"lon":11.9730854,"name":"SB-Tank","city":"","category":"other","tags":[],"opening_hours":"24/7","operator":"Independent","hours":{"type":"24_7"}},{"id":"fuel_1746924930","lat":47.9285581,"lon":11.4020664,"name":"Tankstelle Höhenrain West","city":"","category":"tankstelle","tags":[],"opening_hours":"24/7","operator":"OMV","hours":{"type":"24_7"}},{"id":"fuel_1922039281","lat":47.3995085,"lon":11.2660312,"name":"Shell","city":"","category":"tankstelle","tags":[],"operator":"Shell","opening_hours":"Su 00:00+","gplace_id":"ChIJ7dQ5-M4NnUcRSeTAJOFZZW8","hours":{"type":"unknown","original":"Su 00:00+"}},{"id":"fuel_2252435584","lat":47.9261826,"lon":11.4030066,"name":"Tankstelle Höhenrain Ost","city":"","category":"tankstelle","tags":[],"opening_hours":"24/7","operator":"Shell","hours":{"type":"24_7"}},{"id":"fuel_2635258976","lat":47.7693066,"lon":11.1549197,"name":"CU24h Tankstelle Huglfing GbR","city":"","category":"tankstelle","tags":[],"operator":"Independent","opening_hours":"Su 07:00-20:00; Mo 06:00-20:00; Tu 06:00-20:00; We 06:00-20:00; Th 06:00-20:00; Fr 06:00-20:00; Sa 07:00-20:00","gplace_id":"ChIJF3BXH4-znUcReLo4USGjKC4","hours":{"type":"weekly","weekly":{"0":{"isOpen":true,"periods":[{"open":420,"close":1200}]},"1":{"isOpen":true,"periods":[{"open":360,"close":1200}]},"2":{"isOpen":true,"periods":[{"open":360,"close":1200}]},"3":{"isOpen":true,"periods":[{"open":360,"close":1200}]},"4":{"isOpen":true,"periods":[{"open":360,"close":1200}]},"5":{"isOpen":true,"periods":[{"open":360,"close":1200}]},"6":{"isOpen":true,"periods":[{"open":420,"close":1200}]}},"original":"Su 07:00-20:00; Mo 06:00-20:00; Tu 06:00-20:00; We 06:00-20:00; Th 06:00-20:00; Fr 06:00-20:00; Sa 07:00-20:00"}},{"id":"fuel_3062264166","lat":47.5023522,"lon":11.0974267,"name":"Erdgastankstelle","city":"Garmisch-Partenkirchen","category":"other","tags":[],"operator":"Gemeindewerke Garmisch-Partenkirchen","opening_hours":"Su 00:00+","gplace_id":"ChIJ_SLr_tcGnUcRSEtQ6v0sJZg","hours":{"type":"unknown","original":"Su 00:00+"}},{"id":"fuel_3074999706","lat":47.7647284,"lon":11.3617526,"name":"Jet","city":"Penzberg","category":"tankstelle","tags":[],"opening_hours":"Mo-Fr 06:00-22:00; Su 07:00-22:00","operator":"JET","hours":{"type":"weekly","weekly":{"0":{"isOpen":true,"periods":[{"open":420,"close":1320}]},"1":{"isOpen":true,"periods":[{"open":360,"close":1320}]},"2":{"isOpen":true,"periods":[{"open":360,"close":1320}]},"3":{"isOpen":true,"periods":[{"open":360,"close":1320}]},"4":{"isOpen":true,"periods":[{"open":360,"close":1320}]},"5":{"isOpen":true,"periods":[{"open":360,"close":1320}]},"6":{"isOpen":false,"periods":[]}},"original":"Mo-Fr 06:00-22:00; Su 07:00-22:00"}},{"id":"fuel_3351995927","lat":47.9738054,"lon":11.6535062,"name":"Aral","city":"Sauerlach","category":"tankstelle","tags":[],"opening_hours":"Mo-Sa 06:00-22:00; Su 07:00-22:00","operator":"ANTON NIEDERMAIER GMBH","hours":{"type":"weekly","weekly":{"0":{"isOpen":true,"periods":[{"open":420,"close":1320}]},"1":{"isOpen":true,"periods":[{"open":360,"close":1320}]},"2":{"isOpen":true,"periods":[{"open":360,"close":1320}]},"3":{"isOpen":true,"periods":[{"open":360,"close":1320}]},"4":{"isOpen":true,"periods":[{"open":360,"close":1320}]},"5":{"isOpen":true,"periods":[{"open":360,"close":1320}]},"6":{"isOpen":true,"periods":[{"open":360,"close":1320}]}},"original":"Mo-Sa 06:00-22:00; Su 07:00-22:00"}},{"id":"fuel_3830401462","lat":47.8289254,"lon":11.4702567,"name":"Tankstelle","city":"","category":"tankstelle","tags":[],"gplace_id":"not_found","hours":{"type":"unknown"}},{"id":"fuel_4352689100","lat":47.8811025,"lon":11.9172939,"name":"Aral","city":"Bruckmühl","category":"tankstelle","tags":[],"opening_hours":"Mo-Fr 07:30-18:00,Sa 08:00-12:30 open || Mo-Su 06:00-22:00 \"Tankautomat\"","operator":"Franz X. Heinritzi & Söhne GmbH","hours":{"type":"unknown","original":"Mo-Fr 07:30-18:00,Sa 08:00-12:30 open || Mo-Su 06:00-22:00 \"Tankautomat\""}},{"id":"fuel_5478892034","lat":47.5602077,"lon":11.1268313,"name":"AGIP Tankstelle","city":"","category":"tankstelle","tags":[],"opening_hours":"Mo-Su,PH 06:00-22:00","operator":"AGIP","hours":{"type":"weekly","weekly":{"0":{"isOpen":true,"periods":[{"open":360,"close":1320}]},"1":{"isOpen":true,"periods":[{"open":360,"close":1320}]},"2":{"isOpen":true,"periods":[{"open":360,"close":1320}]},"3":{"isOpen":true,"periods":[{"open":360,"close":1320}]},"4":{"isOpen":true,"periods":[{"open":360,"close":1320}]},"5":{"isOpen":true,"periods":[{"open":360,"close":1320}]},"6":{"isOpen":true,"periods":[{"open":360,"close":1320}]}},"original":"Mo-Su,PH 06:00-22:00"}},{"id":"fuel_5888450202","lat":47.6722113,"lon":11.2013581,"name":"Esso","city":"","category":"tankstelle","tags":[],"opening_hours":"PH,Mo-Su 06:00-22:00","operator":"Esso","hours":{"type":"unknown","original":"PH,Mo-Su 06:00-22:00"}},{"id":"fuel_6013285529","lat":47.6849331,"lon":11.1930421,"name":"Deltin","city":"","category":"other","tags":[],"opening_hours":"Su 00:00+","gplace_id":"ChIJn8FLqyWunUcRX9cMXXyv8t8","hours":{"type":"unknown","original":"Su 00:00+"}},{"id":"fuel_6725113790","lat":47.8836654,"lon":11.9271086,"name":"BK","city":"Bruckmühl","category":"other","tags":[],"opening_hours":"24/7","operator":"Heidelinde Kastl","hours":{"type":"24_7"}},{"id":"fuel_8617955881","lat":47.7449292,"lon":11.737901,"name":"Agip","city":"","category":"tankstelle","tags":[],"operator":"Agip","opening_hours":"Su 06:00-23:00; Mo 05:00-23:00; Tu 05:00-23:00; We 05:00-23:00; Th 05:00-23:00; Fr 05:00-23:00; Sa 06:00-23:00","gplace_id":"ChIJZX0YirmNnUcR9gg-biEjVDE","hours":{"type":"weekly","weekly":{"0":{"isOpen":true,"periods":[{"open":360,"close":1380}]},"1":{"isOpen":true,"periods":[{"open":300,"close":1380}]},"2":{"isOpen":true,"periods":[{"open":300,"close":1380}]},"3":{"isOpen":true,"periods":[{"open":300,"close":1380}]},"4":{"isOpen":true,"periods":[{"open":300,"close":1380}]},"5":{"isOpen":true,"periods":[{"open":300,"close":1380}]},"6":{"isOpen":true,"periods":[{"open":360,"close":1380}]}},"original":"Su 06:00-23:00; Mo 05:00-23:00; Tu 05:00-23:00; We 05:00-23:00; Th 05:00-23:00; Fr 05:00-23:00; Sa 06:00-23:00"}},{"id":"fuel_8729044382","lat":47.7477943,"lon":11.5654647,"name":"Total Lenggrieser Str.","city":"","category":"tankstelle","tags":[],"opening_hours":"Mo-Sa 06:00-22:00; PH,Su 07:00-22:00","operator":"TotalEnergies","hours":{"type":"weekly","weekly":{"0":{"isOpen":true,"periods":[{"open":420,"close":1320}]},"1":{"isOpen":true,"periods":[{"open":360,"close":1320}]},"2":{"isOpen":true,"periods":[{"open":360,"close":1320}]},"3":{"isOpen":true,"periods":[{"open":360,"close":1320}]},"4":{"isOpen":true,"periods":[{"open":360,"close":1320}]},"5":{"isOpen":true,"periods":[{"open":360,"close":1320}]},"6":{"isOpen":true,"periods":[{"open":360,"close":1320}]}},"original":"Mo-Sa 06:00-22:00; PH,Su 07:00-22:00"}},{"id":"fuel_8729044401","lat":47.7509303,"lon":11.562309,"name":"Jet","city":"Bad Tölz","category":"tankstelle","tags":[],"opening_hours":"Mo-Fr 06:00-22:00; Sa,Su,PH 07:00-22:00","operator":"JET","hours":{"type":"weekly","weekly":{"0":{"isOpen":true,"periods":[{"open":420,"close":1320}]},"1":{"isOpen":true,"periods":[{"open":360,"close":1320}]},"2":{"isOpen":true,"periods":[{"open":360,"close":1320}]},"3":{"isOpen":true,"periods":[{"open":360,"close":1320}]},"4":{"isOpen":true,"periods":[{"open":360,"close":1320}]},"5":{"isOpen":true,"periods":[{"open":360,"close":1320}]},"6":{"isOpen":true,"periods":[{"open":420,"close":1320}]}},"original":"Mo-Fr 06:00-22:00; Sa,Su,PH 07:00-22:00"}},{"id":"fuel_8729051229","lat":47.7530628,"lon":11.5612097,"name":"Agip","city":"Bad Tölz","category":"tankstelle","tags":[],"opening_hours":"Mo-Fr 05:00-23:00; Sa,Su,PH 06:00-23:00","operator":"Agip","hours":{"type":"weekly","weekly":{"0":{"isOpen":true,"periods":[{"open":360,"close":1380}]},"1":{"isOpen":true,"periods":[{"open":300,"close":1380}]},"2":{"isOpen":true,"periods":[{"open":300,"close":1380}]},"3":{"isOpen":true,"periods":[{"open":300,"close":1380}]},"4":{"isOpen":true,"periods":[{"open":300,"close":1380}]},"5":{"isOpen":true,"periods":[{"open":300,"close":1380}]},"6":{"isOpen":true,"periods":[{"open":360,"close":1380}]}},"original":"Mo-Fr 05:00-23:00; Sa,Su,PH 06:00-23:00"}},{"id":"fuel_8911678331","lat":47.9008527,"lon":11.4282165,"name":"Tankstelle","city":"","category":"tankstelle","tags":[],"opening_hours":"24/7","operator":"BaderMainzl","hours":{"type":"24_7"}},{"id":"fuel_8971679863","lat":47.8759509,"lon":11.9359508,"name":"Tankstelle","city":"","category":"tankstelle","tags":[],"operator":"Hilger Mineralöl GmbH","opening_hours":"Mo 07:00-12:00,13:00-16:30; Tu 07:00-12:00,13:00-16:30; We 07:00-12:00,13:00-16:30; Th 07:00-12:00,13:00-16:30; Fr 07:00-13:00","gplace_id":"ChIJ1f2Femr2nUcRdQ2sZltEIWg","hours":{"type":"weekly","weekly":{"0":{"isOpen":false,"periods":[]},"1":{"isOpen":true,"periods":[{"open":420,"close":720},{"open":780,"close":990}]},"2":{"isOpen":true,"periods":[{"open":420,"close":720},{"open":780,"close":990}]},"3":{"isOpen":true,"periods":[{"open":420,"close":720},{"open":780,"close":990}]},"4":{"isOpen":true,"periods":[{"open":420,"close":720},{"open":780,"close":990}]},"5":{"isOpen":true,"periods":[{"open":420,"close":780}]},"6":{"isOpen":false,"periods":[]}},"original":"Mo 07:00-12:00,13:00-16:30; Tu 07:00-12:00,13:00-16:30; We 07:00-12:00,13:00-16:30; Th 07:00-12:00,13:00-16:30; Fr 07:00-13:00"}},{"id":"fuel_9423980454","lat":47.9136787,"lon":11.4322764,"name":"Aral","city":"Wolfratshausen","category":"tankstelle","tags":[],"opening_hours":"Mo-Su 06:00-24:00","operator":"Johann Klosek e.K.","hours":{"type":"weekly","weekly":{"0":{"isOpen":true,"periods":[{"open":360,"close":1440}]},"1":{"isOpen":true,"periods":[{"open":360,"close":1440}]},"2":{"isOpen":true,"periods":[{"open":360,"close":1440}]},"3":{"isOpen":true,"periods":[{"open":360,"close":1440}]},"4":{"isOpen":true,"periods":[{"open":360,"close":1440}]},"5":{"isOpen":true,"periods":[{"open":360,"close":1440}]},"6":{"isOpen":true,"periods":[{"open":360,"close":1440}]}},"original":"Mo-Su 06:00-24:00"}},{"id":"fuel_12531261643","lat":47.5003883,"lon":11.1014016,"name":"Aral","city":"Garmisch-Partenkirchen","category":"tankstelle","tags":[],"opening_hours":"Mo-Th 06:00-22:00; Fr-Sa 06:00-23:00; Su 06:00-22:00","operator":"Aral","hours":{"type":"weekly","weekly":{"0":{"isOpen":true,"periods":[{"open":360,"close":1320}]},"1":{"isOpen":true,"periods":[{"open":360,"close":1320}]},"2":{"isOpen":true,"periods":[{"open":360,"close":1320}]},"3":{"isOpen":true,"periods":[{"open":360,"close":1320}]},"4":{"isOpen":true,"periods":[{"open":360,"close":1320}]},"5":{"isOpen":true,"periods":[{"open":360,"close":1380}]},"6":{"isOpen":true,"periods":[{"open":360,"close":1380}]}},"original":"Mo-Th 06:00-22:00; Fr-Sa 06:00-23:00; Su 06:00-22:00"}},{"id":"fuel_12585396098","lat":47.5187645,"lon":11.2895643,"name":"Raiffeisen","city":"","category":"tankstelle","tags":[],"opening_hours":"Su 00:00+","gplace_id":"ChIJaeQDDfwJnUcRwXgfJ7SWwgE","hours":{"type":"unknown","original":"Su 00:00+"}},{"id":"autobahn_DE-BY-000321","lat":47.997233999965985,"lon":11.677325000012724,"name":"Brunnthal O (A8)","city":"","category":"public_24h","tags":["autobahn","a8","toilette"],"opening_hours":"24/7","operator":"Autobahn GmbH","hours":{"type":"24_7"}},{"id":"autobahn_DE-BY-000322","lat":47.9977149999661,"lon":11.675688000012688,"name":"Hofoldinger Forst W (A8)","city":"","category":"public_24h","tags":["autobahn","a8","toilette","raststätte","sanifair","barrierefrei","kostenpflichtig"],"operator":"Tank & Rast","fee":"yes","hours":{"type":"unknown"}},{"id":"autobahn_DE-BY-000320","lat":47.952385999964626,"lon":11.694928000013183,"name":"Aying O (A8)","city":"","category":"other","tags":["autobahn","a8"],"operator":"Autobahn GmbH","hours":{"type":"unknown"}},{"id":"autobahn_DE-BY-000319","lat":47.94217699996424,"lon":11.700145000013315,"name":"Otterfing W (A8)","city":"","category":"other","tags":["autobahn","a8"],"operator":"Autobahn GmbH","hours":{"type":"unknown"}},{"id":"autobahn_DE-BY-000317","lat":47.89266899996181,"lon":11.73039700001409,"name":"Holzkirchen N (A8)","city":"","category":"tankstelle","tags":["autobahn","a8","toilette","tankstelle","raststätte","dusche"],"operator":"Tank & Rast","hours":{"type":"unknown"}},{"id":"autobahn_DE-BY-000318","lat":47.90579099996286,"lon":11.717632000013772,"name":"Holzkirchen S (A8)","city":"","category":"tankstelle","tags":["autobahn","a8","toilette","tankstelle","raststätte","dusche"],"operator":"Tank & Rast","hours":{"type":"unknown"}},{"id":"autobahn_DE-BY-000316","lat":47.85750899994995,"lon":11.85672700001731,"name":"Seehamer See - Ost O (A8)","city":"","category":"public_24h","tags":["autobahn","a8","toilette"],"opening_hours":"24/7","operator":"Autobahn GmbH","hours":{"type":"24_7"}},{"id":"autobahn_DE-BY-000315","lat":47.84663599994896,"lon":11.866237000017593,"name":"Seehamer See - West W (A8)","city":"","category":"public_24h","tags":["autobahn","a8","toilette"],"opening_hours":"24/7","operator":"Autobahn GmbH","hours":{"type":"24_7"}},{"id":"autobahn_DE-BY-000314","lat":47.8293069999446,"lon":11.905881000018717,"name":"Irschenberg S (A8)","city":"","category":"tankstelle","tags":["autobahn","a8","toilette","tankstelle","raststätte","dusche","sanifair","barrierefrei","kostenpflichtig"],"operator":"Tank & Rast","opening_hours":"Mo-Su,PH 00:00+","fee":"yes","hours":{"type":"unknown","original":"Mo-Su,PH 00:00+"}},{"id":"autobahn_DE-BY-000313","lat":47.825615999942976,"lon":11.919934000019113,"name":"Wilparting Süd (A8)","city":"","category":"other","tags":["autobahn","a8"],"operator":"Autobahn GmbH","hours":{"type":"unknown"}},{"id":"autobahn_DE-BY-000311","lat":47.82193999993326,"lon":11.997803000021369,"name":"Im Moos N (A8)","city":"","category":"public_24h","tags":["autobahn","a8","toilette"],"opening_hours":"24/7","operator":"Autobahn GmbH","hours":{"type":"24_7"}},{"id":"autobahn_DE-BY-000312","lat":47.821415999935645,"lon":11.979608000020836,"name":"Eulenauer Filz S (A8)","city":"","category":"public_24h","tags":["autobahn","a8","toilette"],"opening_hours":"24/7","operator":"Autobahn GmbH","hours":{"type":"24_7"}},{"id":"autobahn_DE-BY-000455","lat":47.65902399998848,"lon":11.237516000005593,"name":"Mühlweiher RA A95 km 58,9 W (A95)","city":"","category":"public_24h","tags":["autobahn","a95","toilette"],"opening_hours":"24/7","operator":"Autobahn GmbH","hours":{"type":"24_7"}},{"id":"autobahn_DE-BY-000453","lat":47.71512599998538,"lon":11.327418000006748,"name":"RA A95 km 49,2 W (A95)","city":"","category":"other","tags":["autobahn","a95"],"operator":"Autobahn GmbH","hours":{"type":"unknown"}},{"id":"autobahn_DE-BY-000454","lat":47.709406999985355,"lon":11.328306000006766,"name":"RA A95 km 50,2 O (A95)","city":"","category":"other","tags":["autobahn","a95"],"operator":"Autobahn GmbH","hours":{"type":"unknown"}},{"id":"autobahn_DE-BY-000451","lat":47.85143899998318,"lon":11.38145600000744,"name":"RA A95 km 32,9 W (A95)","city":"","category":"other","tags":["autobahn","a95"],"operator":"Autobahn GmbH","hours":{"type":"unknown"}},{"id":"autobahn_DE-BY-000449","lat":47.927961999982266,"lon":11.401948000007694,"name":"Höhenrain W (A95)","city":"","category":"tankstelle","tags":["autobahn","a95","toilette","tankstelle","raststätte","dusche"],"operator":"Tank & Rast","hours":{"type":"unknown"}},{"id":"autobahn_DE-BY-000450","lat":47.927017999982205,"lon":11.403185000007712,"name":"Höhenrain O (A95)","city":"","category":"tankstelle","tags":["autobahn","a95","toilette","tankstelle","raststätte","dusche"],"operator":"Tank & Rast","hours":{"type":"unknown"}},{"id":"station_node_13796821","lat":47.9502678,"lon":11.1080486,"name":"Dießen","city":"","category":"station","tags":["bahnhof","barrierefrei"],"operator":"DB InfraGO AG","hours":{"type":"unknown"}},{"id":"station_node_13925786","lat":47.4399924,"lon":11.265749,"name":"Mittenwald","city":"","category":"station","tags":["bahnhof","barrierefrei"],"operator":"DB InfraGO AG","hours":{"type":"unknown"}},{"id":"station_node_275808921","lat":47.2710566,"lon":11.3954553,"name":"Altstadt","city":"","category":"station","tags":["bahnhof","barrierefrei","haltepunkt"],"operator":"Innsbrucker Verkehrsbetriebe","hours":{"type":"unknown"}},{"id":"station_node_337863237","lat":47.2632966,"lon":11.4010207,"name":"Innsbruck Hauptbahnhof","city":"","category":"station","tags":["bahnhof","barrierefrei"],"operator":"ÖBB-Infrastruktur AG","hours":{"type":"unknown"}},{"id":"station_node_3732295325","lat":47.9618619,"lon":11.3063646,"name":"Possenhofen","city":"","category":"station","tags":["bahnhof","barrierefrei","haltepunkt"],"operator":"DB InfraGO AG","hours":{"type":"unknown"}},{"id":"sanifair_node_5908845441","lat":47.9068313,"lon":11.7173721,"name":"Sanifair WC","city":"","category":"station","tags":["sanifair","kostenpflichtig"],"operator":"SANIFAIR GmbH","fee":"yes","hours":{"type":"unknown"}},{"id":"gplace_ChIJ8aKaXMJrnUcRJMhiHVp3uoU","lat":47.255659,"lon":11.380284999999999,"name":"Glorious Bastards Innsbruck","city":"Innsbruck","category":"gastro","tags":["barrierefrei","google_entrance_accessible"],"hours":{"type":"unknown"}},{"id":"gplace_ChIJz_YhX-prnUcRnZFMHMrCeyE","lat":47.2582306,"lon":11.376164099999999,"name":"Happy Fitness - 24 Stunden geöffnet","city":"Innsbruck","category":"other","tags":["google_has_restroom"],"hours":{"type":"unknown"}},{"id":"gplace_ChIJlY5Yjc5rnUcR6_PvUQVTpxI","lat":47.243331,"lon":11.3754703,"name":"Wirtshaus Nattererboden","city":"Innsbruck","category":"gastro","tags":["barrierefrei","google_wc_accessible"],"hours":{"type":"unknown"}},{"id":"gplace_ChIJ_c5YG-prnUcRVYBaBFgoOLE","lat":47.257269,"lon":11.3782093,"name":"OMV","city":"Innsbruck","category":"gastro","tags":["barrierefrei","google_wc_accessible"],"hours":{"type":"unknown"}},{"id":"gplace_ChIJLyXpNpVrnUcRHT2DYO7MoJU","lat":47.2585785,"lon":11.372141,"name":"Gas station eni service station","city":"Innsbruck","category":"tankstelle","tags":["barrierefrei","google_wc_accessible"],"hours":{"type":"unknown"}},{"id":"gplace_ChIJhz3f-sFrnUcROEJohpve_AU","lat":47.2561013,"lon":11.3774397,"name":"Alfa Sports & Spa","city":"Innsbruck","category":"other","tags":["barrierefrei","google_wc_accessible"],"hours":{"type":"unknown"}},{"id":"gplace_ChIJDfSKqL9rnUcRBgmFKEwhh8M","lat":47.2552495,"lon":11.368759599999999,"name":"Ristorante Pizzeria da Enzo e Marion Mediterane Küche in Innsbruck-Stadt, Flughafennähe","city":"Innsbruck","category":"gastro","tags":["barrierefrei","google_entrance_accessible"],"hours":{"type":"unknown"}},{"id":"gplace_ChIJhyOEUZVrnUcRKRkNSqdif8k","lat":47.258096900000005,"lon":11.371370599999999,"name":"Kantine Mitterweg","city":"Innsbruck","category":"gastro","tags":["barrierefrei","google_wc_accessible"],"hours":{"type":"unknown"}},{"id":"gplace_ChIJx7MA4alrnUcR-FOdmckP_YM","lat":47.251545,"lon":11.3712387,"name":"Restaurant Romanesc Innsbruck","city":"Innsbruck","category":"gastro","tags":["barrierefrei","google_wc_accessible"],"hours":{"type":"unknown"}},{"id":"gplace_ChIJN3GMB-prnUcRbG-3PNhXR8E","lat":47.2566487,"lon":11.3772559,"name":"Bar/Cafe Karwendelbogen 33","city":"Innsbruck","category":"gastro","tags":["google_has_restroom"],"hours":{"type":"unknown"}},{"id":"gplace_ChIJVf8Hyr1rnUcRA0sz-IwZCu8","lat":47.2558704,"lon":11.3634385,"name":"Cafe Innbeisl","city":"Innsbruck","category":"gastro","tags":["google_has_restroom"],"hours":{"type":"unknown"}},{"id":"gplace_ChIJMy5B68prnUcRLqkHt8QmFL4","lat":47.2398697,"lon":11.3663859,"name":"Krankenhauscafe","city":"Innsbruck","category":"gastro","tags":["barrierefrei","google_entrance_accessible"],"hours":{"type":"unknown"}},{"id":"gplace_ChIJ-yww3pJrnUcRCmKjaxJ3AV8","lat":47.264398799999995,"lon":11.374053499999999,"name":"Shopping Center West","city":"Innsbruck","category":"other","tags":["barrierefrei","google_wc_accessible"],"hours":{"type":"unknown"}},{"id":"gplace_ChIJV90DyutrnUcRdUEy1r05Alw","lat":47.259376,"lon":11.3778977,"name":"McDonald's Innsbruck","city":"Innsbruck","category":"gastro","tags":["barrierefrei","google_wc_accessible"],"hours":{"type":"unknown"}},{"id":"gplace_ChIJ1eJGuc1rnUcRcBhqjjlXZCg","lat":47.2646933,"lon":11.3746297,"name":"FITINN","city":"Innsbruck","category":"other","tags":["barrierefrei","google_entrance_accessible"],"hours":{"type":"unknown"}},{"id":"gplace_ChIJhRsBe6JrnUcR-be-3osOvw4","lat":47.261083,"lon":11.3712739,"name":"Burkia Innsbruck","city":"Innsbruck","category":"gastro","tags":["barrierefrei","google_wc_accessible"],"hours":{"type":"unknown"}},{"id":"gplace_ChIJuZgdIJRrnUcRqkiHJ6fNXI4","lat":47.261732699999996,"lon":11.3674439,"name":"Café Namsa","city":"Innsbruck","category":"gastro","tags":["barrierefrei","google_wc_accessible"],"hours":{"type":"unknown"}},{"id":"gplace_ChIJ7wyxsjlrnUcRg7bRZP9eEck","lat":47.2655453,"lon":11.3824428,"name":"Meow Pizzeria Verde","city":"Innsbruck","category":"gastro","tags":["barrierefrei","google_entrance_accessible"],"hours":{"type":"unknown"}},{"id":"gplace_ChIJ24T82-5rnUcRqlljOMjId_A","lat":47.261865,"lon":11.3830572,"name":"Zappa Music Bar","city":"Innsbruck","category":"gastro","tags":["google_has_restroom"],"hours":{"type":"unknown"}},{"id":"gplace_ChIJsYqpBetrnUcRsmJvEmOvoTA","lat":47.259767499999995,"lon":11.3760715,"name":"Body & Soul Health Center West","city":"Innsbruck","category":"other","tags":["barrierefrei","google_wc_accessible"],"hours":{"type":"unknown"}},{"id":"gplace_ChIJZaVSe35rnUcRwgP5c6hXMAA","lat":47.2702384,"lon":11.3595112,"name":"Berchtoldshof","city":"Innsbruck","category":"gastro","tags":["barrierefrei","google_wc_accessible"],"hours":{"type":"unknown"}},{"id":"gplace_ChIJV0sEG5FrnUcRhQchufhOHkc","lat":47.264441399999995,"lon":11.3658429,"name":"bp","city":"Innsbruck","category":"gastro","tags":["barrierefrei","google_wc_accessible"],"hours":{"type":"unknown"}},{"id":"gplace_ChIJyV61KpJrnUcR-YGIAZWFCus","lat":47.264869999999995,"lon":11.369036,"name":"Shell","city":"Innsbruck","category":"gastro","tags":["barrierefrei","google_wc_accessible"],"hours":{"type":"unknown"}},{"id":"gplace_ChIJCejKevRrnUcRfndiK-vpJ6o","lat":47.271775399999996,"lon":11.3818222,"name":"Burenwirt","city":"Innsbruck","category":"gastro","tags":["google_has_restroom"],"hours":{"type":"unknown"}},{"id":"gplace_ChIJl2pj-YprnUcRIFvQJ1WTJhc","lat":47.2745305,"lon":11.376147,"name":"Gasthaus Planötzenhof Andreas Heis","city":"Innsbruck","category":"gastro","tags":["barrierefrei","google_entrance_accessible"],"hours":{"type":"unknown"}},{"id":"gplace_ChIJryRW641rnUcRBCbtwWqvJW4","lat":47.2681888,"lon":11.371525799999999,"name":"Kaffeehaus zum Grossen Gott","city":"Innsbruck","category":"gastro","tags":["barrierefrei","google_entrance_accessible"],"hours":{"type":"unknown"}},{"id":"gplace_ChIJ7_xBMI1rnUcRjXy5qaELR3o","lat":47.268471299999995,"lon":11.3758482,"name":"Ristorante-Pizzeria da Giovanni","city":"Innsbruck","category":"gastro","tags":["barrierefrei","google_entrance_accessible"],"hours":{"type":"unknown"}},{"id":"gplace_ChIJYXPioGNrnUcRQFgENAuAPgE","lat":47.267365299999994,"lon":11.3619484,"name":"gschpür di - yoga","city":"Innsbruck","category":"other","tags":["barrierefrei","google_wc_accessible"],"hours":{"type":"unknown"}},{"id":"gplace_ChIJHQVKDWFpnUcRV5-3tg_L6bM","lat":47.241369,"lon":11.389742,"name":"Shell","city":"Innsbruck","category":"gastro","tags":["barrierefrei","google_wc_accessible"],"hours":{"type":"unknown"}},{"id":"gplace_ChIJSS6-b-drnUcRPFYqpaZUO68","lat":47.25633,"lon":11.388689999999999,"name":"OMV","city":"Innsbruck","category":"gastro","tags":["barrierefrei","google_wc_accessible"],"hours":{"type":"unknown"}},{"id":"gplace_ChIJF3wQXKtrnUcRi9H_BVGKMb4","lat":47.256451299999995,"lon":11.392085900000001,"name":"HOFER","city":"Innsbruck","category":"other","tags":["barrierefrei","google_wc_accessible"],"hours":{"type":"unknown"}},{"id":"gplace_ChIJWbCKjcJrnUcRJtVtTgqQGZk","lat":47.255245099999996,"lon":11.381556699999999,"name":"B-West Innsbruck","city":"Innsbruck","category":"gastro","tags":["barrierefrei","google_entrance_accessible"],"hours":{"type":"unknown"}},{"id":"gplace_ChIJrbZx9qxrnUcRSMyM63nKaWI","lat":47.2574532,"lon":11.3920382,"name":"Ariana Afghanisches Restaurant","city":"Innsbruck","category":"gastro","tags":["barrierefrei","google_entrance_accessible"],"hours":{"type":"unknown"}},{"id":"gplace_ChIJDfAsMOdrnUcRPZuctJOck5U","lat":47.2571558,"lon":11.390638599999999,"name":"Crazy Bikez - Bike Rental","city":"Innsbruck","category":"gastro","tags":["barrierefrei","google_entrance_accessible"],"hours":{"type":"unknown"}},{"id":"gplace_ChIJQVVAS-ZrnUcRSJjPxLs83Kc","lat":47.2581591,"lon":11.3870962,"name":"TAJ Indische Restaurant,Cafe,Pizzeria Muskete","city":"Innsbruck","category":"gastro","tags":["google_has_restroom"],"hours":{"type":"unknown"}},{"id":"gplace_ChIJ2XpJbONrnUcRHL1R3OpyxQs","lat":47.2654487,"lon":11.3949868,"name":"Kaufhaus Tyrol","city":"Innsbruck","category":"other","tags":["barrierefrei","google_wc_accessible"],"hours":{"type":"unknown"}},{"id":"gplace_ChIJ_ZImk_trnUcRAT8PKiolP7A","lat":47.2684432,"lon":11.394734699999999,"name":"Stiftskeller","city":"Innsbruck","category":"gastro","tags":["barrierefrei","google_wc_accessible"],"hours":{"type":"unknown"}},{"id":"gplace_ChIJB3NBPNVrnUcRM_GHAYoag5A","lat":47.2613736,"lon":11.3952802,"name":"karaffu | coffee culture","city":"Innsbruck","category":"gastro","tags":["google_has_restroom"],"hours":{"type":"unknown"}},{"id":"gplace_ChIJR7fiF-VrnUcRs7f3f9238hE","lat":47.2640506,"lon":11.389636999999999,"name":"Machete - Burrito Kartell","city":"Innsbruck","category":"gastro","tags":["google_has_restroom"],"hours":{"type":"unknown"}},{"id":"gplace_ChIJP9wuW_trnUcRFIwuTahX6qg","lat":47.265483800000005,"lon":11.39275,"name":"RathausGalerien","city":"Innsbruck","category":"gastro","tags":["barrierefrei","google_wc_accessible"],"hours":{"type":"unknown"}},{"id":"gplace_ChIJjafhjvprnUcRmGWIMyEAFco","lat":47.2672234,"lon":11.389636999999999,"name":"Markthalle Innsbruck","city":"Innsbruck","category":"gastro","tags":["barrierefrei","google_wc_accessible"],"hours":{"type":"unknown"}},{"id":"gplace_ChIJ20xfS_prnUcRwnYkC6AuHlo","lat":47.268440899999995,"lon":11.3924681,"name":"Restaurant Goldener Adler Innsbruck","city":"Innsbruck","category":"gastro","tags":["barrierefrei","google_wc_accessible","google_has_restroom"],"hours":{"type":"unknown"}},{"id":"gplace_ChIJLfbixvxrnUcRKHQRMBYhmOA","lat":47.2654429,"lon":11.396236199999999,"name":"L'Osteria Innsbruck","city":"Innsbruck","category":"gastro","tags":["barrierefrei","google_wc_accessible"],"hours":{"type":"unknown"}},{"id":"gplace_ChIJK9sUdfprnUcRiB0oO8elauU","lat":47.2689409,"lon":11.389647199999999,"name":"Montagu Bed & Beers","city":"Innsbruck","category":"gastro","tags":["google_has_restroom"],"hours":{"type":"unknown"}},{"id":"gplace_ChIJE-VGn_trnUcROH-w2Zhs-dA","lat":47.2675808,"lon":11.3936953,"name":"McDonald's","city":"Innsbruck","category":"gastro","tags":["barrierefrei","google_entrance_accessible"],"hours":{"type":"unknown"}},{"id":"gplace_ChIJlWFpQ_trnUcRsFMRSRm-JSg","lat":47.2659525,"lon":11.3938198,"name":"Hard Rock Cafe Innsbruck","city":"Innsbruck","category":"gastro","tags":["barrierefrei","google_wc_accessible"],"hours":{"type":"unknown"}},{"id":"gplace_ChIJU67VzftrnUcR9jV9ptF7Qvc","lat":47.269181499999995,"lon":11.3929394,"name":"Cafe Bar Moustache","city":"Innsbruck","category":"gastro","tags":["barrierefrei","google_entrance_accessible","google_has_restroom"],"hours":{"type":"unknown"}},{"id":"gplace_ChIJjwMo7flrnUcR82WqkjWnfFA","lat":47.2711652,"lon":11.3920803,"name":"haepinest","city":"Innsbruck","category":"gastro","tags":["barrierefrei","google_entrance_accessible","google_wc_accessible"],"hours":{"type":"unknown"}},{"id":"gplace_ChIJ9RButfFrnUcRmk7zqRmTVtk","lat":47.2677778,"lon":11.3875,"name":"Der Bäcker Ruetz - Mariahilfpark","city":"Innsbruck","category":"gastro","tags":["barrierefrei","google_wc_accessible"],"hours":{"type":"unknown"}},{"id":"gplace_ChIJ__wmXLJrnUcRHyG0oRiRTlg","lat":47.267863399999996,"lon":11.3909445,"name":"Glorious Butcher Innsbruck","city":"Innsbruck","category":"gastro","tags":["barrierefrei","google_entrance_accessible"],"hours":{"type":"unknown"}},{"id":"gplace_ChIJ-5OMuPlrnUcR-DQPNXz2lIw","lat":47.271674399999995,"lon":11.3923414,"name":"New INDIA Restaurant","city":"Innsbruck","category":"gastro","tags":["barrierefrei","google_entrance_accessible"],"hours":{"type":"unknown"}},{"id":"gplace_ChIJMwoy4PFrnUcR0Y88fluInFM","lat":47.2660185,"lon":11.383331499999999,"name":"Cafe/Bar Wohnzimmer","city":"Innsbruck","category":"gastro","tags":["barrierefrei","google_wc_accessible"],"hours":{"type":"unknown"}},{"id":"gplace_ChIJ79_PSPBrnUcR7kyyfKLMvBI","lat":47.2672083,"lon":11.3858379,"name":"Japan-Asia-Restaurant \"Fuji\"","city":"Innsbruck","category":"gastro","tags":["google_has_restroom"],"hours":{"type":"unknown"}},{"id":"gplace_ChIJI_qgAl5rnUcRqSGTNilorw8","lat":47.2293628,"lon":11.386231299999999,"name":"Kostbar Mutters","city":"Innsbruck","category":"gastro","tags":["barrierefrei","google_entrance_accessible"],"hours":{"type":"unknown"}},{"id":"gplace_ChIJvShU11FpnUcRjatdcND9BYo","lat":47.226094599999996,"lon":11.3912785,"name":"UFO Restaurant (ehem. Boxenstopp Zenzenhof)","city":"Innsbruck","category":"gastro","tags":["barrierefrei","google_wc_accessible"],"hours":{"type":"unknown"}},{"id":"gplace_ChIJTcq15rRrnUcRlQBzqNyVRc0","lat":47.2335259,"lon":11.4016574,"name":"Holistic & Hormon Yoga","city":"Innsbruck","category":"other","tags":["google_has_restroom"],"hours":{"type":"unknown"}},{"id":"gplace_ChIJ1yXg12BpnUcR9zSZdftmGAA","lat":47.251836499999996,"lon":11.401140500000002,"name":"Bierstindl","city":"Innsbruck","category":"gastro","tags":["barrierefrei","google_wc_accessible"],"hours":{"type":"unknown"}},{"id":"gplace_ChIJJ7vpcLdrnUcR4uIW-f4CZx4","lat":47.2595319,"lon":11.3969458,"name":"Le Murge","city":"Innsbruck","category":"gastro","tags":["barrierefrei","google_entrance_accessible"],"hours":{"type":"unknown"}},{"id":"gplace_ChIJQcNXqslrnUcROtM2bM2BRLw","lat":47.260217,"lon":11.3956272,"name":"Wilten Brunch&Bar","city":"Innsbruck","category":"gastro","tags":["barrierefrei","google_entrance_accessible","google_has_restroom"],"hours":{"type":"unknown"}},{"id":"gplace_ChIJWQQrYjtpnUcRfjKY1GLq6Ds","lat":47.259182100000004,"lon":11.3993817,"name":"Restaurant Safran ( Halal/ حلال )","city":"Innsbruck","category":"gastro","tags":["google_has_restroom"],"hours":{"type":"unknown"}},{"id":"gplace_ChIJD9vsC2dpnUcREtlbtHtsspc","lat":47.252497399999996,"lon":11.405123399999999,"name":"Gasthaus Bretterkeller","city":"Innsbruck","category":"gastro","tags":["google_has_restroom"],"hours":{"type":"unknown"}},{"id":"gplace_ChIJPZrAkuFrnUcRIdH7vQN3W0E","lat":47.2590394,"lon":11.396749699999999,"name":"Restaurant Olive Wiltener Platz`l","city":"Innsbruck","category":"gastro","tags":["barrierefrei","google_entrance_accessible"],"hours":{"type":"unknown"}},{"id":"gplace_ChIJGe-n7l9pnUcRB4CWrMuK5vI","lat":47.2555341,"lon":11.398100999999999,"name":"Eni","city":"Innsbruck","category":"tankstelle","tags":["barrierefrei","google_wc_accessible"],"hours":{"type":"unknown"}},{"id":"gplace_ChIJN8_r4mNpnUcRiDXod_7OJ1U","lat":47.2468094,"lon":11.399769,"name":"Bergisel Sky","city":"Innsbruck","category":"gastro","tags":["barrierefrei","google_wc_accessible"],"hours":{"type":"unknown"}},{"id":"gplace_ChIJ7YL3KmZrnUcRz_VtaSKlrdY","lat":47.257478299999995,"lon":11.3929382,"name":"SCHMECKERIA","city":"Innsbruck","category":"gastro","tags":["google_has_restroom"],"hours":{"type":"unknown"}},{"id":"gplace_ChIJW3Vb7OZrnUcR8ybkjpdgs3k","lat":47.2589573,"lon":11.3897883,"name":"Happy Wok","city":"Innsbruck","category":"gastro","tags":["google_has_restroom"],"hours":{"type":"unknown"}},{"id":"gplace_ChIJyaRSeWBpnUcRdeqq3a9mL0s","lat":47.254198900000006,"lon":11.3991469,"name":"ENI-GUTMANN Tankstelle","city":"Innsbruck","category":"gastro","tags":["barrierefrei","google_wc_accessible"],"hours":{"type":"unknown"}},{"id":"gplace_ChIJMScB0TdrnUcRDQwwFoq6g-M","lat":47.258589099999995,"lon":11.3939159,"name":"Heublume Wilten","city":"Innsbruck","category":"gastro","tags":["barrierefrei","google_entrance_accessible"],"hours":{"type":"unknown"}},{"id":"gplace_ChIJaxHJrVdpnUcRmz1dmNO_mrY","lat":47.2661818,"lon":11.404139899999999,"name":"Sillpark","city":"Innsbruck","category":"other","tags":["barrierefrei","google_wc_accessible"],"hours":{"type":"unknown"}},{"id":"gplace_ChIJN-P_ZPxrnUcRj33aM4Lr5_s","lat":47.2675945,"lon":11.3964146,"name":"Treibhaus","city":"Innsbruck","category":"gastro","tags":["barrierefrei","google_wc_accessible"],"hours":{"type":"unknown"}},{"id":"gplace_ChIJ-4on9fxrnUcRxK973SlbXeM","lat":47.266968999999996,"lon":11.396803,"name":"HOFER","city":"Innsbruck","category":"other","tags":["barrierefrei","google_wc_accessible"],"hours":{"type":"unknown"}},{"id":"gplace_ChIJQzIrrPtrnUcRR0fdIqDJzlI","lat":47.267947,"lon":11.392728,"name":"die Wilderin","city":"Innsbruck","category":"gastro","tags":["barrierefrei","google_wc_accessible"],"hours":{"type":"unknown"}},{"id":"gplace_ChIJ5Tl8lfxrnUcRl5chm6TY6KI","lat":47.2659105,"lon":11.396172,"name":"Café Central","city":"Innsbruck","category":"gastro","tags":["barrierefrei","google_wc_accessible"],"hours":{"type":"unknown"}},{"id":"gplace_ChIJwTxPGyNsnUcRv9uqjWkAkO0","lat":47.296569399999996,"lon":11.4031633,"name":"Arzler Alm Innsbruck 1067m","city":"Innsbruck","category":"gastro","tags":["barrierefrei","google_entrance_accessible"],"hours":{"type":"unknown"}},{"id":"gplace_ChIJif1773JtnUcRjzXeJYZcfvc","lat":47.286131499999996,"lon":11.3990192,"name":"hungerburg - CAFE • BAR • RESTAURANT","city":"Innsbruck","category":"gastro","tags":["google_has_restroom"],"hours":{"type":"unknown"}},{"id":"gplace_ChIJVy8ngadunUcREKDXmMR-MRA","lat":47.2853607,"lon":11.4091889,"name":"Familie Müssigang in Mühlau","city":"Innsbruck","category":"gastro","tags":["barrierefrei","google_entrance_accessible"],"hours":{"type":"unknown"}},{"id":"gplace_ChIJtU4dUgRsnUcRR2FM0jwQKmU","lat":47.281210400000006,"lon":11.3981029,"name":"ANIMAHL - Das Bistro im Zoo","city":"Innsbruck","category":"gastro","tags":["google_has_restroom"],"hours":{"type":"unknown"}},{"id":"gplace_ChIJpfI7XkRpnUcRwSoq__Bugaw","lat":47.2590174,"lon":11.414606,"name":"Frankys Imbiss","city":"Innsbruck","category":"gastro","tags":["barrierefrei","google_wc_accessible"],"hours":{"type":"unknown"}},{"id":"gplace_ChIJP7qddFxpnUcRlfH5zsNoCBI","lat":47.2583951,"lon":11.406269799999999,"name":"Haikky Restaurant am Tivoli","city":"Innsbruck","category":"gastro","tags":["barrierefrei","google_wc_accessible"],"hours":{"type":"unknown"}},{"id":"gplace_ChIJdykWzWZpnUcRVE0F2RfX4WY","lat":47.2506355,"lon":11.4012935,"name":"Restaurant 1809 am Bergisel","city":"Innsbruck","category":"gastro","tags":["barrierefrei","google_wc_accessible"],"hours":{"type":"unknown"}},{"id":"gplace_ChIJAxADOV9pnUcRhbcTRIVgJCY","lat":47.258359999999996,"lon":11.4000279,"name":"DISK Tankstelle","city":"Innsbruck","category":"tankstelle","tags":["barrierefrei","google_entrance_accessible"],"hours":{"type":"unknown"}},{"id":"gplace_ChIJ2waQGkNpnUcRNcnpVqVWPkQ","lat":47.2562811,"lon":11.4122417,"name":"ACT Fitness GmbH","city":"Innsbruck","category":"other","tags":["barrierefrei","google_entrance_accessible"],"hours":{"type":"unknown"}},{"id":"gplace_ChIJT7FCgV9pnUcR1zM8yhio7NM","lat":47.2568861,"lon":11.3978661,"name":"Konditorei Törtchen","city":"Innsbruck","category":"gastro","tags":["google_has_restroom"],"hours":{"type":"unknown"}},{"id":"gplace_ChIJabv9_YlpnUcRqCqAF5ejl2Q","lat":47.241062199999995,"lon":11.416834800000002,"name":"Koi Bar Lansersee","city":"Innsbruck","category":"gastro","tags":["barrierefrei","google_wc_accessible"],"hours":{"type":"unknown"}},{"id":"gplace_ChIJQSsys7RunUcRtJSUXkX3Wgw","lat":47.2543722,"lon":11.4068097,"name":"Tennisclub TI Turnerschaft Innsbruck","city":"Innsbruck","category":"gastro","tags":["barrierefrei","google_entrance_accessible"],"hours":{"type":"unknown"}},{"id":"gplace_ChIJLe-M8FtpnUcRGJ_0UTIxdDI","lat":47.259188699999996,"lon":11.405711000000002,"name":"Café Restaurant am Tivoli","city":"Innsbruck","category":"gastro","tags":["barrierefrei","google_wc_accessible"],"hours":{"type":"unknown"}},{"id":"gplace_ChIJhbrNS1tpnUcRshCffKLSjn0","lat":47.259376,"lon":11.4109131,"name":"Cafe Design","city":"Innsbruck","category":"gastro","tags":["barrierefrei","google_entrance_accessible"],"hours":{"type":"unknown"}},{"id":"gplace_ChIJ1754Q-NrnUcR6oeeoO2ZM6M","lat":47.263914199999995,"lon":11.3956299,"name":"Breakfast Club","city":"Innsbruck","category":"gastro","tags":["barrierefrei","google_entrance_accessible"],"hours":{"type":"unknown"}},{"id":"gplace_ChIJLSxvLP1rnUcROLSwtb4qxzA","lat":47.264602599999996,"lon":11.397930299999999,"name":"Die Pizzerei","city":"Innsbruck","category":"gastro","tags":["google_has_restroom"],"hours":{"type":"unknown"}},{"id":"gplace_ChIJeSwV_gJrnUcRu8W_sLzOvlY","lat":47.269260599999996,"lon":11.4063643,"name":"Arabisk Restaurant","city":"Innsbruck","category":"gastro","tags":["google_has_restroom"],"hours":{"type":"unknown"}},{"id":"gplace_ChIJRRSKDFVpnUcRDuMdD6Jqjrs","lat":47.271549099999994,"lon":11.4052061,"name":"Pizzeria A CASA","city":"Innsbruck","category":"gastro","tags":["barrierefrei","google_wc_accessible"],"hours":{"type":"unknown"}},{"id":"gplace_ChIJKeUCf_5rnUcR2sWD3xDxSVk","lat":47.2694444,"lon":11.399722200000001,"name":"The Galway Bay - Irish Pub","city":"Innsbruck","category":"gastro","tags":["google_has_restroom"],"hours":{"type":"unknown"}},{"id":"gplace_ChIJq3WnjCJpnUcRTVkWPNKDl18","lat":47.2735255,"lon":11.4058862,"name":"Café Naiv.","city":"Innsbruck","category":"gastro","tags":["google_has_restroom"],"hours":{"type":"unknown"}},{"id":"gplace_ChIJOQE2TQdsnUcRl51b-6Su36U","lat":47.274963799999995,"lon":11.398170499999999,"name":"EUROSPAR","city":"Innsbruck","category":"other","tags":["barrierefrei","google_wc_accessible"],"hours":{"type":"unknown"}},{"id":"gplace_ChIJ572PeFZpnUcRBajKJchLljQ","lat":47.2687461,"lon":11.4049529,"name":"The Bakery - Culture Centre","city":"Innsbruck","category":"gastro","tags":["google_has_restroom"],"hours":{"type":"unknown"}},{"id":"gplace_ChIJAS-fI_xrnUcRXZ5KiEFP9tY","lat":47.26898,"lon":11.3978752,"name":"Himal Nepali Kitchen Restaurant","city":"Innsbruck","category":"gastro","tags":["google_has_restroom"],"hours":{"type":"unknown"}},{"id":"gplace_ChIJOYPdx7FunUcR7-tSdlCQYJ0","lat":47.278971,"lon":11.419948,"name":"HOFER","city":"Innsbruck","category":"other","tags":["barrierefrei","google_wc_accessible"],"hours":{"type":"unknown"}},{"id":"gplace_ChIJ5TjtnAZsnUcRVORtToZJXEY","lat":47.2790283,"lon":11.3976005,"name":"Villa Blanka Restaurant","city":"Innsbruck","category":"gastro","tags":["barrierefrei","google_wc_accessible"],"hours":{"type":"unknown"}},{"id":"gplace_ChIJGZV_BzlpnUcRXsSExnR_VAo","lat":47.259156,"lon":11.4274113,"name":"Die Brennerei","city":"Innsbruck","category":"gastro","tags":["google_has_restroom"],"hours":{"type":"unknown"}},{"id":"gplace_ChIJbU94BRppnUcRfKv8SUGwvOQ","lat":47.2456369,"lon":11.4320498,"name":"Jausenstation Vogelhütte","city":"Innsbruck","category":"gastro","tags":["barrierefrei","google_entrance_accessible"],"hours":{"type":"unknown"}},{"id":"gplace_ChIJHViU-0ZpnUcR5ne2Ita_l-c","lat":47.259627099999996,"lon":11.4205344,"name":"Pizzeria Milano 2","city":"Innsbruck","category":"gastro","tags":["google_has_restroom"],"hours":{"type":"unknown"}},{"id":"gplace_ChIJgaAKT0JpnUcRuB3E1fUokc0","lat":47.2553613,"lon":11.413551,"name":"Cafe Restaurant Wiesengasse","city":"Innsbruck","category":"gastro","tags":["google_has_restroom"],"hours":{"type":"unknown"}},{"id":"gplace_ChIJR3xoXfNpnUcRIu37d28bT_k","lat":47.2449,"lon":11.4296521,"name":"s`Sperberegg","city":"Innsbruck","category":"gastro","tags":["google_has_restroom"],"hours":{"type":"unknown"}},{"id":"gplace_ChIJH1dJBgBpnUcRIvRStWIVn8w","lat":47.2410777,"lon":11.418308300000001,"name":"Kiosk Olè","city":"Innsbruck","category":"gastro","tags":["google_has_restroom"],"hours":{"type":"unknown"}},{"id":"gplace_ChIJu_hVulRpnUcRslqPCjHCD50","lat":47.2551974,"lon":11.4091632,"name":"Realfits","city":"Innsbruck","category":"other","tags":["google_has_restroom"],"hours":{"type":"unknown"}},{"id":"gplace_ChIJgx85Yg5pnUcRVW0AXlSXoQY","lat":47.2580461,"lon":11.4167313,"name":"YOGA ART","city":"Innsbruck","category":"other","tags":["google_has_restroom"],"hours":{"type":"unknown"}},{"id":"gplace_ChIJ8ZvWajdpnUcRYDeP2BMMhOI","lat":47.2625704,"lon":11.430808599999999,"name":"DEZ Innsbruck","city":"Innsbruck","category":"gastro","tags":["barrierefrei","google_wc_accessible"],"hours":{"type":"unknown"}},{"id":"gplace_ChIJ6aOt6zFpnUcRAf3-i9i36bU","lat":47.2644704,"lon":11.437635799999999,"name":"JET Tankstelle","city":"Innsbruck","category":"tankstelle","tags":["barrierefrei","google_wc_accessible"],"hours":{"type":"unknown"}},{"id":"gplace_ChIJDxp2_TRpnUcRQEDWzpDOBiE","lat":47.2681378,"lon":11.4325636,"name":"B1 Innsbruck","city":"Innsbruck","category":"gastro","tags":["barrierefrei","google_wc_accessible"],"hours":{"type":"unknown"}},{"id":"gplace_ChIJg8NHozdpnUcRR5sY2dK0IX0","lat":47.2630162,"lon":11.428085399999999,"name":"McDonald's","city":"Innsbruck","category":"gastro","tags":["barrierefrei","google_wc_accessible"],"hours":{"type":"unknown"}},{"id":"gplace_ChIJj_ZfxlBpnUcR7iFBmD0t1qc","lat":47.2648124,"lon":11.4081792,"name":"Leipziger Hof Innsbruck","city":"Innsbruck","category":"gastro","tags":["google_has_restroom"],"hours":{"type":"unknown"}},{"id":"gplace_ChIJ__rqo-JrnUcRcLi36864UBw","lat":47.2712614,"lon":11.4274501,"name":"BURGER KING® Innsbruck","city":"Innsbruck","category":"gastro","tags":["barrierefrei","google_wc_accessible"],"hours":{"type":"unknown"}},{"id":"gplace_ChIJicX3AzdpnUcR3RJ3Rylhutk","lat":47.2635028,"lon":11.433353199999999,"name":"Eni","city":"Innsbruck","category":"tankstelle","tags":["barrierefrei","google_wc_accessible"],"hours":{"type":"unknown"}},{"id":"gplace_ChIJBUFF6TBpnUcRpzaC-QEAfUQ","lat":47.2625854,"lon":11.4335241,"name":"Vapiano","city":"Innsbruck","category":"gastro","tags":["barrierefrei","google_wc_accessible"],"hours":{"type":"unknown"}},{"id":"gplace_ChIJQzxNrexpnUcR1SzOhonVr3c","lat":47.2622687,"lon":11.429488099999999,"name":"Le Burger DEZ Innsbruck","city":"Innsbruck","category":"gastro","tags":["barrierefrei","google_wc_accessible"],"hours":{"type":"unknown"}},{"id":"gplace_ChIJlS72AzdpnUcRsEF6_Zh76hk","lat":47.263383,"lon":11.429705,"name":"Shell","city":"Innsbruck","category":"gastro","tags":["barrierefrei","google_wc_accessible"],"hours":{"type":"unknown"}},{"id":"gplace_ChIJ28vZQzdpnUcRJWAytJnV9jQ","lat":47.262039699999995,"lon":11.4300931,"name":"INTERSPAR","city":"Innsbruck","category":"other","tags":["barrierefrei","google_wc_accessible"],"hours":{"type":"unknown"}},{"id":"gplace_ChIJoxYJYTJpnUcR3mEA8Anj6Gw","lat":47.262664,"lon":11.4106464,"name":"Der Bäcker Ruetz - Pradl Innsbruck","city":"Innsbruck","category":"gastro","tags":["barrierefrei","google_wc_accessible"],"hours":{"type":"unknown"}},{"id":"gplace_ChIJQz0dSkhpnUcRJCLPWqarZPM","lat":47.263965,"lon":11.424336,"name":"Café-Restaurant Martin","city":"Innsbruck","category":"gastro","tags":["barrierefrei","google_entrance_accessible"],"hours":{"type":"unknown"}},{"id":"gplace_ChIJg0FIV3hvnUcRWzj18edXnOw","lat":47.2775355,"lon":11.435024199999999,"name":"Fruchthof Handels GmbH","city":"Innsbruck","category":"other","tags":["barrierefrei","google_wc_accessible"],"hours":{"type":"unknown"}},{"id":"gplace_ChIJQd-s5LVunUcRxfn3HOb9N9Y","lat":47.275725,"lon":11.430984599999999,"name":"Beko's Grill-Imbiss","city":"Innsbruck","category":"gastro","tags":["barrierefrei","google_entrance_accessible"],"hours":{"type":"unknown"}},{"id":"gplace_ChIJp29RjkppnUcRaSm9GBXtF7E","lat":47.269490999999995,"lon":11.427126,"name":"HOFER","city":"Innsbruck","category":"other","tags":["barrierefrei","google_wc_accessible"],"hours":{"type":"unknown"}},{"id":"gplace_ChIJ6ypDILZunUcRNpepeZnkLRc","lat":47.2772712,"lon":11.431918999999999,"name":"Der Bäcker Ruetz - Mühlau Arzl","city":"Innsbruck","category":"gastro","tags":["barrierefrei","google_wc_accessible"],"hours":{"type":"unknown"}},{"id":"gplace_ChIJAakmmVNpnUcR_nd1imSaFwU","lat":47.2702125,"lon":11.4104938,"name":"Pool Shooters - Billiard Bar in Innsbruck","city":"Innsbruck","category":"gastro","tags":["google_has_restroom"],"hours":{"type":"unknown"}},{"id":"gplace_ChIJ0yIz4NBunUcR2kwpG56LyJ4","lat":47.2778625,"lon":11.4358718,"name":"Olympic Fitness GmbH","city":"Innsbruck","category":"other","tags":["barrierefrei","google_entrance_accessible"],"hours":{"type":"unknown"}},{"id":"gplace_ChIJuQRSt7NunUcR04igtlG7TAk","lat":47.2754601,"lon":11.4216737,"name":"Luna Rossa Innsbruck","city":"Innsbruck","category":"gastro","tags":["barrierefrei","google_entrance_accessible"],"hours":{"type":"unknown"}},{"id":"gplace_ChIJkW-ScKhunUcReBBd205vq2k","lat":47.2826234,"lon":11.4102193,"name":"DISK Tankstelle","city":"Innsbruck","category":"tankstelle","tags":["barrierefrei","google_entrance_accessible"],"hours":{"type":"unknown"}},{"id":"gplace_ChIJwS86vktpnUcRs2dbUSPFCyk","lat":47.268128600000004,"lon":11.423178199999999,"name":"Lange Mauer","city":"Innsbruck","category":"gastro","tags":["barrierefrei","google_entrance_accessible"],"hours":{"type":"unknown"}},{"id":"gplace_ChIJ4UmuHbNunUcRPdXrNrjovSE","lat":47.2737838,"lon":11.4204949,"name":"Dilor's","city":"Innsbruck","category":"gastro","tags":["barrierefrei","google_wc_accessible"],"hours":{"type":"unknown"}}]