[{"id":"do_net_d9d84f75","lat":51.5199340908,"lon":7.4607139164,"name":"Auslandsgesellschaft","city":"Dortmund","category":"other","tags":["barrierefrei","nette-toilette"],"operator":"Auslandsgesellschaft","hours":{"type":"unknown"}},{"id":"do_net_f2fbc64f","lat":51.5111634161,"lon":7.4679664266,"name":"Berswordt-Halle (Stadthaus)","city":"Dortmund","category":"gastro","tags":["barrierefrei","nette-toilette","google_wc_accessible","has_restroom"],"operator":"Berswordt-Halle (Stadthaus)","opening_hours":"Su 15:00-23:00; Mo 17:00-23:00; Tu 17:00-23:00; We 17:00-23:00; Th 17:00-23:00; Fr 17:00-02:00; Sa 12:00-02:00","hours":{"type":"weekly","weekly":{"0":{"isOpen":true,"periods":[{"open":900,"close":1380}]},"1":{"isOpen":true,"periods":[{"open":1020,"close":1380}]},"2":{"isOpen":true,"periods":[{"open":1020,"close":1380}]},"3":{"isOpen":true,"periods":[{"open":1020,"close":1380}]},"4":{"isOpen":true,"periods":[{"open":1020,"close":1380}]},"5":{"isOpen":true,"periods":[{"open":1020,"close":120}]},"6":{"isOpen":true,"periods":[{"open":720,"close":120}]}},"original":"Su 15:00-23:00; Mo 17:00-23:00; Tu 17:00-23:00; We 17:00-23:00; Th 17:00-23:00; Fr 17:00-02:00; Sa 12:00-02:00"}},{"id":"do_net_f872829d","lat":51.4754409964,"lon":7.4397441951,"name":"Bezirksverwaltungsstelle","city":"Dortmund","category":"other","tags":["barrierefrei","nette-toilette"],"operator":"Bezirksverwaltungsstelle","hours":{"type":"unknown"}},{"id":"do_net_b76828fc","lat":51.4878192589,"lon":7.5013427788,"name":"Bezirksverwaltungsstelle","city":"Dortmund","category":"other","tags":["barrierefrei","nette-toilette"],"operator":"Bezirksverwaltungsstelle","hours":{"type":"unknown"}},{"id":"do_net_d1c23eae","lat":51.5161273176,"lon":7.4671850178,"name":"Café Bäumchen","city":"Dortmund","category":"other","tags":["barrierefrei","nette-toilette"],"operator":"Café Bäumchen","hours":{"type":"unknown"}},{"id":"do_net_9a039ea7","lat":51.531205897,"lon":7.4137556811,"name":"Café täglich","city":"Dortmund","category":"gastro","tags":["barrierefrei","nette-toilette","google_wc_accessible","has_restroom"],"operator":"Café täglich","opening_hours":"Su 09:00-00:00; Mo 08:00-00:00; Tu 08:00-00:00; We 08:00-00:00; Th 08:00-00:00; Fr 08:00-02:00; Sa 08:00-02:00","hours":{"type":"weekly","weekly":{"0":{"isOpen":true,"periods":[{"open":540,"close":1440}]},"1":{"isOpen":true,"periods":[{"open":480,"close":1440}]},"2":{"isOpen":true,"periods":[{"open":480,"close":1440}]},"3":{"isOpen":true,"periods":[{"open":480,"close":1440}]},"4":{"isOpen":true,"periods":[{"open":480,"close":1440}]},"5":{"isOpen":true,"periods":[{"open":480,"close":120}]},"6":{"isOpen":true,"periods":[{"open":480,"close":120}]}},"original":"Su 09:00-00:00; Mo 08:00-00:00; Tu 08:00-00:00; We 08:00-00:00; Th 08:00-00:00; Fr 08:00-02:00; Sa 08:00-02:00"}},{"id":"do_net_8d0d24ae","lat":51.5794191124,"lon":7.4659211048,"name":"Evangelisches Familienzentrum","city":"Dortmund","category":"other","tags":["barrierefrei","nette-toilette"],"operator":"Evangelisches Familienzentrum","hours":{"type":"unknown"}},{"id":"do_net_b3964536","lat":51.5099269016,"lon":7.3833947595,"name":"Gastronomiebetrieb \"Altes Brauhaus\"","city":"Dortmund","category":"gastro","tags":["barrierefrei","nette-toilette","google_has_restroom","has_restroom"],"operator":"Gastronomiebetrieb \"Altes Brauhaus\"","opening_hours":"Su 12:00-23:00; Tu 16:00-23:00; We 16:00-23:00; Th 16:00-23:00; Fr 16:00-23:00; Sa 12:00-23:00","hours":{"type":"weekly","weekly":{"0":{"isOpen":true,"periods":[{"open":720,"close":1380}]},"1":{"isOpen":false,"periods":[]},"2":{"isOpen":true,"periods":[{"open":960,"close":1380}]},"3":{"isOpen":true,"periods":[{"open":960,"close":1380}]},"4":{"isOpen":true,"periods":[{"open":960,"close":1380}]},"5":{"isOpen":true,"periods":[{"open":960,"close":1380}]},"6":{"isOpen":true,"periods":[{"open":720,"close":1380}]}},"original":"Su 12:00-23:00; Tu 16:00-23:00; We 16:00-23:00; Th 16:00-23:00; Fr 16:00-23:00; Sa 12:00-23:00"}},{"id":"do_net_0c515b3e","lat":51.4802109033,"lon":7.4900122333,"name":"Gaststätte - Im Justenkamp","city":"Dortmund","category":"gastro","tags":["barrierefrei","nette-toilette","google_wc_accessible","has_restroom"],"operator":"Gaststätte - Im Justenkamp","opening_hours":"Su 11:00-23:00; Tu 11:00-23:00; We 11:00-23:00; Th 11:00-23:00; Fr 11:00-05:00; Sa 11:00-05:00","hours":{"type":"weekly","weekly":{"0":{"isOpen":true,"periods":[{"open":660,"close":1380}]},"1":{"isOpen":false,"periods":[]},"2":{"isOpen":true,"periods":[{"open":660,"close":1380}]},"3":{"isOpen":true,"periods":[{"open":660,"close":1380}]},"4":{"isOpen":true,"periods":[{"open":660,"close":1380}]},"5":{"isOpen":true,"periods":[{"open":660,"close":300}]},"6":{"isOpen":true,"periods":[{"open":660,"close":300}]}},"original":"Su 11:00-23:00; Tu 11:00-23:00; We 11:00-23:00; Th 11:00-23:00; Fr 11:00-05:00; Sa 11:00-05:00"}},{"id":"do_net_829983b7","lat":51.562212749,"lon":7.4154490851,"name":"Gut Königsmühle (Stiftung help & hope)","city":"Dortmund","category":"gastro","tags":["barrierefrei","nette-toilette","google_wc_accessible","has_restroom"],"operator":"Gut Königsmühle (Stiftung help & hope)","opening_hours":"Su 11:00-19:00; Fr 11:00-19:00; Sa 11:00-19:00","hours":{"type":"weekly","weekly":{"0":{"isOpen":true,"periods":[{"open":660,"close":1140}]},"1":{"isOpen":false,"periods":[]},"2":{"isOpen":false,"periods":[]},"3":{"isOpen":false,"periods":[]},"4":{"isOpen":false,"periods":[]},"5":{"isOpen":true,"periods":[{"open":660,"close":1140}]},"6":{"isOpen":true,"periods":[{"open":660,"close":1140}]}},"original":"Su 11:00-19:00; Fr 11:00-19:00; Sa 11:00-19:00"}},{"id":"do_net_c2f4ed57","lat":51.5052999033,"lon":7.4484018663,"name":"House of Beauty","city":"Dortmund","category":"gastro","tags":["barrierefrei","nette-toilette","google_entrance_accessible","has_restroom"],"operator":"House of Beauty","opening_hours":"Su 09:00-18:30; Tu 09:00-18:30; We 09:00-18:30; Th 09:00-18:30; Fr 09:00-18:30; Sa 09:00-18:30","hours":{"type":"weekly","weekly":{"0":{"isOpen":true,"periods":[{"open":540,"close":1110}]},"1":{"isOpen":false,"periods":[]},"2":{"isOpen":true,"periods":[{"open":540,"close":1110}]},"3":{"isOpen":true,"periods":[{"open":540,"close":1110}]},"4":{"isOpen":true,"periods":[{"open":540,"close":1110}]},"5":{"isOpen":true,"periods":[{"open":540,"close":1110}]},"6":{"isOpen":true,"periods":[{"open":540,"close":1110}]}},"original":"Su 09:00-18:30; Tu 09:00-18:30; We 09:00-18:30; Th 09:00-18:30; Fr 09:00-18:30; Sa 09:00-18:30"}},{"id":"do_net_2548c03b","lat":51.5765268156,"lon":7.5625032743,"name":"KGV Auf der Lauke","city":"Dortmund","category":"other","tags":["barrierefrei","nette-toilette"],"operator":"KGV Auf der Lauke","hours":{"type":"unknown"}},{"id":"do_net_e15f4e5d","lat":51.5327219287,"lon":7.4531322044,"name":"Kulturort DEPOT","city":"Dortmund","category":"gastro","tags":["barrierefrei","nette-toilette","google_wc_accessible","has_restroom"],"operator":"Kulturort DEPOT","opening_hours":"Tu 18:00-23:00; We 18:00-23:00; Th 18:00-23:00; Fr 18:00-23:00; Sa 18:00-23:00","hours":{"type":"weekly","weekly":{"0":{"isOpen":false,"periods":[]},"1":{"isOpen":false,"periods":[]},"2":{"isOpen":true,"periods":[{"open":1080,"close":1380}]},"3":{"isOpen":true,"periods":[{"open":1080,"close":1380}]},"4":{"isOpen":true,"periods":[{"open":1080,"close":1380}]},"5":{"isOpen":true,"periods":[{"open":1080,"close":1380}]},"6":{"isOpen":true,"periods":[{"open":1080,"close":1380}]}},"original":"Tu 18:00-23:00; We 18:00-23:00; Th 18:00-23:00; Fr 18:00-23:00; Sa 18:00-23:00"}},{"id":"do_net_f1e2a4b8","lat":51.5221881327,"lon":7.5448493577,"name":"Kulturzentrum balou e.V.","city":"Dortmund","category":"other","tags":["barrierefrei","nette-toilette"],"operator":"Kulturzentrum balou e.V.","hours":{"type":"unknown"}},{"id":"do_net_8e9b624c","lat":51.5166458176,"lon":7.4632454851,"name":"MKK - Museum für Kunst und Kulturgeschichte","city":"Dortmund","category":"other","tags":["barrierefrei","nette-toilette"],"operator":"MKK - Museum für Kunst und Kulturgeschichte","hours":{"type":"unknown"}},{"id":"do_net_9abcd5fc","lat":51.5664562503,"lon":7.5785169255,"name":"Mowwe Restaurant & Café","city":"Dortmund","category":"other","tags":["barrierefrei","nette-toilette"],"operator":"Mowwe Restaurant & Café","hours":{"type":"unknown"}},{"id":"do_net_87d70e7b","lat":51.5438784152,"lon":7.4698534186,"name":"Nordfriedhof","city":"Dortmund","category":"other","tags":["barrierefrei","nette-toilette"],"operator":"Nordfriedhof","hours":{"type":"unknown"}},{"id":"do_net_393f743b","lat":51.5116893551,"lon":7.467443833,"name":"Ordnungsamt","city":"Dortmund","category":"other","tags":["barrierefrei","nette-toilette"],"operator":"Ordnungsamt","hours":{"type":"unknown"}},{"id":"do_net_bf037eaf","lat":51.5116678685,"lon":7.4905386909,"name":"Ostfriedhof","city":"Dortmund","category":"other","tags":["barrierefrei","nette-toilette"],"operator":"Ostfriedhof","hours":{"type":"unknown"}},{"id":"do_net_81575024","lat":51.5712708777,"lon":7.5680368021,"name":"Restaurant Schöne Aussicht","city":"Dortmund","category":"other","tags":["barrierefrei","nette-toilette"],"operator":"Restaurant Schöne Aussicht","hours":{"type":"unknown"}},{"id":"do_net_8f3ad767","lat":51.4972504274,"lon":7.3993837428,"name":"Rewe Mankel","city":"Dortmund","category":"other","tags":["barrierefrei","nette-toilette"],"operator":"Rewe Mankel","hours":{"type":"unknown"}},{"id":"do_net_d1c83195","lat":51.5708401884,"lon":7.3786229815,"name":"Städt. Begegnungszentrum Mengede","city":"Dortmund","category":"gastro","tags":["barrierefrei","nette-toilette","google_has_restroom","has_restroom"],"operator":"Städt. Begegnungszentrum Mengede","opening_hours":"Mo 12:00-15:00; Tu 12:00-15:00,19:00-00:00; We 12:00-15:00,19:00-00:00; Th 12:00-15:00,19:00-00:00; Fr 12:00-15:00,19:00-00:00; Sa 12:00-14:00,19:00-00:00","hours":{"type":"weekly","weekly":{"0":{"isOpen":false,"periods":[]},"1":{"isOpen":true,"periods":[{"open":720,"close":900}]},"2":{"isOpen":true,"periods":[{"open":720,"close":900},{"open":1140,"close":1440}]},"3":{"isOpen":true,"periods":[{"open":720,"close":900},{"open":1140,"close":1440}]},"4":{"isOpen":true,"periods":[{"open":720,"close":900},{"open":1140,"close":1440}]},"5":{"isOpen":true,"periods":[{"open":720,"close":900},{"open":1140,"close":1440}]},"6":{"isOpen":true,"periods":[{"open":720,"close":840},{"open":1140,"close":1440}]}},"original":"Mo 12:00-15:00; Tu 12:00-15:00,19:00-00:00; We 12:00-15:00,19:00-00:00; Th 12:00-15:00,19:00-00:00; Fr 12:00-15:00,19:00-00:00; Sa 12:00-14:00,19:00-00:00"}},{"id":"do_net_8a109575","lat":51.4889258648,"lon":7.4999727963,"name":"Stadtteilbibliothek Hörde","city":"Dortmund","category":"gastro","tags":["barrierefrei","nette-toilette","google_has_restroom","has_restroom"],"operator":"Stadtteilbibliothek Hörde","opening_hours":"Su 13:00-21:00; Tu 11:00-21:00; We 11:00-21:00; Th 11:00-21:00; Fr 11:00-21:30; Sa 13:00-21:30","hours":{"type":"weekly","weekly":{"0":{"isOpen":true,"periods":[{"open":780,"close":1260}]},"1":{"isOpen":false,"periods":[]},"2":{"isOpen":true,"periods":[{"open":660,"close":1260}]},"3":{"isOpen":true,"periods":[{"open":660,"close":1260}]},"4":{"isOpen":true,"periods":[{"open":660,"close":1260}]},"5":{"isOpen":true,"periods":[{"open":660,"close":1290}]},"6":{"isOpen":true,"periods":[{"open":780,"close":1290}]}},"original":"Su 13:00-21:00; Tu 11:00-21:00; We 11:00-21:00; Th 11:00-21:00; Fr 11:00-21:30; Sa 13:00-21:30"}},{"id":"do_net_17a12e81","lat":51.4885479665,"lon":7.5010810613,"name":"Trattoria Torino","city":"Dortmund","category":"gastro","tags":["barrierefrei","nette-toilette","google_wc_accessible","has_restroom"],"operator":"Trattoria Torino","opening_hours":"Su 09:00-22:30; Mo 09:00-22:30; Tu 09:00-22:30; We 09:00-22:30; Th 09:00-22:30; Fr 09:00-22:30; Sa 09:00-22:30","hours":{"type":"weekly","weekly":{"0":{"isOpen":true,"periods":[{"open":540,"close":1350}]},"1":{"isOpen":true,"periods":[{"open":540,"close":1350}]},"2":{"isOpen":true,"periods":[{"open":540,"close":1350}]},"3":{"isOpen":true,"periods":[{"open":540,"close":1350}]},"4":{"isOpen":true,"periods":[{"open":540,"close":1350}]},"5":{"isOpen":true,"periods":[{"open":540,"close":1350}]},"6":{"isOpen":true,"periods":[{"open":540,"close":1350}]}},"original":"Su 09:00-22:30; Mo 09:00-22:30; Tu 09:00-22:30; We 09:00-22:30; Th 09:00-22:30; Fr 09:00-22:30; Sa 09:00-22:30"}},{"id":"do_net_8f491a4d","lat":51.579420711,"lon":7.4599549077,"name":"Turnverein Brechten 1913 e.V.","city":"Dortmund","category":"other","tags":["barrierefrei","nette-toilette","google_entrance_accessible","has_restroom"],"operator":"Turnverein Brechten 1913 e.V.","hours":{"type":"unknown"}},{"id":"do_net_2c61e530","lat":51.5076600806,"lon":7.4701524269,"name":"Wilhelm-Hansmann-Haus","city":"Dortmund","category":"other","tags":["barrierefrei","nette-toilette","eurokey"],"operator":"Wilhelm-Hansmann-Haus","opening_hours":"24/7","hours":{"type":"24_7"}},{"id":"do_net_6bc055c2","lat":51.5594494291,"lon":7.5963866292,"name":"Bäckerei Vorwerk (im Gebäude \"Sacré Coeur\")","city":"Dortmund","category":"other","tags":["barrierefrei","nette-toilette"],"operator":"Bäckerei Vorwerk (im Gebäude \"Sacré Coeur\")","hours":{"type":"unknown"}},{"id":"do_net_e9ba7cc6","lat":51.5098306268,"lon":7.3820409429,"name":"Bäckermeister Grobe","city":"Dortmund","category":"gastro","tags":["barrierefrei","nette-toilette","google_entrance_accessible","has_restroom"],"operator":"Bäckermeister Grobe","opening_hours":"Su 07:30-15:00; Mo 06:30-17:00; Tu 06:30-17:00; We 06:30-17:00; Th 06:30-17:00; Fr 06:30-17:00; Sa 06:30-13:00","hours":{"type":"weekly","weekly":{"0":{"isOpen":true,"periods":[{"open":450,"close":900}]},"1":{"isOpen":true,"periods":[{"open":390,"close":1020}]},"2":{"isOpen":true,"periods":[{"open":390,"close":1020}]},"3":{"isOpen":true,"periods":[{"open":390,"close":1020}]},"4":{"isOpen":true,"periods":[{"open":390,"close":1020}]},"5":{"isOpen":true,"periods":[{"open":390,"close":1020}]},"6":{"isOpen":true,"periods":[{"open":390,"close":780}]}},"original":"Su 07:30-15:00; Mo 06:30-17:00; Tu 06:30-17:00; We 06:30-17:00; Th 06:30-17:00; Fr 06:30-17:00; Sa 06:30-13:00"}},{"id":"do_net_521b8d38","lat":51.5049941439,"lon":7.4638853226,"name":"Bäckermeister Grobe Saarlandstr.","city":"Dortmund","category":"other","tags":["barrierefrei","nette-toilette"],"operator":"Bäckermeister Grobe Saarlandstr.","hours":{"type":"unknown"}},{"id":"do_net_99e777a3","lat":51.5518072508,"lon":7.4534003394,"name":"BergAUF e.V.","city":"Dortmund","category":"gastro","tags":["barrierefrei","nette-toilette","google_has_restroom","has_restroom"],"operator":"BergAUF e.V.","hours":{"type":"unknown"}},{"id":"do_net_5d2397f4","lat":51.5711843838,"lon":7.3802143646,"name":"Bezirksverwaltungsstelle","city":"Dortmund","category":"other","tags":["barrierefrei","nette-toilette"],"operator":"Bezirksverwaltungsstelle","hours":{"type":"unknown"}},{"id":"do_net_bb6cdb5c","lat":51.4863430239,"lon":7.5010531254,"name":"Bistro Kontrast","city":"Dortmund","category":"gastro","tags":["barrierefrei","nette-toilette","google_has_restroom","has_restroom"],"operator":"Bistro Kontrast","opening_hours":"We 18:00-00:00; Fr 18:00-02:00; Sa 18:00-02:00","hours":{"type":"weekly","weekly":{"0":{"isOpen":false,"periods":[]},"1":{"isOpen":false,"periods":[]},"2":{"isOpen":false,"periods":[]},"3":{"isOpen":true,"periods":[{"open":1080,"close":1440}]},"4":{"isOpen":false,"periods":[]},"5":{"isOpen":true,"periods":[{"open":1080,"close":120}]},"6":{"isOpen":true,"periods":[{"open":1080,"close":120}]}},"original":"We 18:00-00:00; Fr 18:00-02:00; Sa 18:00-02:00"}},{"id":"do_net_64a58b42","lat":51.5056020725,"lon":7.4514283699,"name":"Bürgermeister Lindemann","city":"Dortmund","category":"gastro","tags":["barrierefrei","nette-toilette","google_has_restroom","has_restroom"],"operator":"Bürgermeister Lindemann","opening_hours":"Tu 17:00-00:00; We 17:00-00:00; Th 17:00-00:00; Fr 17:00-02:00; Sa 17:00-02:00","hours":{"type":"weekly","weekly":{"0":{"isOpen":false,"periods":[]},"1":{"isOpen":false,"periods":[]},"2":{"isOpen":true,"periods":[{"open":1020,"close":1440}]},"3":{"isOpen":true,"periods":[{"open":1020,"close":1440}]},"4":{"isOpen":true,"periods":[{"open":1020,"close":1440}]},"5":{"isOpen":true,"periods":[{"open":1020,"close":120}]},"6":{"isOpen":true,"periods":[{"open":1020,"close":120}]}},"original":"Tu 17:00-00:00; We 17:00-00:00; Th 17:00-00:00; Fr 17:00-02:00; Sa 17:00-02:00"}},{"id":"do_net_26c84333","lat":51.5136939763,"lon":7.4754819037,"name":"Café Auszeit","city":"Dortmund","category":"gastro","tags":["barrierefrei","nette-toilette","google_entrance_accessible","has_restroom"],"operator":"Café Auszeit","opening_hours":"Su 10:00-19:00; Mo 09:00-19:00; Tu 09:00-19:00; We 09:00-19:00; Th 09:00-19:00; Fr 09:00-19:00; Sa 09:00-19:00","hours":{"type":"weekly","weekly":{"0":{"isOpen":true,"periods":[{"open":600,"close":1140}]},"1":{"isOpen":true,"periods":[{"open":540,"close":1140}]},"2":{"isOpen":true,"periods":[{"open":540,"close":1140}]},"3":{"isOpen":true,"periods":[{"open":540,"close":1140}]},"4":{"isOpen":true,"periods":[{"open":540,"close":1140}]},"5":{"isOpen":true,"periods":[{"open":540,"close":1140}]},"6":{"isOpen":true,"periods":[{"open":540,"close":1140}]}},"original":"Su 10:00-19:00; Mo 09:00-19:00; Tu 09:00-19:00; We 09:00-19:00; Th 09:00-19:00; Fr 09:00-19:00; Sa 09:00-19:00"}},{"id":"do_net_e11e9ebe","lat":51.5120748251,"lon":7.4879037848,"name":"Café Rot","city":"Dortmund","category":"gastro","tags":["barrierefrei","nette-toilette","google_entrance_accessible","has_restroom"],"operator":"Café Rot","opening_hours":"Su 09:00-18:30; We 09:00-18:30; Th 09:00-18:30; Fr 09:00-18:30; Sa 09:00-18:30","hours":{"type":"weekly","weekly":{"0":{"isOpen":true,"periods":[{"open":540,"close":1110}]},"1":{"isOpen":false,"periods":[]},"2":{"isOpen":false,"periods":[]},"3":{"isOpen":true,"periods":[{"open":540,"close":1110}]},"4":{"isOpen":true,"periods":[{"open":540,"close":1110}]},"5":{"isOpen":true,"periods":[{"open":540,"close":1110}]},"6":{"isOpen":true,"periods":[{"open":540,"close":1110}]}},"original":"Su 09:00-18:30; We 09:00-18:30; Th 09:00-18:30; Fr 09:00-18:30; Sa 09:00-18:30"}},{"id":"do_net_018496a8","lat":51.5319692515,"lon":7.4497731294,"name":"Café Zum Westerholz","city":"Dortmund","category":"gastro","tags":["barrierefrei","nette-toilette","google_wc_accessible","has_restroom"],"operator":"Café Zum Westerholz","hours":{"type":"unknown"}},{"id":"do_net_b26f83df","lat":51.4776776914,"lon":7.5997989971,"name":"Edeka Meierjohann","city":"Dortmund","category":"other","tags":["barrierefrei","nette-toilette"],"operator":"Edeka Meierjohann","hours":{"type":"unknown"}},{"id":"do_net_37a84849","lat":51.4929188249,"lon":7.5863747452,"name":"Edeka Meierjohann","city":"Dortmund","category":"other","tags":["barrierefrei","nette-toilette"],"operator":"Edeka Meierjohann","hours":{"type":"unknown"}},{"id":"do_net_b44b0eb0","lat":51.5531112152,"lon":7.4579621512,"name":"Ehemaliges Wohlfahrtsgebäude","city":"Dortmund","category":"tankstelle","tags":["barrierefrei","nette-toilette"],"operator":"Ehemaliges Wohlfahrtsgebäude","hours":{"type":"unknown"}},{"id":"do_net_7c4bb52c","lat":51.5093203359,"lon":7.3825695649,"name":"Eiscafé Pieruz","city":"Dortmund","category":"other","tags":["barrierefrei","nette-toilette"],"operator":"Eiscafé Pieruz","hours":{"type":"unknown"}},{"id":"do_net_ad58d270","lat":51.5055250146,"lon":7.4546721128,"name":"El Mundo","city":"Dortmund","category":"gastro","tags":["barrierefrei","nette-toilette","google_entrance_accessible","google_has_restroom","has_restroom"],"operator":"El Mundo","opening_hours":"Su 10:00-22:30; Mo 12:00-22:00; Tu 12:00-22:00; We 12:00-22:00; Th 12:00-22:00; Fr 12:00-22:30; Sa 10:00-22:30","hours":{"type":"weekly","weekly":{"0":{"isOpen":true,"periods":[{"open":600,"close":1350}]},"1":{"isOpen":true,"periods":[{"open":720,"close":1320}]},"2":{"isOpen":true,"periods":[{"open":720,"close":1320}]},"3":{"isOpen":true,"periods":[{"open":720,"close":1320}]},"4":{"isOpen":true,"periods":[{"open":720,"close":1320}]},"5":{"isOpen":true,"periods":[{"open":720,"close":1350}]},"6":{"isOpen":true,"periods":[{"open":600,"close":1350}]}},"original":"Su 10:00-22:30; Mo 12:00-22:00; Tu 12:00-22:00; We 12:00-22:00; Th 12:00-22:00; Fr 12:00-22:30; Sa 10:00-22:30"}},{"id":"do_net_92a1502e","lat":51.573973492,"lon":7.4585633426,"name":"Ev. Kindergarten Brechtener Heide","city":"Dortmund","category":"other","tags":["barrierefrei","nette-toilette"],"operator":"Ev. Kindergarten Brechtener Heide","hours":{"type":"unknown"}},{"id":"do_net_1ebcf833","lat":51.4859491507,"lon":7.4986488885,"name":"Ev. Kirchengemeinde Hörde","city":"Dortmund","category":"other","tags":["barrierefrei","nette-toilette"],"operator":"Ev. Kirchengemeinde Hörde","hours":{"type":"unknown"}},{"id":"do_net_52bf3de9","lat":51.4999494209,"lon":7.5602171131,"name":"Flüchtlingshilfe e.V.","city":"Dortmund","category":"gastro","tags":["barrierefrei","nette-toilette","google_has_restroom","has_restroom"],"operator":"Flüchtlingshilfe e.V.","opening_hours":"Su 12:30-23:00; Tu 15:30-23:00; We 15:30-23:00; Th 15:30-23:00; Fr 15:30-00:00; Sa 15:30-00:00","hours":{"type":"weekly","weekly":{"0":{"isOpen":true,"periods":[{"open":750,"close":1380}]},"1":{"isOpen":false,"periods":[]},"2":{"isOpen":true,"periods":[{"open":930,"close":1380}]},"3":{"isOpen":true,"periods":[{"open":930,"close":1380}]},"4":{"isOpen":true,"periods":[{"open":930,"close":1380}]},"5":{"isOpen":true,"periods":[{"open":930,"close":1440}]},"6":{"isOpen":true,"periods":[{"open":930,"close":1440}]}},"original":"Su 12:30-23:00; Tu 15:30-23:00; We 15:30-23:00; Th 15:30-23:00; Fr 15:30-00:00; Sa 15:30-00:00"}},{"id":"do_net_c765225b","lat":51.5001672612,"lon":7.3373664389,"name":"Gaststätte Alte Post","city":"Dortmund","category":"other","tags":["barrierefrei","nette-toilette"],"operator":"Gaststätte Alte Post","hours":{"type":"unknown"}},{"id":"do_net_3e0f3aa3","lat":51.5228436551,"lon":7.5359160559,"name":"Gaststätte Farbe bei Georg","city":"Dortmund","category":"gastro","tags":["barrierefrei","nette-toilette","google_entrance_accessible","has_restroom"],"operator":"Gaststätte Farbe bei Georg","opening_hours":"Su 12:00-21:30; Mo 11:00-21:30; Tu 11:00-21:30; We 11:00-21:30; Th 11:00-21:30; Fr 11:00-01:00; Sa 12:00-01:00","hours":{"type":"weekly","weekly":{"0":{"isOpen":true,"periods":[{"open":720,"close":1290}]},"1":{"isOpen":true,"periods":[{"open":660,"close":1290}]},"2":{"isOpen":true,"periods":[{"open":660,"close":1290}]},"3":{"isOpen":true,"periods":[{"open":660,"close":1290}]},"4":{"isOpen":true,"periods":[{"open":660,"close":1290}]},"5":{"isOpen":true,"periods":[{"open":660,"close":60}]},"6":{"isOpen":true,"periods":[{"open":720,"close":60}]}},"original":"Su 12:00-21:30; Mo 11:00-21:30; Tu 11:00-21:30; We 11:00-21:30; Th 11:00-21:30; Fr 11:00-01:00; Sa 12:00-01:00"}},{"id":"do_net_daac355d","lat":51.5675202026,"lon":7.3715468409,"name":"Hasans Holzkohlegrill","city":"Dortmund","category":"gastro","tags":["barrierefrei","nette-toilette","google_has_restroom","has_restroom"],"operator":"Hasans Holzkohlegrill","opening_hours":"Su 14:00-22:00; Mo 12:00-22:00; Tu 12:00-22:00; We 12:00-22:00; Th 12:00-22:00; Fr 12:00-22:00","hours":{"type":"weekly","weekly":{"0":{"isOpen":true,"periods":[{"open":840,"close":1320}]},"1":{"isOpen":true,"periods":[{"open":720,"close":1320}]},"2":{"isOpen":true,"periods":[{"open":720,"close":1320}]},"3":{"isOpen":true,"periods":[{"open":720,"close":1320}]},"4":{"isOpen":true,"periods":[{"open":720,"close":1320}]},"5":{"isOpen":true,"periods":[{"open":720,"close":1320}]},"6":{"isOpen":false,"periods":[]}},"original":"Su 14:00-22:00; Mo 12:00-22:00; Tu 12:00-22:00; We 12:00-22:00; Th 12:00-22:00; Fr 12:00-22:00"}},{"id":"do_net_7c93bf31","lat":51.4977481552,"lon":7.359097133,"name":"Imbissbetrieb Futterluke","city":"Dortmund","category":"other","tags":["barrierefrei","nette-toilette"],"operator":"Imbissbetrieb Futterluke","hours":{"type":"unknown"}},{"id":"do_net_46bdb3af","lat":51.5404672966,"lon":7.3750051255,"name":"Im schönen Wiesengrund","city":"Dortmund","category":"gastro","tags":["barrierefrei","nette-toilette","google_has_restroom","has_restroom"],"operator":"Im schönen Wiesengrund","opening_hours":"Su 11:00-20:00; Tu 16:30-23:00; We 16:30-23:00; Th 16:30-23:00; Fr 16:30-00:00; Sa 16:30-00:00","hours":{"type":"weekly","weekly":{"0":{"isOpen":true,"periods":[{"open":660,"close":1200}]},"1":{"isOpen":false,"periods":[]},"2":{"isOpen":true,"periods":[{"open":990,"close":1380}]},"3":{"isOpen":true,"periods":[{"open":990,"close":1380}]},"4":{"isOpen":true,"periods":[{"open":990,"close":1380}]},"5":{"isOpen":true,"periods":[{"open":990,"close":1440}]},"6":{"isOpen":true,"periods":[{"open":990,"close":1440}]}},"original":"Su 11:00-20:00; Tu 16:30-23:00; We 16:30-23:00; Th 16:30-23:00; Fr 16:30-00:00; Sa 16:30-00:00"}},{"id":"do_net_f8557bdc","lat":51.5802480406,"lon":7.4609268808,"name":"Kinder- und Jugendtreff Brechten","city":"Dortmund","category":"other","tags":["barrierefrei","nette-toilette"],"operator":"Kinder- und Jugendtreff Brechten","hours":{"type":"unknown"}},{"id":"do_net_b4cacfaa","lat":51.5316760446,"lon":7.4146153641,"name":"Markt-Schänke","city":"Dortmund","category":"gastro","tags":["barrierefrei","nette-toilette","google_entrance_accessible","has_restroom"],"operator":"Markt-Schänke","opening_hours":"Su 10:00-22:00; Mo 08:00-22:00; Tu 08:00-22:00; We 08:00-22:00; Th 08:00-22:00; Fr 08:00-01:00; Sa 12:00-01:00","hours":{"type":"weekly","weekly":{"0":{"isOpen":true,"periods":[{"open":600,"close":1320}]},"1":{"isOpen":true,"periods":[{"open":480,"close":1320}]},"2":{"isOpen":true,"periods":[{"open":480,"close":1320}]},"3":{"isOpen":true,"periods":[{"open":480,"close":1320}]},"4":{"isOpen":true,"periods":[{"open":480,"close":1320}]},"5":{"isOpen":true,"periods":[{"open":480,"close":60}]},"6":{"isOpen":true,"periods":[{"open":720,"close":60}]}},"original":"Su 10:00-22:00; Mo 08:00-22:00; Tu 08:00-22:00; We 08:00-22:00; Th 08:00-22:00; Fr 08:00-01:00; Sa 12:00-01:00"}},{"id":"do_net_d0e66483","lat":51.5141585528,"lon":7.4559247767,"name":"Mobile Toilettenanlage/WC-Container","city":"Dortmund","category":"public_24h","tags":["barrierefrei","nette-toilette"],"operator":"Mobile Toilettenanlage/WC-Container","hours":{"type":"unknown"}},{"id":"do_net_7404fdf1","lat":51.5097109437,"lon":7.4199124158,"name":"Mütterzentrum","city":"Dortmund","category":"other","tags":["barrierefrei","nette-toilette"],"operator":"Mütterzentrum","hours":{"type":"unknown"}},{"id":"do_net_e2d9d0ee","lat":51.5556856069,"lon":7.4827159231,"name":"Nachbarschaftstreff \"Mittendrin in der Märchensiedlung\"","city":"Dortmund","category":"other","tags":["barrierefrei","nette-toilette"],"operator":"Nachbarschaftstreff \"Mittendrin in der Märchensiedlung\"","hours":{"type":"unknown"}},{"id":"do_net_56437047","lat":51.5577657591,"lon":7.5446650089,"name":"Orient-Grill","city":"Dortmund","category":"gastro","tags":["barrierefrei","nette-toilette","google_entrance_accessible","has_restroom"],"operator":"Orient-Grill","opening_hours":"Su 11:00-22:00; Mo 11:00-23:00; Tu 11:00-23:00; We 11:00-23:00; Th 11:00-23:00; Fr 11:00-23:00; Sa 11:00-23:00","hours":{"type":"weekly","weekly":{"0":{"isOpen":true,"periods":[{"open":660,"close":1320}]},"1":{"isOpen":true,"periods":[{"open":660,"close":1380}]},"2":{"isOpen":true,"periods":[{"open":660,"close":1380}]},"3":{"isOpen":true,"periods":[{"open":660,"close":1380}]},"4":{"isOpen":true,"periods":[{"open":660,"close":1380}]},"5":{"isOpen":true,"periods":[{"open":660,"close":1380}]},"6":{"isOpen":true,"periods":[{"open":660,"close":1380}]}},"original":"Su 11:00-22:00; Mo 11:00-23:00; Tu 11:00-23:00; We 11:00-23:00; Th 11:00-23:00; Fr 11:00-23:00; Sa 11:00-23:00"}},{"id":"do_net_6a107c01","lat":51.5113227841,"lon":7.4655137374,"name":"Rathaus","city":"Dortmund","category":"other","tags":["barrierefrei","nette-toilette"],"operator":"Rathaus","hours":{"type":"unknown"}},{"id":"do_net_66505355","lat":51.5240865606,"lon":7.4669444545,"name":"\"Raum vor Ort\" der kefb","city":"Dortmund","category":"other","tags":["barrierefrei","nette-toilette"],"operator":"\"Raum vor Ort\" der kefb","hours":{"type":"unknown"}},{"id":"do_net_f8d5abe7","lat":51.5520138414,"lon":7.3666279707,"name":"Restaurant Fachwerk","city":"Dortmund","category":"gastro","tags":["barrierefrei","nette-toilette","google_has_restroom","has_restroom"],"operator":"Restaurant Fachwerk","opening_hours":"Su 17:00-22:00; Th 17:00-22:00; Fr 17:00-22:00; Sa 17:00-22:00","hours":{"type":"weekly","weekly":{"0":{"isOpen":true,"periods":[{"open":1020,"close":1320}]},"1":{"isOpen":false,"periods":[]},"2":{"isOpen":false,"periods":[]},"3":{"isOpen":false,"periods":[]},"4":{"isOpen":true,"periods":[{"open":1020,"close":1320}]},"5":{"isOpen":true,"periods":[{"open":1020,"close":1320}]},"6":{"isOpen":true,"periods":[{"open":1020,"close":1320}]}},"original":"Su 17:00-22:00; Th 17:00-22:00; Fr 17:00-22:00; Sa 17:00-22:00"}},{"id":"do_net_3e293c9d","lat":51.5572230534,"lon":7.3821168745,"name":"Restaurant Nette's bei Jelena","city":"Dortmund","category":"gastro","tags":["barrierefrei","nette-toilette","google_has_restroom","has_restroom"],"operator":"Restaurant Nette's bei Jelena","opening_hours":"Su 12:00-21:30; Tu 17:00-22:00; We 17:00-22:00; Th 17:00-22:00; Fr 17:00-22:00; Sa 17:00-22:00","hours":{"type":"weekly","weekly":{"0":{"isOpen":true,"periods":[{"open":720,"close":1290}]},"1":{"isOpen":false,"periods":[]},"2":{"isOpen":true,"periods":[{"open":1020,"close":1320}]},"3":{"isOpen":true,"periods":[{"open":1020,"close":1320}]},"4":{"isOpen":true,"periods":[{"open":1020,"close":1320}]},"5":{"isOpen":true,"periods":[{"open":1020,"close":1320}]},"6":{"isOpen":true,"periods":[{"open":1020,"close":1320}]}},"original":"Su 12:00-21:30; Tu 17:00-22:00; We 17:00-22:00; Th 17:00-22:00; Fr 17:00-22:00; Sa 17:00-22:00"}},{"id":"do_net_d8b0bae0","lat":51.4899680467,"lon":7.5012917493,"name":"Röstwerk","city":"Dortmund","category":"gastro","tags":["barrierefrei","nette-toilette","google_has_restroom","has_restroom"],"operator":"Röstwerk","opening_hours":"Su 11:00-15:00; We 11:00-21:00; Th 11:00-21:00; Fr 11:00-21:00; Sa 11:00-21:00","hours":{"type":"weekly","weekly":{"0":{"isOpen":true,"periods":[{"open":660,"close":900}]},"1":{"isOpen":false,"periods":[]},"2":{"isOpen":false,"periods":[]},"3":{"isOpen":true,"periods":[{"open":660,"close":1260}]},"4":{"isOpen":true,"periods":[{"open":660,"close":1260}]},"5":{"isOpen":true,"periods":[{"open":660,"close":1260}]},"6":{"isOpen":true,"periods":[{"open":660,"close":1260}]}},"original":"Su 11:00-15:00; We 11:00-21:00; Th 11:00-21:00; Fr 11:00-21:00; Sa 11:00-21:00"}},{"id":"do_net_395e45a7","lat":51.5584987931,"lon":7.4559431686,"name":"SG Phönix Eving 13/58 e.V.","city":"Dortmund","category":"other","tags":["barrierefrei","nette-toilette"],"operator":"SG Phönix Eving 13/58 e.V.","hours":{"type":"unknown"}},{"id":"do_net_c2850af4","lat":51.5637801879,"lon":7.383579993,"name":"Sportklause","city":"Dortmund","category":"gastro","tags":["barrierefrei","nette-toilette","google_entrance_accessible","has_restroom"],"operator":"Sportklause","opening_hours":"Su 17:00-03:00; Tu 17:00-23:00; We 17:00-23:00; Th 17:00-23:00; Fr 17:00-03:00; Sa 10:00-13:00,17:00-03:00","hours":{"type":"weekly","weekly":{"0":{"isOpen":true,"periods":[{"open":1020,"close":180}]},"1":{"isOpen":false,"periods":[]},"2":{"isOpen":true,"periods":[{"open":1020,"close":1380}]},"3":{"isOpen":true,"periods":[{"open":1020,"close":1380}]},"4":{"isOpen":true,"periods":[{"open":1020,"close":1380}]},"5":{"isOpen":true,"periods":[{"open":1020,"close":180}]},"6":{"isOpen":true,"periods":[{"open":600,"close":780},{"open":1020,"close":180}]}},"original":"Su 17:00-03:00; Tu 17:00-23:00; We 17:00-23:00; Th 17:00-23:00; Fr 17:00-03:00; Sa 10:00-13:00,17:00-03:00"}},{"id":"do_net_1d58e2ae","lat":51.570612075,"lon":7.3843725735,"name":"Stadtteilbibliothek","city":"Dortmund","category":"other","tags":["barrierefrei","nette-toilette"],"operator":"Stadtteilbibliothek","hours":{"type":"unknown"}},{"id":"do_net_291f20d9","lat":51.5756984622,"lon":7.5684700016,"name":"Steak Haus Alte Post","city":"Dortmund","category":"other","tags":["barrierefrei","nette-toilette"],"operator":"Steak Haus Alte Post","hours":{"type":"unknown"}},{"id":"do_net_5407358b","lat":51.5126189146,"lon":7.3876810849,"name":"SV Arminia Marten","city":"Dortmund","category":"other","tags":["barrierefrei","nette-toilette"],"operator":"SV Arminia Marten","hours":{"type":"unknown"}},{"id":"do_net_f6b4efeb","lat":51.5253420262,"lon":7.4608536228,"name":"Tortys Café","city":"Dortmund","category":"gastro","tags":["barrierefrei","nette-toilette","google_entrance_accessible","has_restroom"],"operator":"Tortys Café","opening_hours":"Su 10:00-18:00; Tu 09:30-18:00; We 09:30-18:00; Th 09:30-18:00; Fr 09:30-18:00; Sa 09:30-18:00","hours":{"type":"weekly","weekly":{"0":{"isOpen":true,"periods":[{"open":600,"close":1080}]},"1":{"isOpen":false,"periods":[]},"2":{"isOpen":true,"periods":[{"open":570,"close":1080}]},"3":{"isOpen":true,"periods":[{"open":570,"close":1080}]},"4":{"isOpen":true,"periods":[{"open":570,"close":1080}]},"5":{"isOpen":true,"periods":[{"open":570,"close":1080}]},"6":{"isOpen":true,"periods":[{"open":570,"close":1080}]}},"original":"Su 10:00-18:00; Tu 09:30-18:00; We 09:30-18:00; Th 09:30-18:00; Fr 09:30-18:00; Sa 09:30-18:00"}},{"id":"do_net_676ef10b","lat":51.546891503,"lon":7.4290186533,"name":"TuS Freiheit Deusen 1910 e.V.","city":"Dortmund","category":"other","tags":["barrierefrei","nette-toilette"],"operator":"TuS Freiheit Deusen 1910 e.V.","hours":{"type":"unknown"}},{"id":"do_net_c66b7f89","lat":51.4756360074,"lon":7.4414926238,"name":"Zum Harkort","city":"Dortmund","category":"gastro","tags":["barrierefrei","nette-toilette","google_has_restroom","has_restroom"],"operator":"Zum Harkort","opening_hours":"Su 11:00-20:00; Tu 11:00-20:00; We 11:00-20:00; Th 11:00-20:00; Fr 11:00-20:00; Sa 11:00-20:00","hours":{"type":"weekly","weekly":{"0":{"isOpen":true,"periods":[{"open":660,"close":1200}]},"1":{"isOpen":false,"periods":[]},"2":{"isOpen":true,"periods":[{"open":660,"close":1200}]},"3":{"isOpen":true,"periods":[{"open":660,"close":1200}]},"4":{"isOpen":true,"periods":[{"open":660,"close":1200}]},"5":{"isOpen":true,"periods":[{"open":660,"close":1200}]},"6":{"isOpen":true,"periods":[{"open":660,"close":1200}]}},"original":"Su 11:00-20:00; Tu 11:00-20:00; We 11:00-20:00; Th 11:00-20:00; Fr 11:00-20:00; Sa 11:00-20:00"}},{"id":"do_net_6800f0ff","lat":51.5007093629,"lon":7.5917579108,"name":"Zur Dorfschänke","city":"Dortmund","category":"other","tags":["barrierefrei","nette-toilette"],"operator":"Zur Dorfschänke","hours":{"type":"unknown"}},{"id":"do_net_5a1231e2","lat":51.5168916963,"lon":7.501616072,"name":"Akzent Hotel Körner Hof","city":"Dortmund","category":"other","tags":["barrierefrei","nette-toilette"],"operator":"Akzent Hotel Körner Hof","hours":{"type":"unknown"}},{"id":"do_net_9a22ec94","lat":51.4976857464,"lon":7.537936258,"name":"Bäckermeister Grobe","city":"Dortmund","category":"other","tags":["barrierefrei","nette-toilette"],"operator":"Bäckermeister Grobe","hours":{"type":"unknown"}},{"id":"do_net_26ea11b1","lat":51.5282367769,"lon":7.5842391852,"name":"Bäckermeister Grobe","city":"Dortmund","category":"other","tags":["barrierefrei","nette-toilette"],"operator":"Bäckermeister Grobe","hours":{"type":"unknown"}},{"id":"do_net_a74f291f","lat":51.4890680025,"lon":7.5010109977,"name":"Bäckermeister Grobe","city":"Dortmund","category":"other","tags":["barrierefrei","nette-toilette"],"operator":"Bäckermeister Grobe","hours":{"type":"unknown"}},{"id":"do_net_d1b4a2e5","lat":51.4778986818,"lon":7.532574884,"name":"Bäckermeister Grobe","city":"Dortmund","category":"gastro","tags":["barrierefrei","nette-toilette","google_entrance_accessible","google_has_restroom","has_restroom"],"operator":"Bäckermeister Grobe","opening_hours":"Su 07:30-17:00; Mo 06:00-18:00; Tu 06:00-18:00; We 06:00-18:00; Th 06:00-18:00; Fr 06:00-18:00; Sa 06:00-15:00","hours":{"type":"weekly","weekly":{"0":{"isOpen":true,"periods":[{"open":450,"close":1020}]},"1":{"isOpen":true,"periods":[{"open":360,"close":1080}]},"2":{"isOpen":true,"periods":[{"open":360,"close":1080}]},"3":{"isOpen":true,"periods":[{"open":360,"close":1080}]},"4":{"isOpen":true,"periods":[{"open":360,"close":1080}]},"5":{"isOpen":true,"periods":[{"open":360,"close":1080}]},"6":{"isOpen":true,"periods":[{"open":360,"close":900}]}},"original":"Su 07:30-17:00; Mo 06:00-18:00; Tu 06:00-18:00; We 06:00-18:00; Th 06:00-18:00; Fr 06:00-18:00; Sa 06:00-15:00"}},{"id":"do_net_1bff94b7","lat":51.4998720733,"lon":7.3367603806,"name":"Bäckermeister Grobe","city":"Dortmund","category":"other","tags":["barrierefrei","nette-toilette"],"operator":"Bäckermeister Grobe","hours":{"type":"unknown"}},{"id":"do_net_918dd83c","lat":51.5523263128,"lon":7.5444761437,"name":"Bezirksverwaltungsstelle","city":"Dortmund","category":"other","tags":["barrierefrei","nette-toilette"],"operator":"Bezirksverwaltungsstelle","hours":{"type":"unknown"}},{"id":"do_net_e9884baf","lat":51.5493086943,"lon":7.4629026453,"name":"Bezirksverwaltungsstelle","city":"Dortmund","category":"other","tags":["barrierefrei","nette-toilette"],"operator":"Bezirksverwaltungsstelle","hours":{"type":"unknown"}},{"id":"do_net_2550f36d","lat":51.5115366096,"lon":7.4476223648,"name":"Biercafé West im Eugen Krautscheid Haus","city":"Dortmund","category":"gastro","tags":["barrierefrei","nette-toilette","google_wc_accessible","has_restroom"],"operator":"Biercafé West im Eugen Krautscheid Haus","opening_hours":"Su 12:00-22:00; Tu 12:00-22:00; We 12:00-22:00; Th 12:00-22:00; Fr 12:00-23:00; Sa 14:00-23:00","hours":{"type":"weekly","weekly":{"0":{"isOpen":true,"periods":[{"open":720,"close":1320}]},"1":{"isOpen":false,"periods":[]},"2":{"isOpen":true,"periods":[{"open":720,"close":1320}]},"3":{"isOpen":true,"periods":[{"open":720,"close":1320}]},"4":{"isOpen":true,"periods":[{"open":720,"close":1320}]},"5":{"isOpen":true,"periods":[{"open":720,"close":1380}]},"6":{"isOpen":true,"periods":[{"open":840,"close":1380}]}},"original":"Su 12:00-22:00; Tu 12:00-22:00; We 12:00-22:00; Th 12:00-22:00; Fr 12:00-23:00; Sa 14:00-23:00"}},{"id":"do_net_5bc6ef3c","lat":51.513297818,"lon":7.4822387523,"name":"Brüderlich Restaurant","city":"Dortmund","category":"gastro","tags":["barrierefrei","nette-toilette","google_has_restroom","has_restroom"],"operator":"Brüderlich Restaurant","opening_hours":"Su 14:00-22:00; Mo 11:30-22:00; Tu 11:30-22:00; We 11:30-22:00; Th 11:30-22:00; Fr 11:30-22:30; Sa 12:00-22:30","hours":{"type":"weekly","weekly":{"0":{"isOpen":true,"periods":[{"open":840,"close":1320}]},"1":{"isOpen":true,"periods":[{"open":690,"close":1320}]},"2":{"isOpen":true,"periods":[{"open":690,"close":1320}]},"3":{"isOpen":true,"periods":[{"open":690,"close":1320}]},"4":{"isOpen":true,"periods":[{"open":690,"close":1320}]},"5":{"isOpen":true,"periods":[{"open":690,"close":1350}]},"6":{"isOpen":true,"periods":[{"open":720,"close":1350}]}},"original":"Su 14:00-22:00; Mo 11:30-22:00; Tu 11:30-22:00; We 11:30-22:00; Th 11:30-22:00; Fr 11:30-22:30; Sa 12:00-22:30"}},{"id":"do_net_dbe48610","lat":51.493407322,"lon":7.5572124069,"name":"Café Allegretto","city":"Dortmund","category":"gastro","tags":["barrierefrei","nette-toilette","google_entrance_accessible","has_restroom"],"operator":"Café Allegretto","opening_hours":"Su 13:00-18:00; Mo 09:00-18:00; Tu 09:00-18:00; We 09:00-18:00; Th 09:00-18:00; Fr 09:00-18:00; Sa 09:00-18:00","hours":{"type":"weekly","weekly":{"0":{"isOpen":true,"periods":[{"open":780,"close":1080}]},"1":{"isOpen":true,"periods":[{"open":540,"close":1080}]},"2":{"isOpen":true,"periods":[{"open":540,"close":1080}]},"3":{"isOpen":true,"periods":[{"open":540,"close":1080}]},"4":{"isOpen":true,"periods":[{"open":540,"close":1080}]},"5":{"isOpen":true,"periods":[{"open":540,"close":1080}]},"6":{"isOpen":true,"periods":[{"open":540,"close":1080}]}},"original":"Su 13:00-18:00; Mo 09:00-18:00; Tu 09:00-18:00; We 09:00-18:00; Th 09:00-18:00; Fr 09:00-18:00; Sa 09:00-18:00"}},{"id":"do_net_4577055f","lat":51.5215737794,"lon":7.4605639215,"name":"Dietrich Keuning Haus","city":"Dortmund","category":"other","tags":["barrierefrei","nette-toilette"],"operator":"Dietrich Keuning Haus","hours":{"type":"unknown"}},{"id":"do_net_405280ad","lat":51.5150953858,"lon":7.4534147017,"name":"Dortmunder U","city":"Dortmund","category":"gastro","tags":["barrierefrei","nette-toilette","google_has_restroom","has_restroom"],"operator":"Dortmunder U","opening_hours":"Fr 23:00-06:00; Sa 23:00-06:00","hours":{"type":"weekly","weekly":{"0":{"isOpen":false,"periods":[]},"1":{"isOpen":false,"periods":[]},"2":{"isOpen":false,"periods":[]},"3":{"isOpen":false,"periods":[]},"4":{"isOpen":false,"periods":[]},"5":{"isOpen":true,"periods":[{"open":1380,"close":360}]},"6":{"isOpen":true,"periods":[{"open":1380,"close":360}]}},"original":"Fr 23:00-06:00; Sa 23:00-06:00"}},{"id":"do_net_38d2e2f0","lat":51.5156572054,"lon":7.5064443134,"name":"Eiscafé San Remo","city":"Dortmund","category":"other","tags":["barrierefrei","nette-toilette"],"operator":"Eiscafé San Remo","hours":{"type":"unknown"}},{"id":"do_net_4e3825cb","lat":51.5628282989,"lon":7.4833583919,"name":"Friedhof Kemminghausen","city":"Dortmund","category":"other","tags":["barrierefrei","nette-toilette"],"operator":"Friedhof Kemminghausen","hours":{"type":"unknown"}},{"id":"do_net_2d6c891b","lat":51.4819317882,"lon":7.4894390362,"name":"Gartenverein - Am grünen Entenpoth","city":"Dortmund","category":"other","tags":["barrierefrei","nette-toilette"],"operator":"Gartenverein - Am grünen Entenpoth","hours":{"type":"unknown"}},{"id":"do_net_dfcdaa1d","lat":51.5054944206,"lon":7.3299211367,"name":"Gastronomie \"Hopfen & Salz\"","city":"Dortmund","category":"other","tags":["barrierefrei","nette-toilette"],"operator":"Gastronomie \"Hopfen & Salz\"","hours":{"type":"unknown"}},{"id":"do_net_054c8a19","lat":51.5325635375,"lon":7.6142890941,"name":"Gaststätte Alter Hellweg","city":"Dortmund","category":"other","tags":["barrierefrei","nette-toilette"],"operator":"Gaststätte Alter Hellweg","hours":{"type":"unknown"}},{"id":"do_net_8c01566a","lat":51.5547615047,"lon":7.4796461609,"name":"Gaststätte Zur Kanne","city":"Dortmund","category":"gastro","tags":["barrierefrei","nette-toilette","google_has_restroom","has_restroom"],"operator":"Gaststätte Zur Kanne","opening_hours":"Su 08:00-23:00; Mo 10:00-23:00; Tu 10:00-23:00; We 10:00-23:00; Th 10:00-23:00; Fr 10:00-23:00; Sa 10:00-23:00","hours":{"type":"weekly","weekly":{"0":{"isOpen":true,"periods":[{"open":480,"close":1380}]},"1":{"isOpen":true,"periods":[{"open":600,"close":1380}]},"2":{"isOpen":true,"periods":[{"open":600,"close":1380}]},"3":{"isOpen":true,"periods":[{"open":600,"close":1380}]},"4":{"isOpen":true,"periods":[{"open":600,"close":1380}]},"5":{"isOpen":true,"periods":[{"open":600,"close":1380}]},"6":{"isOpen":true,"periods":[{"open":600,"close":1380}]}},"original":"Su 08:00-23:00; Mo 10:00-23:00; Tu 10:00-23:00; We 10:00-23:00; Th 10:00-23:00; Fr 10:00-23:00; Sa 10:00-23:00"}},{"id":"do_net_4bed4a2b","lat":51.5127920513,"lon":7.4573582399,"name":"Gesundheitsamt","city":"Dortmund","category":"other","tags":["barrierefrei","nette-toilette"],"operator":"Gesundheitsamt","hours":{"type":"unknown"}},{"id":"do_net_4c882e6e","lat":51.4871495265,"lon":7.5005866444,"name":"Haus Kilp","city":"Dortmund","category":"gastro","tags":["barrierefrei","nette-toilette","google_entrance_accessible","has_restroom"],"operator":"Haus Kilp","opening_hours":"Tu 17:00-00:00; We 16:00-00:00; Th 16:00-00:00; Fr 16:00-05:00; Sa 14:00-05:00","hours":{"type":"weekly","weekly":{"0":{"isOpen":false,"periods":[]},"1":{"isOpen":false,"periods":[]},"2":{"isOpen":true,"periods":[{"open":1020,"close":1440}]},"3":{"isOpen":true,"periods":[{"open":960,"close":1440}]},"4":{"isOpen":true,"periods":[{"open":960,"close":1440}]},"5":{"isOpen":true,"periods":[{"open":960,"close":300}]},"6":{"isOpen":true,"periods":[{"open":840,"close":300}]}},"original":"Tu 17:00-00:00; We 16:00-00:00; Th 16:00-00:00; Fr 16:00-05:00; Sa 14:00-05:00"}},{"id":"do_net_0560d686","lat":51.5668787741,"lon":7.538236123,"name":"KIA Motors","city":"Dortmund","category":"other","tags":["barrierefrei","nette-toilette"],"operator":"KIA Motors","hours":{"type":"unknown"}},{"id":"do_net_6e3792d5","lat":51.4898915208,"lon":7.4346385298,"name":"Kiosk An der Palmweide","city":"Dortmund","category":"other","tags":["barrierefrei","nette-toilette"],"operator":"Kiosk An der Palmweide","hours":{"type":"unknown"}},{"id":"do_net_8af1fa1f","lat":51.5128012615,"lon":7.4831705474,"name":"Küchen-Wirtschaft Bismarck","city":"Dortmund","category":"gastro","tags":["barrierefrei","nette-toilette","google_wc_accessible","has_restroom"],"operator":"Küchen-Wirtschaft Bismarck","opening_hours":"Su 09:00-21:00; Mo 08:30-22:00; Tu 08:30-22:00; We 08:30-22:00; Th 08:30-22:00; Fr 08:30-22:00; Sa 09:00-22:00","hours":{"type":"weekly","weekly":{"0":{"isOpen":true,"periods":[{"open":540,"close":1260}]},"1":{"isOpen":true,"periods":[{"open":510,"close":1320}]},"2":{"isOpen":true,"periods":[{"open":510,"close":1320}]},"3":{"isOpen":true,"periods":[{"open":510,"close":1320}]},"4":{"isOpen":true,"periods":[{"open":510,"close":1320}]},"5":{"isOpen":true,"periods":[{"open":510,"close":1320}]},"6":{"isOpen":true,"periods":[{"open":540,"close":1320}]}},"original":"Su 09:00-21:00; Mo 08:30-22:00; Tu 08:30-22:00; We 08:30-22:00; Th 08:30-22:00; Fr 08:30-22:00; Sa 09:00-22:00"}},{"id":"do_net_aed7a05e","lat":51.5137070909,"lon":7.5076362728,"name":"Pizzeria Am Zehnthof","city":"Dortmund","category":"gastro","tags":["barrierefrei","nette-toilette","google_entrance_accessible","has_restroom"],"operator":"Pizzeria Am Zehnthof","opening_hours":"Su 11:30-22:00; Mo 11:30-22:00; Tu 11:30-22:00; We 11:30-22:00; Th 11:30-22:00; Fr 11:30-22:00; Sa 11:30-22:00","hours":{"type":"weekly","weekly":{"0":{"isOpen":true,"periods":[{"open":690,"close":1320}]},"1":{"isOpen":true,"periods":[{"open":690,"close":1320}]},"2":{"isOpen":true,"periods":[{"open":690,"close":1320}]},"3":{"isOpen":true,"periods":[{"open":690,"close":1320}]},"4":{"isOpen":true,"periods":[{"open":690,"close":1320}]},"5":{"isOpen":true,"periods":[{"open":690,"close":1320}]},"6":{"isOpen":true,"periods":[{"open":690,"close":1320}]}},"original":"Su 11:30-22:00; Mo 11:30-22:00; Tu 11:30-22:00; We 11:30-22:00; Th 11:30-22:00; Fr 11:30-22:00; Sa 11:30-22:00"}},{"id":"do_net_e31788f5","lat":51.5025839334,"lon":7.4175528682,"name":"Pulsschlag - Dorstfelder Bürgerhaus","city":"Dortmund","category":"other","tags":["barrierefrei","nette-toilette"],"operator":"Pulsschlag - Dorstfelder Bürgerhaus","hours":{"type":"unknown"}},{"id":"do_net_5bc97647","lat":51.5449637522,"lon":7.3737553356,"name":"Quartiersmanagement","city":"Dortmund","category":"gastro","tags":["barrierefrei","nette-toilette","google_has_restroom","has_restroom"],"operator":"Quartiersmanagement","opening_hours":"Su 15:00-21:30; Tu 15:00-21:30; We 15:00-21:30; Th 15:00-21:30; Fr 15:00-21:30; Sa 15:00-21:30","hours":{"type":"weekly","weekly":{"0":{"isOpen":true,"periods":[{"open":900,"close":1290}]},"1":{"isOpen":false,"periods":[]},"2":{"isOpen":true,"periods":[{"open":900,"close":1290}]},"3":{"isOpen":true,"periods":[{"open":900,"close":1290}]},"4":{"isOpen":true,"periods":[{"open":900,"close":1290}]},"5":{"isOpen":true,"periods":[{"open":900,"close":1290}]},"6":{"isOpen":true,"periods":[{"open":900,"close":1290}]}},"original":"Su 15:00-21:30; Tu 15:00-21:30; We 15:00-21:30; Th 15:00-21:30; Fr 15:00-21:30; Sa 15:00-21:30"}},{"id":"do_net_a4638227","lat":51.4916341053,"lon":7.5549987457,"name":"Ratskeller","city":"Dortmund","category":"public_24h","tags":["barrierefrei","nette-toilette","eurokey","google_has_restroom","has_restroom"],"operator":"Ratskeller","opening_hours":"Tu 17:30-23:00; We 17:30-23:00; Th 17:30-23:00; Fr 17:30-01:00; Sa 17:30-01:00","hours":{"type":"weekly","weekly":{"0":{"isOpen":false,"periods":[]},"1":{"isOpen":false,"periods":[]},"2":{"isOpen":true,"periods":[{"open":1050,"close":1380}]},"3":{"isOpen":true,"periods":[{"open":1050,"close":1380}]},"4":{"isOpen":true,"periods":[{"open":1050,"close":1380}]},"5":{"isOpen":true,"periods":[{"open":1050,"close":60}]},"6":{"isOpen":true,"periods":[{"open":1050,"close":60}]}},"original":"Tu 17:30-23:00; We 17:30-23:00; Th 17:30-23:00; Fr 17:30-01:00; Sa 17:30-01:00"}},{"id":"do_net_e91f04a8","lat":51.5172690869,"lon":7.4596608667,"name":"Sanifair Dortmund HBF","city":"Dortmund","category":"public_24h","tags":["barrierefrei","nette-toilette","google_has_restroom","google_wc_accessible","has_restroom","sanifair","kostenpflichtig"],"operator":"Sanifair Dortmund HBF","opening_hours":"Su 00:00+","hours":{"type":"unknown","original":"Su 00:00+"},"fee":"yes"},{"id":"do_net_9534ecfd","lat":51.4969394774,"lon":7.5367203592,"name":"Schürener Backparadies","city":"Dortmund","category":"other","tags":["barrierefrei","nette-toilette"],"operator":"Schürener Backparadies","hours":{"type":"unknown"}},{"id":"do_net_288da41c","lat":51.5699210505,"lon":7.3926183572,"name":"Seniorenhaus Hausemannstift","city":"Dortmund","category":"tankstelle","tags":["barrierefrei","nette-toilette"],"operator":"Seniorenhaus Hausemannstift","hours":{"type":"unknown"}},{"id":"do_net_79af8065","lat":51.5725416595,"lon":7.3784156733,"name":"Seniorenpark Mengede","city":"Dortmund","category":"tankstelle","tags":["barrierefrei","nette-toilette"],"operator":"Seniorenpark Mengede","hours":{"type":"unknown"}},{"id":"do_net_09b1cd6a","lat":51.5487368918,"lon":7.4596174504,"name":"Sonnenhof","city":"Dortmund","category":"other","tags":["barrierefrei","nette-toilette"],"operator":"Sonnenhof","hours":{"type":"unknown"}},{"id":"do_net_896c303c","lat":51.5106433953,"lon":7.4588700868,"name":"Sozialamt","city":"Dortmund","category":"other","tags":["barrierefrei","nette-toilette"],"operator":"Sozialamt","hours":{"type":"unknown"}},{"id":"do_net_61e937af","lat":51.5171089913,"lon":7.462685615,"name":"Städtische Immobilienwirtschaft","city":"Dortmund","category":"other","tags":["barrierefrei","nette-toilette"],"operator":"Städtische Immobilienwirtschaft","hours":{"type":"unknown"}},{"id":"do_net_3109b4d2","lat":51.5165190113,"lon":7.4608508881,"name":"Stadt- und Landesbibliothek","city":"Dortmund","category":"gastro","tags":["barrierefrei","nette-toilette","google_entrance_accessible","has_restroom"],"operator":"Stadt- und Landesbibliothek","opening_hours":"Su 10:30-20:00; Mo 09:30-22:30; Tu 09:30-22:30; We 09:30-22:30; Th 09:30-22:30; Fr 09:30-22:30; Sa 09:30-22:30","hours":{"type":"weekly","weekly":{"0":{"isOpen":true,"periods":[{"open":630,"close":1200}]},"1":{"isOpen":true,"periods":[{"open":570,"close":1350}]},"2":{"isOpen":true,"periods":[{"open":570,"close":1350}]},"3":{"isOpen":true,"periods":[{"open":570,"close":1350}]},"4":{"isOpen":true,"periods":[{"open":570,"close":1350}]},"5":{"isOpen":true,"periods":[{"open":570,"close":1350}]},"6":{"isOpen":true,"periods":[{"open":570,"close":1350}]}},"original":"Su 10:30-20:00; Mo 09:30-22:30; Tu 09:30-22:30; We 09:30-22:30; Th 09:30-22:30; Fr 09:30-22:30; Sa 09:30-22:30"}},{"id":"do_net_4bcbf8c9","lat":51.5658516369,"lon":7.3697652448,"name":"Tagespflege Am Königshalt","city":"Dortmund","category":"other","tags":["barrierefrei","nette-toilette","google_has_restroom","has_restroom"],"operator":"Tagespflege Am Königshalt","opening_hours":"Mo 16:00-20:30; Tu 10:00-12:30,17:30-20:30; We 16:00-20:45; Th 10:00-11:30,17:30-20:30; Fr 17:00-19:45; Sa 10:45-11:15","hours":{"type":"weekly","weekly":{"0":{"isOpen":false,"periods":[]},"1":{"isOpen":true,"periods":[{"open":960,"close":1230}]},"2":{"isOpen":true,"periods":[{"open":600,"close":750},{"open":1050,"close":1230}]},"3":{"isOpen":true,"periods":[{"open":960,"close":1245}]},"4":{"isOpen":true,"periods":[{"open":600,"close":690},{"open":1050,"close":1230}]},"5":{"isOpen":true,"periods":[{"open":1020,"close":1185}]},"6":{"isOpen":true,"periods":[{"open":645,"close":675}]}},"original":"Mo 16:00-20:30; Tu 10:00-12:30,17:30-20:30; We 16:00-20:45; Th 10:00-11:30,17:30-20:30; Fr 17:00-19:45; Sa 10:45-11:15"}},{"id":"do_net_0996151c","lat":51.5523810758,"lon":7.5457233843,"name":"Zum Brunnen","city":"Dortmund","category":"gastro","tags":["barrierefrei","nette-toilette","google_entrance_accessible","has_restroom"],"operator":"Zum Brunnen","opening_hours":"Su 09:00-13:00; Mo 09:00-13:00; Tu 09:00-13:00,18:00-22:00; We 09:00-13:00,18:00-22:00; Th 09:00-13:00,18:00-22:00; Fr 09:00-13:00,18:00-22:00; Sa 09:00-13:00,18:00-22:00","hours":{"type":"weekly","weekly":{"0":{"isOpen":true,"periods":[{"open":540,"close":780}]},"1":{"isOpen":true,"periods":[{"open":540,"close":780}]},"2":{"isOpen":true,"periods":[{"open":540,"close":780},{"open":1080,"close":1320}]},"3":{"isOpen":true,"periods":[{"open":540,"close":780},{"open":1080,"close":1320}]},"4":{"isOpen":true,"periods":[{"open":540,"close":780},{"open":1080,"close":1320}]},"5":{"isOpen":true,"periods":[{"open":540,"close":780},{"open":1080,"close":1320}]},"6":{"isOpen":true,"periods":[{"open":540,"close":780},{"open":1080,"close":1320}]}},"original":"Su 09:00-13:00; Mo 09:00-13:00; Tu 09:00-13:00,18:00-22:00; We 09:00-13:00,18:00-22:00; Th 09:00-13:00,18:00-22:00; Fr 09:00-13:00,18:00-22:00; Sa 09:00-13:00,18:00-22:00"}},{"id":"do_net_c57aed95","lat":51.5623183867,"lon":7.5184614428,"name":"Zweirad Frischmuth","city":"Dortmund","category":"other","tags":["barrierefrei","nette-toilette"],"operator":"Zweirad Frischmuth","hours":{"type":"unknown"}},{"id":"do_net_e67c8f77","lat":51.5308339376,"lon":7.4142017594,"name":"Öffentliche Toilette","city":"Dortmund","category":"other","tags":["barrierefrei","nette-toilette"],"operator":null,"hours":{"type":"unknown"}},{"id":"do_acc_c165f7cf","lat":51.5089750168,"lon":7.4468599364,"name":"Öffentliche Toilette","city":"Dortmund","category":"public_24h","tags":["barrierefrei","eurokey","google_entrance_accessible","has_restroom"],"operator":"Öffentliche Toilette","opening_hours":"Su 11:00-00:00; Mo 11:00-00:00; Tu 11:00-00:00; We 11:00-00:00; Th 11:00-00:00; Fr 11:00-00:00; Sa 11:00-00:00","hours":{"type":"weekly","weekly":{"0":{"isOpen":true,"periods":[{"open":660,"close":1440}]},"1":{"isOpen":true,"periods":[{"open":660,"close":1440}]},"2":{"isOpen":true,"periods":[{"open":660,"close":1440}]},"3":{"isOpen":true,"periods":[{"open":660,"close":1440}]},"4":{"isOpen":true,"periods":[{"open":660,"close":1440}]},"5":{"isOpen":true,"periods":[{"open":660,"close":1440}]},"6":{"isOpen":true,"periods":[{"open":660,"close":1440}]}},"original":"Su 11:00-00:00; Mo 11:00-00:00; Tu 11:00-00:00; We 11:00-00:00; Th 11:00-00:00; Fr 11:00-00:00; Sa 11:00-00:00"}},{"id":"do_acc_cf82d5d8","lat":51.5239349081,"lon":7.5506250695,"name":"Öffentliche Toilette","city":"Dortmund","category":"public_24h","tags":["barrierefrei","eurokey","google_has_restroom","has_restroom"],"operator":"Öffentliche Toilette","opening_hours":"Su 11:30-21:00; Tu 11:30-21:00; We 11:30-21:00; Th 11:30-21:00; Fr 11:30-21:00; Sa 11:30-21:00","hours":{"type":"weekly","weekly":{"0":{"isOpen":true,"periods":[{"open":690,"close":1260}]},"1":{"isOpen":false,"periods":[]},"2":{"isOpen":true,"periods":[{"open":690,"close":1260}]},"3":{"isOpen":true,"periods":[{"open":690,"close":1260}]},"4":{"isOpen":true,"periods":[{"open":690,"close":1260}]},"5":{"isOpen":true,"periods":[{"open":690,"close":1260}]},"6":{"isOpen":true,"periods":[{"open":690,"close":1260}]}},"original":"Su 11:30-21:00; Tu 11:30-21:00; We 11:30-21:00; Th 11:30-21:00; Fr 11:30-21:00; Sa 11:30-21:00"}},{"id":"do_acc_0ee9b3a7","lat":51.5092446499,"lon":7.3800047006,"name":"Öffentliche Toilette","city":"Dortmund","category":"public_24h","tags":["barrierefrei","eurokey"],"operator":"Öffentliche Toilette","hours":{"type":"unknown"}},{"id":"do_acc_2acc127b","lat":51.5000248056,"lon":7.333426576,"name":"Öffentliche Toilette","city":"Dortmund","category":"public_24h","tags":["barrierefrei","eurokey"],"operator":"Öffentliche Toilette","hours":{"type":"unknown"}},{"id":"do_acc_21f157fd","lat":51.4918938257,"lon":7.5081609138,"name":"Öffentliche Toilette","city":"Dortmund","category":"public_24h","tags":["barrierefrei","eurokey"],"operator":"Öffentliche Toilette","hours":{"type":"unknown"}},{"id":"do_acc_78170285","lat":51.5129291871,"lon":7.4228998002,"name":"Öffentliche Toilette","city":"Dortmund","category":"public_24h","tags":["barrierefrei","eurokey"],"operator":"Öffentliche Toilette","hours":{"type":"unknown"}},{"id":"do_acc_d90e8ea6","lat":51.5712040322,"lon":7.3814156195,"name":"Öffentliche Toilette","city":"Dortmund","category":"public_24h","tags":["barrierefrei","eurokey","google_entrance_accessible","has_restroom"],"operator":"Öffentliche Toilette","opening_hours":"Su 09:00-19:00; Mo 08:00-19:00; Tu 08:00-19:00; We 08:00-19:00; Th 08:00-19:00; Fr 08:00-19:00; Sa 08:00-19:00","hours":{"type":"weekly","weekly":{"0":{"isOpen":true,"periods":[{"open":540,"close":1140}]},"1":{"isOpen":true,"periods":[{"open":480,"close":1140}]},"2":{"isOpen":true,"periods":[{"open":480,"close":1140}]},"3":{"isOpen":true,"periods":[{"open":480,"close":1140}]},"4":{"isOpen":true,"periods":[{"open":480,"close":1140}]},"5":{"isOpen":true,"periods":[{"open":480,"close":1140}]},"6":{"isOpen":true,"periods":[{"open":480,"close":1140}]}},"original":"Su 09:00-19:00; Mo 08:00-19:00; Tu 08:00-19:00; We 08:00-19:00; Th 08:00-19:00; Fr 08:00-19:00; Sa 08:00-19:00"}},{"id":"do_acc_70abb0f6","lat":51.5139912372,"lon":7.4725738075,"name":"Öffentliche Toilette","city":"Dortmund","category":"public_24h","tags":["barrierefrei","eurokey","google_has_restroom","has_restroom"],"operator":"Öffentliche Toilette","opening_hours":"Su 10:00-22:00; Mo 10:00-23:00; Tu 10:00-23:00; We 10:00-23:00; Th 10:00-23:00; Fr 10:00-23:00; Sa 10:00-23:00","hours":{"type":"weekly","weekly":{"0":{"isOpen":true,"periods":[{"open":600,"close":1320}]},"1":{"isOpen":true,"periods":[{"open":600,"close":1380}]},"2":{"isOpen":true,"periods":[{"open":600,"close":1380}]},"3":{"isOpen":true,"periods":[{"open":600,"close":1380}]},"4":{"isOpen":true,"periods":[{"open":600,"close":1380}]},"5":{"isOpen":true,"periods":[{"open":600,"close":1380}]},"6":{"isOpen":true,"periods":[{"open":600,"close":1380}]}},"original":"Su 10:00-22:00; Mo 10:00-23:00; Tu 10:00-23:00; We 10:00-23:00; Th 10:00-23:00; Fr 10:00-23:00; Sa 10:00-23:00"}},{"id":"do_acc_c936b3a2","lat":51.5131339583,"lon":7.4851048108,"name":"Öffentliche Toilette","city":"Dortmund","category":"public_24h","tags":["barrierefrei","eurokey"],"operator":"Öffentliche Toilette","hours":{"type":"unknown"}},{"id":"do_acc_dccc1305","lat":51.555052638,"lon":7.4734866914,"name":"Öffentliche Toilette","city":"Dortmund","category":"public_24h","tags":["barrierefrei","eurokey"],"operator":"Öffentliche Toilette","hours":{"type":"unknown"}},{"id":"do_acc_5c3c4ba2","lat":51.4968465045,"lon":7.4587196178,"name":"Öffentliche Toilette","city":"Dortmund","category":"public_24h","tags":["barrierefrei","eurokey"],"operator":"Öffentliche Toilette","hours":{"type":"unknown"}},{"id":"do_acc_fa52c381","lat":51.4893391843,"lon":7.5025496176,"name":"Öffentliche Toilette","city":"Dortmund","category":"public_24h","tags":["barrierefrei","eurokey"],"operator":"Öffentliche Toilette","hours":{"type":"unknown"}},{"id":"do_acc_7d35fa18","lat":51.5307232871,"lon":7.4133089704,"name":"Öffentliche Toilette","city":"Dortmund","category":"public_24h","tags":["barrierefrei","eurokey"],"operator":"Öffentliche Toilette","hours":{"type":"unknown"}},{"id":"do_acc_1dc50e47","lat":51.5122647562,"lon":7.4671420925,"name":"Öffentliche Toilette","city":"Dortmund","category":"public_24h","tags":["barrierefrei","eurokey"],"operator":"Öffentliche Toilette","hours":{"type":"unknown"}},{"id":"do_acc_eae8c2e1","lat":51.5525188124,"lon":7.5415831463,"name":"Öffentliche Toilette","city":"Dortmund","category":"public_24h","tags":["barrierefrei","eurokey","google_entrance_accessible","has_restroom"],"operator":"Öffentliche Toilette","opening_hours":"Su 12:00-22:00; Mo 11:00-22:00; Tu 11:00-22:00; We 11:00-22:00; Th 11:00-22:00; Fr 11:00-22:00; Sa 11:00-22:00","hours":{"type":"weekly","weekly":{"0":{"isOpen":true,"periods":[{"open":720,"close":1320}]},"1":{"isOpen":true,"periods":[{"open":660,"close":1320}]},"2":{"isOpen":true,"periods":[{"open":660,"close":1320}]},"3":{"isOpen":true,"periods":[{"open":660,"close":1320}]},"4":{"isOpen":true,"periods":[{"open":660,"close":1320}]},"5":{"isOpen":true,"periods":[{"open":660,"close":1320}]},"6":{"isOpen":true,"periods":[{"open":660,"close":1320}]}},"original":"Su 12:00-22:00; Mo 11:00-22:00; Tu 11:00-22:00; We 11:00-22:00; Th 11:00-22:00; Fr 11:00-22:00; Sa 11:00-22:00"}},{"id":"do_acc_4644f2b9","lat":51.5213011604,"lon":7.450442354,"name":"Öffentliche Toilette","city":"Dortmund","category":"public_24h","tags":["barrierefrei","eurokey"],"operator":"Öffentliche Toilette","hours":{"type":"unknown"}},{"id":"do_acc_a8e3b7af","lat":51.488710258,"lon":7.5132130444,"name":"Öffentliche Toilette","city":"Dortmund","category":"public_24h","tags":["barrierefrei","eurokey"],"operator":"Öffentliche Toilette","hours":{"type":"unknown"}},{"id":"do_acc_dc923331","lat":51.4761941262,"lon":7.4378747569,"name":"Öffentliche Toilette","city":"Dortmund","category":"public_24h","tags":["barrierefrei","eurokey","google_wc_accessible","has_restroom"],"operator":"Öffentliche Toilette","opening_hours":"Su 12:30-22:30; Mo 11:00-22:30; We 11:00-22:30; Th 11:00-22:30; Fr 11:00-22:30; Sa 11:00-22:30","hours":{"type":"weekly","weekly":{"0":{"isOpen":true,"periods":[{"open":750,"close":1350}]},"1":{"isOpen":true,"periods":[{"open":660,"close":1350}]},"2":{"isOpen":false,"periods":[]},"3":{"isOpen":true,"periods":[{"open":660,"close":1350}]},"4":{"isOpen":true,"periods":[{"open":660,"close":1350}]},"5":{"isOpen":true,"periods":[{"open":660,"close":1350}]},"6":{"isOpen":true,"periods":[{"open":660,"close":1350}]}},"original":"Su 12:30-22:30; Mo 11:00-22:30; We 11:00-22:30; Th 11:00-22:30; Fr 11:00-22:30; Sa 11:00-22:30"}},{"id":"do_hbf_sanifair","lat":51.5178,"lon":7.4593,"name":"Dortmund Hauptbahnhof (SANIFAIR)","city":"Dortmund","category":"station","tags":["barrierefrei","eurokey","wickeltisch"],"opening_hours":"04:30-01:00","operator":"SANIFAIR","fee":"yes","hours":{"type":"weekly","weekly":{"0":{"isOpen":true,"periods":[{"open":270,"close":60}]},"1":{"isOpen":true,"periods":[{"open":270,"close":60}]},"2":{"isOpen":true,"periods":[{"open":270,"close":60}]},"3":{"isOpen":true,"periods":[{"open":270,"close":60}]},"4":{"isOpen":true,"periods":[{"open":270,"close":60}]},"5":{"isOpen":true,"periods":[{"open":270,"close":60}]},"6":{"isOpen":true,"periods":[{"open":270,"close":60}]}},"original":"04:30-01:00"}},{"id":"do_wall_ecn","lat":51.5141,"lon":7.4645,"name":"Wall ECN Toilette","city":"Dortmund","category":"public_24h","tags":["barrierefrei","eurokey","google_wc_accessible","has_restroom"],"opening_hours":"24/7","operator":"Stadt Dortmund","hours":{"type":"24_7"}},{"id":"do_hansaplatz","lat":51.5125,"lon":7.4615,"name":"Hansaplatz WC-Anlage","city":"Dortmund","category":"public_24h","tags":["barrierefrei","eurokey"],"opening_hours":"06:00-23:00","operator":"Stadt Dortmund","hours":{"type":"weekly","weekly":{"0":{"isOpen":true,"periods":[{"open":360,"close":1380}]},"1":{"isOpen":true,"periods":[{"open":360,"close":1380}]},"2":{"isOpen":true,"periods":[{"open":360,"close":1380}]},"3":{"isOpen":true,"periods":[{"open":360,"close":1380}]},"4":{"isOpen":true,"periods":[{"open":360,"close":1380}]},"5":{"isOpen":true,"periods":[{"open":360,"close":1380}]},"6":{"isOpen":true,"periods":[{"open":360,"close":1380}]}},"original":"06:00-23:00"}},{"id":"do_signal_iduna","lat":51.4926,"lon":7.4518,"name":"Signal Iduna Park (BVB Stadion)","city":"Dortmund","category":"other","tags":["barrierefrei","eurokey"],"opening_hours":"match days / events","operator":"BVB","hours":{"type":"unknown","original":"match days / events"}},{"id":"do_shell_city","lat":51.5145,"lon":7.455,"name":"Shell (Ruhrallee / City)","city":"Dortmund","category":"tankstelle","tags":["barrierefrei"],"opening_hours":"24/7","operator":"Shell","hours":{"type":"24_7"}},{"id":"do_aral_westfalenhallen","lat":51.493,"lon":7.46,"name":"Aral (Westfalenhallen)","city":"Dortmund","category":"tankstelle","tags":["barrierefrei"],"opening_hours":"24/7","operator":"Aral","hours":{"type":"24_7"}},{"id":"do_jet_hoerde","lat":51.485,"lon":7.501,"name":"JET Tankstelle (Hörde)","city":"Dortmund","category":"tankstelle","tags":["barrierefrei"],"opening_hours":"24/7","operator":"JET","hours":{"type":"24_7"}},{"id":"do_total_mengede","lat":51.572,"lon":7.386,"name":"TotalEnergies (Mengede)","city":"Dortmund","category":"tankstelle","tags":["barrierefrei"],"opening_hours":"24/7","operator":"TotalEnergies","hours":{"type":"24_7"}},{"id":"do_shell_a45","lat":51.475,"lon":7.52,"name":"Shell (A45 Raststätte Dortmund-Süd)","city":"Dortmund","category":"tankstelle","tags":["barrierefrei","eurokey"],"opening_hours":"24/7","operator":"Shell","hours":{"type":"24_7"}},{"id":"do_aral_a2","lat":51.536,"lon":7.425,"name":"Aral (A2 Raststätte Dortmund-Nord)","city":"Dortmund","category":"tankstelle","tags":["barrierefrei","eurokey"],"opening_hours":"24/7","operator":"Aral","hours":{"type":"24_7"}},{"id":"do_mcdonalds_westenhellweg","lat":51.513,"lon":7.465,"name":"McDonald's (Westenhellweg)","city":"Dortmund","category":"gastro","tags":["barrierefrei","google_has_restroom","has_restroom"],"opening_hours":"24/7","operator":"McDonald's","hours":{"type":"24_7"}},{"id":"do_mcdonalds_hoerde","lat":51.48,"lon":7.505,"name":"McDonald's (Hörde)","city":"Dortmund","category":"gastro","tags":["barrierefrei"],"opening_hours":"24/7","operator":"McDonald's","hours":{"type":"24_7"}},{"id":"do_mcdonalds_a40","lat":51.515,"lon":7.38,"name":"McDonald's (A40 Autobahn)","city":"Dortmund","category":"gastro","tags":["barrierefrei"],"opening_hours":"24/7","operator":"McDonald's","hours":{"type":"24_7"}},{"id":"do_klinikum_mitte","lat":51.4953,"lon":7.4055,"name":"Klinikum Dortmund (Mitte)","city":"Dortmund","category":"other","tags":["barrierefrei","eurokey"],"opening_hours":"24/7","operator":"Klinikum Dortmund","hours":{"type":"24_7"}},{"id":"do_klinikum_west","lat":51.5118,"lon":7.4365,"name":"Klinikum Dortmund (West)","city":"Dortmund","category":"other","tags":["barrierefrei","eurokey"],"opening_hours":"24/7","operator":"Klinikum Dortmund","hours":{"type":"24_7"}},{"id":"do_polizei_hbf","lat":51.518,"lon":7.46,"name":"Polizeiinspektion (Hauptbahnhof)","city":"Dortmund","category":"gastro","tags":["barrierefrei"],"opening_hours":"24/7","operator":"Polizei","fee":"no","hours":{"type":"24_7"}},{"id":"do_nightrooms","lat":51.515,"lon":7.465,"name":"Nightrooms (Club)","city":"Dortmund","category":"gastro","tags":["barrierefrei"],"opening_hours":"Fr-Sa 23:00-06:00","operator":"Nightrooms","hours":{"type":"weekly","weekly":{"0":{"isOpen":false,"periods":[]},"1":{"isOpen":false,"periods":[]},"2":{"isOpen":false,"periods":[]},"3":{"isOpen":false,"periods":[]},"4":{"isOpen":false,"periods":[]},"5":{"isOpen":true,"periods":[{"open":1380,"close":360}]},"6":{"isOpen":true,"periods":[{"open":1380,"close":360}]}},"original":"Fr-Sa 23:00-06:00"}},{"id":"do_prisma","lat":51.513,"lon":7.468,"name":"Prisma (Club)","city":"Dortmund","category":"gastro","tags":["barrierefrei"],"opening_hours":"Fr-Sa 23:00-06:00","operator":"Prisma","hours":{"type":"weekly","weekly":{"0":{"isOpen":false,"periods":[]},"1":{"isOpen":false,"periods":[]},"2":{"isOpen":false,"periods":[]},"3":{"isOpen":false,"periods":[]},"4":{"isOpen":false,"periods":[]},"5":{"isOpen":true,"periods":[{"open":1380,"close":360}]},"6":{"isOpen":true,"periods":[{"open":1380,"close":360}]}},"original":"Fr-Sa 23:00-06:00"}},{"id":"do_fzw","lat":51.498,"lon":7.45,"name":"FZW (Club & Kulturzentrum)","city":"Dortmund","category":"gastro","tags":["barrierefrei"],"opening_hours":"Fr-Sa 22:00-05:00","operator":"FZW Dortmund","hours":{"type":"weekly","weekly":{"0":{"isOpen":false,"periods":[]},"1":{"isOpen":false,"periods":[]},"2":{"isOpen":false,"periods":[]},"3":{"isOpen":false,"periods":[]},"4":{"isOpen":false,"periods":[]},"5":{"isOpen":true,"periods":[{"open":1320,"close":300}]},"6":{"isOpen":true,"periods":[{"open":1320,"close":300}]}},"original":"Fr-Sa 22:00-05:00"}},{"id":"do_ringlokschuppen","lat":51.495,"lon":7.455,"name":"Ringlokschuppen (Biergarten & Club)","city":"Dortmund","category":"gastro","tags":["barrierefrei"],"opening_hours":"Fr-Sa 20:00-04:00","operator":"Ringlokschuppen","hours":{"type":"weekly","weekly":{"0":{"isOpen":false,"periods":[]},"1":{"isOpen":false,"periods":[]},"2":{"isOpen":false,"periods":[]},"3":{"isOpen":false,"periods":[]},"4":{"isOpen":false,"periods":[]},"5":{"isOpen":true,"periods":[{"open":1200,"close":240}]},"6":{"isOpen":true,"periods":[{"open":1200,"close":240}]}},"original":"Fr-Sa 20:00-04:00"}},{"id":"do_sonic","lat":51.515,"lon":7.468,"name":"Sonic (Club)","city":"Dortmund","category":"gastro","tags":["barrierefrei"],"opening_hours":"Fr-Sa 23:00-06:00","operator":"Sonic Club","hours":{"type":"weekly","weekly":{"0":{"isOpen":false,"periods":[]},"1":{"isOpen":false,"periods":[]},"2":{"isOpen":false,"periods":[]},"3":{"isOpen":false,"periods":[]},"4":{"isOpen":false,"periods":[]},"5":{"isOpen":true,"periods":[{"open":1380,"close":360}]},"6":{"isOpen":true,"periods":[{"open":1380,"close":360}]}},"original":"Fr-Sa 23:00-06:00"}},{"id":"do_mogli","lat":51.513,"lon":7.467,"name":"Mogli (Bar)","city":"Dortmund","category":"gastro","tags":["barrierefrei"],"opening_hours":"Mo-Sa 18:00-03:00","operator":"Mogli","hours":{"type":"weekly","weekly":{"0":{"isOpen":false,"periods":[]},"1":{"isOpen":true,"periods":[{"open":1080,"close":180}]},"2":{"isOpen":true,"periods":[{"open":1080,"close":180}]},"3":{"isOpen":true,"periods":[{"open":1080,"close":180}]},"4":{"isOpen":true,"periods":[{"open":1080,"close":180}]},"5":{"isOpen":true,"periods":[{"open":1080,"close":180}]},"6":{"isOpen":true,"periods":[{"open":1080,"close":180}]}},"original":"Mo-Sa 18:00-03:00"}},{"id":"do_bierermann","lat":51.513,"lon":7.466,"name":"Biere-Mann (Kneipe)","city":"Dortmund","category":"gastro","tags":["barrierefrei","google_entrance_accessible","has_restroom"],"opening_hours":"Mo-Sa 17:00-02:00","operator":"Biere-Mann","hours":{"type":"weekly","weekly":{"0":{"isOpen":false,"periods":[]},"1":{"isOpen":true,"periods":[{"open":1020,"close":120}]},"2":{"isOpen":true,"periods":[{"open":1020,"close":120}]},"3":{"isOpen":true,"periods":[{"open":1020,"close":120}]},"4":{"isOpen":true,"periods":[{"open":1020,"close":120}]},"5":{"isOpen":true,"periods":[{"open":1020,"close":120}]},"6":{"isOpen":true,"periods":[{"open":1020,"close":120}]}},"original":"Mo-Sa 17:00-02:00"}},{"id":"do_hovels","lat":51.515,"lon":7.463,"name":"Hövels Hausbrauerei","city":"Dortmund","category":"gastro","tags":["barrierefrei"],"opening_hours":"Mo-Sa 17:00-01:00","operator":"Hövels","hours":{"type":"weekly","weekly":{"0":{"isOpen":false,"periods":[]},"1":{"isOpen":true,"periods":[{"open":1020,"close":60}]},"2":{"isOpen":true,"periods":[{"open":1020,"close":60}]},"3":{"isOpen":true,"periods":[{"open":1020,"close":60}]},"4":{"isOpen":true,"periods":[{"open":1020,"close":60}]},"5":{"isOpen":true,"periods":[{"open":1020,"close":60}]},"6":{"isOpen":true,"periods":[{"open":1020,"close":60}]}},"original":"Mo-Sa 17:00-01:00"}},{"id":"do_pantheon","lat":51.495,"lon":7.45,"name":"Pantheon (Club - Strobelallee)","city":"Dortmund","category":"gastro","tags":["barrierefrei"],"opening_hours":"Fr-Sa 22:00-05:00","operator":"Pantheon","hours":{"type":"weekly","weekly":{"0":{"isOpen":false,"periods":[]},"1":{"isOpen":false,"periods":[]},"2":{"isOpen":false,"periods":[]},"3":{"isOpen":false,"periods":[]},"4":{"isOpen":false,"periods":[]},"5":{"isOpen":true,"periods":[{"open":1320,"close":300}]},"6":{"isOpen":true,"periods":[{"open":1320,"close":300}]}},"original":"Fr-Sa 22:00-05:00"}},{"id":"do_bullwinkel","lat":51.487,"lon":7.505,"name":"Bullwinkel (Hörde - Bar)","city":"Dortmund","category":"gastro","tags":["barrierefrei"],"opening_hours":"Mo-Sa 18:00-03:00","operator":"Bullwinkel","hours":{"type":"weekly","weekly":{"0":{"isOpen":false,"periods":[]},"1":{"isOpen":true,"periods":[{"open":1080,"close":180}]},"2":{"isOpen":true,"periods":[{"open":1080,"close":180}]},"3":{"isOpen":true,"periods":[{"open":1080,"close":180}]},"4":{"isOpen":true,"periods":[{"open":1080,"close":180}]},"5":{"isOpen":true,"periods":[{"open":1080,"close":180}]},"6":{"isOpen":true,"periods":[{"open":1080,"close":180}]}},"original":"Mo-Sa 18:00-03:00"}},{"id":"do_subrosa","lat":51.512,"lon":7.468,"name":"Subrosa (Bar)","city":"Dortmund","category":"gastro","tags":["barrierefrei"],"opening_hours":"Mo-Sa 19:00-03:00","operator":"Subrosa","hours":{"type":"weekly","weekly":{"0":{"isOpen":false,"periods":[]},"1":{"isOpen":true,"periods":[{"open":1140,"close":180}]},"2":{"isOpen":true,"periods":[{"open":1140,"close":180}]},"3":{"isOpen":true,"periods":[{"open":1140,"close":180}]},"4":{"isOpen":true,"periods":[{"open":1140,"close":180}]},"5":{"isOpen":true,"periods":[{"open":1140,"close":180}]},"6":{"isOpen":true,"periods":[{"open":1140,"close":180}]}},"original":"Mo-Sa 19:00-03:00"}},{"id":"do_pilgrim","lat":51.514,"lon":7.469,"name":"Pilgrim (Bar & Club)","city":"Dortmund","category":"gastro","tags":["barrierefrei"],"opening_hours":"Fr-Sa 22:00-05:00","operator":"Pilgrim","hours":{"type":"weekly","weekly":{"0":{"isOpen":false,"periods":[]},"1":{"isOpen":false,"periods":[]},"2":{"isOpen":false,"periods":[]},"3":{"isOpen":false,"periods":[]},"4":{"isOpen":false,"periods":[]},"5":{"isOpen":true,"periods":[{"open":1320,"close":300}]},"6":{"isOpen":true,"periods":[{"open":1320,"close":300}]}},"original":"Fr-Sa 22:00-05:00"}},{"id":"do_maximal","lat":51.495,"lon":7.452,"name":"Maximal (Club)","city":"Dortmund","category":"gastro","tags":["barrierefrei"],"opening_hours":"Fr-Sa 23:00-06:00","operator":"Maximal","hours":{"type":"weekly","weekly":{"0":{"isOpen":false,"periods":[]},"1":{"isOpen":false,"periods":[]},"2":{"isOpen":false,"periods":[]},"3":{"isOpen":false,"periods":[]},"4":{"isOpen":false,"periods":[]},"5":{"isOpen":true,"periods":[{"open":1380,"close":360}]},"6":{"isOpen":true,"periods":[{"open":1380,"close":360}]}},"original":"Fr-Sa 23:00-06:00"}},{"id":"fuel_25419330","lat":51.6222148,"lon":7.5156783,"name":"BFT","city":"","category":"tankstelle","tags":[],"opening_hours":"Mo-Fr 06:00-23:00; Sa 07:00-23:00; Su 08:00-23:00","operator":"bft","hours":{"type":"weekly","weekly":{"0":{"isOpen":true,"periods":[{"open":480,"close":1380}]},"1":{"isOpen":true,"periods":[{"open":360,"close":1380}]},"2":{"isOpen":true,"periods":[{"open":360,"close":1380}]},"3":{"isOpen":true,"periods":[{"open":360,"close":1380}]},"4":{"isOpen":true,"periods":[{"open":360,"close":1380}]},"5":{"isOpen":true,"periods":[{"open":360,"close":1380}]},"6":{"isOpen":true,"periods":[{"open":420,"close":1380}]}},"original":"Mo-Fr 06:00-23:00; Sa 07:00-23:00; Su 08:00-23:00"}},{"id":"fuel_27432384","lat":51.5640905,"lon":7.0848869,"name":"Markant","city":"Gelsenkirchen","category":"tankstelle","tags":[],"operator":"Markant","opening_hours":"Su 08:00-22:00; Mo 07:00-22:00; Tu 07:00-22:00; We 07:00-22:00; Th 07:00-22:00; Fr 07:00-22:00; Sa 07:00-22:00","gplace_id":"ChIJz7HG19rluEcRJUGuKN8VhB4","hours":{"type":"weekly","weekly":{"0":{"isOpen":true,"periods":[{"open":480,"close":1320}]},"1":{"isOpen":true,"periods":[{"open":420,"close":1320}]},"2":{"isOpen":true,"periods":[{"open":420,"close":1320}]},"3":{"isOpen":true,"periods":[{"open":420,"close":1320}]},"4":{"isOpen":true,"periods":[{"open":420,"close":1320}]},"5":{"isOpen":true,"periods":[{"open":420,"close":1320}]},"6":{"isOpen":true,"periods":[{"open":420,"close":1320}]}},"original":"Su 08:00-22:00; Mo 07:00-22:00; Tu 07:00-22:00; We 07:00-22:00; Th 07:00-22:00; Fr 07:00-22:00; Sa 07:00-22:00"}},{"id":"fuel_27432402","lat":51.457755,"lon":7.0043625,"name":"Jet","city":"","category":"tankstelle","tags":[],"opening_hours":"Mo-Su,PH 00:00-24:00","operator":"JET","hours":{"type":"24_7"}},{"id":"fuel_27432404","lat":51.4472216,"lon":7.0458433,"name":"ARAL","city":"Essen","category":"tankstelle","tags":[],"opening_hours":"24/7","operator":"Aral","hours":{"type":"24_7"}},{"id":"fuel_27432414","lat":51.4464371,"lon":7.0829241,"name":"Shell","city":"Essen","category":"tankstelle","tags":[],"operator":"Shell","opening_hours":"Su 00:00+","gplace_id":"ChIJwyFo4aLduEcR7BHGnheXNk0","hours":{"type":"unknown","original":"Su 00:00+"}},{"id":"fuel_27448780","lat":51.4369868,"lon":7.1078578,"name":"OIL","city":"Essen","category":"other","tags":[],"opening_hours":"Mo-Sa 06:00-22:00, Su, PH 08:00-22:00","operator":"OIL","hours":{"type":"weekly","weekly":{"0":{"isOpen":false,"periods":[]},"1":{"isOpen":true,"periods":[{"open":360,"close":1320},{"open":480,"close":1320}]},"2":{"isOpen":true,"periods":[{"open":360,"close":1320},{"open":480,"close":1320}]},"3":{"isOpen":true,"periods":[{"open":360,"close":1320},{"open":480,"close":1320}]},"4":{"isOpen":true,"periods":[{"open":360,"close":1320},{"open":480,"close":1320}]},"5":{"isOpen":true,"periods":[{"open":360,"close":1320},{"open":480,"close":1320}]},"6":{"isOpen":true,"periods":[{"open":360,"close":1320},{"open":480,"close":1320}]}},"original":"Mo-Sa 06:00-22:00, Su, PH 08:00-22:00"}},{"id":"fuel_27448924","lat":51.4370971,"lon":7.0430603,"name":"Esso","city":"Essen","category":"tankstelle","tags":[],"opening_hours":"Mo-Sa 06:00-22:00; Su 08:00-22:00","operator":"Esso","hours":{"type":"weekly","weekly":{"0":{"isOpen":true,"periods":[{"open":480,"close":1320}]},"1":{"isOpen":true,"periods":[{"open":360,"close":1320}]},"2":{"isOpen":true,"periods":[{"open":360,"close":1320}]},"3":{"isOpen":true,"periods":[{"open":360,"close":1320}]},"4":{"isOpen":true,"periods":[{"open":360,"close":1320}]},"5":{"isOpen":true,"periods":[{"open":360,"close":1320}]},"6":{"isOpen":true,"periods":[{"open":360,"close":1320}]}},"original":"Mo-Sa 06:00-22:00; Su 08:00-22:00"}},{"id":"fuel_28335850","lat":51.6068877,"lon":7.5256077,"name":"Shell","city":"","category":"tankstelle","tags":[],"operator":"Shell","opening_hours":"Su 08:00-23:00; Mo 05:00-23:00; Tu 05:00-23:00; We 05:00-23:00; Th 05:00-23:00; Fr 05:00-23:00; Sa 08:00-23:00","gplace_id":"ChIJVRfkNSEQuUcRR3POHAHM8gU","hours":{"type":"weekly","weekly":{"0":{"isOpen":true,"periods":[{"open":480,"close":1380}]},"1":{"isOpen":true,"periods":[{"open":300,"close":1380}]},"2":{"isOpen":true,"periods":[{"open":300,"close":1380}]},"3":{"isOpen":true,"periods":[{"open":300,"close":1380}]},"4":{"isOpen":true,"periods":[{"open":300,"close":1380}]},"5":{"isOpen":true,"periods":[{"open":300,"close":1380}]},"6":{"isOpen":true,"periods":[{"open":480,"close":1380}]}},"original":"Su 08:00-23:00; Mo 05:00-23:00; Tu 05:00-23:00; We 05:00-23:00; Th 05:00-23:00; Fr 05:00-23:00; Sa 08:00-23:00"}},{"id":"fuel_30186291","lat":51.5621546,"lon":7.0877708,"name":"ARAL","city":"","category":"tankstelle","tags":[],"operator":"Aral","opening_hours":"Su 00:00+","gplace_id":"ChIJl1CHgdrluEcRcyufXU3Bgdg","hours":{"type":"unknown","original":"Su 00:00+"}},{"id":"fuel_30186540","lat":51.5366291,"lon":7.110725,"name":"Star","city":"Gelsenkirchen","category":"tankstelle","tags":[],"operator":"Star","opening_hours":"Su 06:00-22:00; Mo 05:00-22:00; Tu 05:00-22:00; We 05:00-22:00; Th 05:00-22:00; Fr 05:00-22:00; Sa 06:00-22:00","gplace_id":"ChIJlS4ENJLmuEcRUeSe8jXxhI0","hours":{"type":"weekly","weekly":{"0":{"isOpen":true,"periods":[{"open":360,"close":1320}]},"1":{"isOpen":true,"periods":[{"open":300,"close":1320}]},"2":{"isOpen":true,"periods":[{"open":300,"close":1320}]},"3":{"isOpen":true,"periods":[{"open":300,"close":1320}]},"4":{"isOpen":true,"periods":[{"open":300,"close":1320}]},"5":{"isOpen":true,"periods":[{"open":300,"close":1320}]},"6":{"isOpen":true,"periods":[{"open":360,"close":1320}]}},"original":"Su 06:00-22:00; Mo 05:00-22:00; Tu 05:00-22:00; We 05:00-22:00; Th 05:00-22:00; Fr 05:00-22:00; Sa 06:00-22:00"}},{"id":"fuel_30315254","lat":51.4923178,"lon":7.0100591,"name":"ARAL","city":"Essen","category":"tankstelle","tags":[],"opening_hours":"24/7","operator":"Aral","hours":{"type":"24_7"}},{"id":"fuel_30790684","lat":51.6339565,"lon":7.2735433,"name":"Shell","city":"","category":"tankstelle","tags":[],"operator":"Shell","opening_hours":"Su 00:00+","gplace_id":"ChIJqUHGQFH9uEcRNo56VytkkXE","hours":{"type":"unknown","original":"Su 00:00+"}},{"id":"fuel_30912009","lat":51.5735288,"lon":7.0480431,"name":"Total","city":"Gelsenkirchen","category":"tankstelle","tags":[],"operator":"Total","opening_hours":"Su 07:30-23:30; Mo 05:30-23:30; Tu 05:30-23:30; We 05:30-23:30; Th 05:30-23:30; Fr 05:30-23:30; Sa 06:30-23:30","gplace_id":"ChIJ35rvF1_vuEcRc_nCFWalo5s","hours":{"type":"weekly","weekly":{"0":{"isOpen":true,"periods":[{"open":450,"close":1410}]},"1":{"isOpen":true,"periods":[{"open":330,"close":1410}]},"2":{"isOpen":true,"periods":[{"open":330,"close":1410}]},"3":{"isOpen":true,"periods":[{"open":330,"close":1410}]},"4":{"isOpen":true,"periods":[{"open":330,"close":1410}]},"5":{"isOpen":true,"periods":[{"open":330,"close":1410}]},"6":{"isOpen":true,"periods":[{"open":390,"close":1410}]}},"original":"Su 07:30-23:30; Mo 05:30-23:30; Tu 05:30-23:30; We 05:30-23:30; Th 05:30-23:30; Fr 05:30-23:30; Sa 06:30-23:30"}},{"id":"fuel_31076733","lat":51.4252831,"lon":7.1584139,"name":"Esso","city":"Bochum","category":"tankstelle","tags":[],"operator":"Esso","opening_hours":"Su 08:00-22:00; Mo 06:00-22:00; Tu 06:00-22:00; We 06:00-22:00; Th 06:00-22:00; Fr 06:00-22:00; Sa 07:00-22:00","gplace_id":"ChIJ4ZflTljeuEcRDjJW4nBW9t0","hours":{"type":"weekly","weekly":{"0":{"isOpen":true,"periods":[{"open":480,"close":1320}]},"1":{"isOpen":true,"periods":[{"open":360,"close":1320}]},"2":{"isOpen":true,"periods":[{"open":360,"close":1320}]},"3":{"isOpen":true,"periods":[{"open":360,"close":1320}]},"4":{"isOpen":true,"periods":[{"open":360,"close":1320}]},"5":{"isOpen":true,"periods":[{"open":360,"close":1320}]},"6":{"isOpen":true,"periods":[{"open":420,"close":1320}]}},"original":"Su 08:00-22:00; Mo 06:00-22:00; Tu 06:00-22:00; We 06:00-22:00; Th 06:00-22:00; Fr 06:00-22:00; Sa 07:00-22:00"}},{"id":"fuel_34548644","lat":51.3668718,"lon":7.2527493,"name":"Aral","city":"Sprockhövel","category":"tankstelle","tags":[],"operator":"Aral","opening_hours":"Su 07:00-22:00; Mo 06:00-22:00; Tu 06:00-22:00; We 06:00-22:00; Th 06:00-22:00; Fr 06:00-22:00; Sa 06:00-22:00","gplace_id":"ChIJv8GH1i8nuUcR737wdzdB1-8","hours":{"type":"weekly","weekly":{"0":{"isOpen":true,"periods":[{"open":420,"close":1320}]},"1":{"isOpen":true,"periods":[{"open":360,"close":1320}]},"2":{"isOpen":true,"periods":[{"open":360,"close":1320}]},"3":{"isOpen":true,"periods":[{"open":360,"close":1320}]},"4":{"isOpen":true,"periods":[{"open":360,"close":1320}]},"5":{"isOpen":true,"periods":[{"open":360,"close":1320}]},"6":{"isOpen":true,"periods":[{"open":360,"close":1320}]}},"original":"Su 07:00-22:00; Mo 06:00-22:00; Tu 06:00-22:00; We 06:00-22:00; Th 06:00-22:00; Fr 06:00-22:00; Sa 06:00-22:00"}},{"id":"fuel_54349326","lat":51.9737409,"lon":7.4157188,"name":"Tankstelle","city":"","category":"tankstelle","tags":[],"operator":"Fa. Markfort","gplace_id":"not_found","hours":{"type":"unknown"}},{"id":"fuel_60074629","lat":51.7212608,"lon":7.0135606,"name":"Aral","city":"Dorsten","category":"tankstelle","tags":[],"opening_hours":"Mo-Fr 05:30-22:00; Sa 07:00-22:00; Su 08:00-22:00","operator":"Pludra Tankstellen-Abrechnungs GmbH&Co.KG","hours":{"type":"weekly","weekly":{"0":{"isOpen":true,"periods":[{"open":480,"close":1320}]},"1":{"isOpen":true,"periods":[{"open":330,"close":1320}]},"2":{"isOpen":true,"periods":[{"open":330,"close":1320}]},"3":{"isOpen":true,"periods":[{"open":330,"close":1320}]},"4":{"isOpen":true,"periods":[{"open":330,"close":1320}]},"5":{"isOpen":true,"periods":[{"open":330,"close":1320}]},"6":{"isOpen":true,"periods":[{"open":420,"close":1320}]}},"original":"Mo-Fr 05:30-22:00; Sa 07:00-22:00; Su 08:00-22:00"}},{"id":"fuel_60721340","lat":51.5928791,"lon":7.4400139,"name":"Aral","city":"Lünen","category":"gastro","tags":["barrierefrei","google_entrance_accessible","has_restroom"],"operator":"Aral","opening_hours":"Su 08:00-22:00; Mo 05:00-22:00; Tu 05:00-22:00; We 05:00-22:00; Th 05:00-22:00; Fr 05:00-22:00; Sa 06:00-22:00","hours":{"type":"weekly","weekly":{"0":{"isOpen":true,"periods":[{"open":480,"close":1320}]},"1":{"isOpen":true,"periods":[{"open":300,"close":1320}]},"2":{"isOpen":true,"periods":[{"open":300,"close":1320}]},"3":{"isOpen":true,"periods":[{"open":300,"close":1320}]},"4":{"isOpen":true,"periods":[{"open":300,"close":1320}]},"5":{"isOpen":true,"periods":[{"open":300,"close":1320}]},"6":{"isOpen":true,"periods":[{"open":360,"close":1320}]}},"original":"Su 08:00-22:00; Mo 05:00-22:00; Tu 05:00-22:00; We 05:00-22:00; Th 05:00-22:00; Fr 05:00-22:00; Sa 06:00-22:00"}},{"id":"fuel_62894042","lat":51.6008635,"lon":7.4556943,"name":"Tankcenter Brambauer","city":"","category":"gastro","tags":["barrierefrei","google_wc_accessible","has_restroom"],"opening_hours":"Su 08:00-21:00; Mo 06:00-21:00; Tu 06:00-21:00; We 06:00-21:00; Th 06:00-21:00; Fr 06:00-21:00; Sa 07:00-21:00","hours":{"type":"weekly","weekly":{"0":{"isOpen":true,"periods":[{"open":480,"close":1260}]},"1":{"isOpen":true,"periods":[{"open":360,"close":1260}]},"2":{"isOpen":true,"periods":[{"open":360,"close":1260}]},"3":{"isOpen":true,"periods":[{"open":360,"close":1260}]},"4":{"isOpen":true,"periods":[{"open":360,"close":1260}]},"5":{"isOpen":true,"periods":[{"open":360,"close":1260}]},"6":{"isOpen":true,"periods":[{"open":420,"close":1260}]}},"original":"Su 08:00-21:00; Mo 06:00-21:00; Tu 06:00-21:00; We 06:00-21:00; Th 06:00-21:00; Fr 06:00-21:00; Sa 07:00-21:00"}},{"id":"fuel_75810479","lat":51.2323534,"lon":7.1937536,"name":"Shell","city":"","category":"tankstelle","tags":[],"operator":"Shell","opening_hours":"Su 08:00-21:00; Mo 06:00-22:00; Tu 06:00-22:00; We 06:00-22:00; Th 06:00-22:00; Fr 06:00-22:00; Sa 07:00-21:00","gplace_id":"ChIJ6QitjMIpuUcR9sTV89jnnvY","hours":{"type":"weekly","weekly":{"0":{"isOpen":true,"periods":[{"open":480,"close":1260}]},"1":{"isOpen":true,"periods":[{"open":360,"close":1320}]},"2":{"isOpen":true,"periods":[{"open":360,"close":1320}]},"3":{"isOpen":true,"periods":[{"open":360,"close":1320}]},"4":{"isOpen":true,"periods":[{"open":360,"close":1320}]},"5":{"isOpen":true,"periods":[{"open":360,"close":1320}]},"6":{"isOpen":true,"periods":[{"open":420,"close":1260}]}},"original":"Su 08:00-21:00; Mo 06:00-22:00; Tu 06:00-22:00; We 06:00-22:00; Th 06:00-22:00; Fr 06:00-22:00; Sa 07:00-21:00"}},{"id":"fuel_85874086","lat":51.1181483,"lon":7.1251351,"name":"Aral","city":"Leichlingen (Rheinland)","category":"tankstelle","tags":[],"opening_hours":"Mo-Fr 05:00-22:00, Sa,Su 07:00-22:00","operator":"Karl Heinz Buntenbach","hours":{"type":"weekly","weekly":{"0":{"isOpen":false,"periods":[]},"1":{"isOpen":true,"periods":[{"open":300,"close":1320},{"open":420,"close":1320}]},"2":{"isOpen":true,"periods":[{"open":300,"close":1320},{"open":420,"close":1320}]},"3":{"isOpen":true,"periods":[{"open":300,"close":1320},{"open":420,"close":1320}]},"4":{"isOpen":true,"periods":[{"open":300,"close":1320},{"open":420,"close":1320}]},"5":{"isOpen":true,"periods":[{"open":300,"close":1320},{"open":420,"close":1320}]},"6":{"isOpen":false,"periods":[]}},"original":"Mo-Fr 05:00-22:00, Sa,Su 07:00-22:00"}},{"id":"fuel_85944198","lat":51.2507944,"lon":7.1037323,"name":"Esso","city":"Wuppertal","category":"tankstelle","tags":[],"operator":"Esso","opening_hours":"Su 00:00+","gplace_id":"ChIJBbBUR-fWuEcR-z5aAlZ8s4E","hours":{"type":"unknown","original":"Su 00:00+"}},{"id":"fuel_93005928","lat":51.5481741,"lon":7.4886866,"name":"SB-Tank","city":"","category":"station","tags":["google_has_restroom","has_restroom"],"operator":"SB Tank","opening_hours":"Su 06:00-22:00; Mo 06:00-22:00; Tu 06:00-22:00; We 06:00-22:00; Th 06:00-22:00; Fr 00:00-00:00","hours":{"type":"weekly","weekly":{"0":{"isOpen":true,"periods":[{"open":360,"close":1320}]},"1":{"isOpen":true,"periods":[{"open":360,"close":1320}]},"2":{"isOpen":true,"periods":[{"open":360,"close":1320}]},"3":{"isOpen":true,"periods":[{"open":360,"close":1320}]},"4":{"isOpen":true,"periods":[{"open":360,"close":1320}]},"5":{"isOpen":true,"periods":[{"open":0,"close":1440}]},"6":{"isOpen":false,"periods":[]}},"original":"Su 06:00-22:00; Mo 06:00-22:00; Tu 06:00-22:00; We 06:00-22:00; Th 06:00-22:00; Fr 00:00-00:00"}},{"id":"fuel_93031891","lat":51.5028203,"lon":7.4164937,"name":"Star","city":"","category":"gastro","tags":["google_has_restroom","has_restroom"],"operator":"star","opening_hours":"Su 08:00-23:00; Mo 06:00-23:00; Tu 06:00-23:00; We 06:00-23:00; Th 06:00-23:00; Fr 06:00-23:00; Sa 07:00-23:00","hours":{"type":"weekly","weekly":{"0":{"isOpen":true,"periods":[{"open":480,"close":1380}]},"1":{"isOpen":true,"periods":[{"open":360,"close":1380}]},"2":{"isOpen":true,"periods":[{"open":360,"close":1380}]},"3":{"isOpen":true,"periods":[{"open":360,"close":1380}]},"4":{"isOpen":true,"periods":[{"open":360,"close":1380}]},"5":{"isOpen":true,"periods":[{"open":360,"close":1380}]},"6":{"isOpen":true,"periods":[{"open":420,"close":1380}]}},"original":"Su 08:00-23:00; Mo 06:00-23:00; Tu 06:00-23:00; We 06:00-23:00; Th 06:00-23:00; Fr 06:00-23:00; Sa 07:00-23:00"}},{"id":"fuel_93031929","lat":51.5304738,"lon":7.4206213,"name":"Esso","city":"","category":"tankstelle","tags":["google_has_restroom","has_restroom"],"operator":"Esso","opening_hours":"Su 08:00-22:00; Mo 06:00-22:00; Tu 06:00-22:00; We 06:00-22:00; Th 06:00-22:00; Fr 06:00-22:00; Sa 08:00-22:00","hours":{"type":"weekly","weekly":{"0":{"isOpen":true,"periods":[{"open":480,"close":1320}]},"1":{"isOpen":true,"periods":[{"open":360,"close":1320}]},"2":{"isOpen":true,"periods":[{"open":360,"close":1320}]},"3":{"isOpen":true,"periods":[{"open":360,"close":1320}]},"4":{"isOpen":true,"periods":[{"open":360,"close":1320}]},"5":{"isOpen":true,"periods":[{"open":360,"close":1320}]},"6":{"isOpen":true,"periods":[{"open":480,"close":1320}]}},"original":"Su 08:00-22:00; Mo 06:00-22:00; Tu 06:00-22:00; We 06:00-22:00; Th 06:00-22:00; Fr 06:00-22:00; Sa 08:00-22:00"}},{"id":"fuel_93072161","lat":51.6005506,"lon":7.4373446,"name":"Freie Tankstelle Schröder","city":"","category":"tankstelle","tags":[],"opening_hours":"24/7","hours":{"type":"24_7"}},{"id":"fuel_93072201","lat":51.6266726,"lon":7.4957042,"name":"SB Tank","city":"","category":"other","tags":[],"operator":"N. Jeworutzken-Quick","opening_hours":"Su 09:00-18:00; Mo 05:45-20:30; Tu 05:45-20:30; We 05:45-20:30; Th 05:45-20:30; Fr 05:45-20:30; Sa 07:00-20:30","gplace_id":"ChIJc1CP81gFuUcRTlIyPHmsk7w","hours":{"type":"weekly","weekly":{"0":{"isOpen":true,"periods":[{"open":540,"close":1080}]},"1":{"isOpen":true,"periods":[{"open":345,"close":1230}]},"2":{"isOpen":true,"periods":[{"open":345,"close":1230}]},"3":{"isOpen":true,"periods":[{"open":345,"close":1230}]},"4":{"isOpen":true,"periods":[{"open":345,"close":1230}]},"5":{"isOpen":true,"periods":[{"open":345,"close":1230}]},"6":{"isOpen":true,"periods":[{"open":420,"close":1230}]}},"original":"Su 09:00-18:00; Mo 05:45-20:30; Tu 05:45-20:30; We 05:45-20:30; Th 05:45-20:30; Fr 05:45-20:30; Sa 07:00-20:30"}},{"id":"fuel_102915068","lat":51.5312553,"lon":7.6712965,"name":"Shell","city":"Unna","category":"tankstelle","tags":[],"operator":"Shell","opening_hours":"Su 00:00+","gplace_id":"ChIJaU6IUkQTuUcRU-zdYVFA4I8","hours":{"type":"unknown","original":"Su 00:00+"}},{"id":"fuel_130152613","lat":51.5375052,"lon":7.6272098,"name":"Tankstelle","city":"","category":"tankstelle","tags":[],"opening_hours":"Su 10:00-15:00; Mo 07:30-19:00; Tu 07:30-19:00; We 07:30-19:00; Th 07:30-19:00; Fr 07:30-19:00; Sa 08:00-19:00","gplace_id":"ChIJ7_1cFJkTuUcRtPRNxVsL8qU","hours":{"type":"weekly","weekly":{"0":{"isOpen":true,"periods":[{"open":600,"close":900}]},"1":{"isOpen":true,"periods":[{"open":450,"close":1140}]},"2":{"isOpen":true,"periods":[{"open":450,"close":1140}]},"3":{"isOpen":true,"periods":[{"open":450,"close":1140}]},"4":{"isOpen":true,"periods":[{"open":450,"close":1140}]},"5":{"isOpen":true,"periods":[{"open":450,"close":1140}]},"6":{"isOpen":true,"periods":[{"open":480,"close":1140}]}},"original":"Su 10:00-15:00; Mo 07:30-19:00; Tu 07:30-19:00; We 07:30-19:00; Th 07:30-19:00; Fr 07:30-19:00; Sa 08:00-19:00"}},{"id":"fuel_160471422","lat":51.0032239,"lon":7.5760155,"name":"Aral","city":"Gummersbach","category":"tankstelle","tags":[],"opening_hours":"24/7","operator":"Bellersheim Tankstellen GmbH & Co. KG","hours":{"type":"24_7"}},{"id":"fuel_166867155","lat":51.9690189,"lon":7.6557007,"name":"Westfalen-Tankstelle","city":"Münster","category":"tankstelle","tags":[],"opening_hours":"24/7","operator":"Westfalen AG;Alfred Thiele","hours":{"type":"24_7"}},{"id":"fuel_220452144","lat":51.8317982,"lon":7.040185,"name":"Avia","city":"Reken","category":"tankstelle","tags":[],"opening_hours":"Mo-Fr 06:30-20:00; Sa 07:30-20:00; Su 09:00-14:00","operator":"Petra Niewerth","hours":{"type":"weekly","weekly":{"0":{"isOpen":true,"periods":[{"open":540,"close":840}]},"1":{"isOpen":true,"periods":[{"open":390,"close":1200}]},"2":{"isOpen":true,"periods":[{"open":390,"close":1200}]},"3":{"isOpen":true,"periods":[{"open":390,"close":1200}]},"4":{"isOpen":true,"periods":[{"open":390,"close":1200}]},"5":{"isOpen":true,"periods":[{"open":390,"close":1200}]},"6":{"isOpen":true,"periods":[{"open":450,"close":1200}]}},"original":"Mo-Fr 06:30-20:00; Sa 07:30-20:00; Su 09:00-14:00"}},{"id":"fuel_243824497","lat":51.5078098,"lon":7.4214284,"name":"Shell","city":"Dortmund","category":"tankstelle","tags":[],"opening_hours":"24/7","operator":"Shell","hours":{"type":"24_7"}},{"id":"fuel_246466812","lat":51.3293068,"lon":7.0096882,"name":"JET","city":"Heiligenhaus","category":"tankstelle","tags":[],"opening_hours":"Mo-Fr 04:30-22:00; Sa 06:00-22:00; Su 07:00-22:00","operator":"ConocoPhillips Germany GmbH","hours":{"type":"weekly","weekly":{"0":{"isOpen":true,"periods":[{"open":420,"close":1320}]},"1":{"isOpen":true,"periods":[{"open":270,"close":1320}]},"2":{"isOpen":true,"periods":[{"open":270,"close":1320}]},"3":{"isOpen":true,"periods":[{"open":270,"close":1320}]},"4":{"isOpen":true,"periods":[{"open":270,"close":1320}]},"5":{"isOpen":true,"periods":[{"open":270,"close":1320}]},"6":{"isOpen":true,"periods":[{"open":360,"close":1320}]}},"original":"Mo-Fr 04:30-22:00; Sa 06:00-22:00; Su 07:00-22:00"}},{"id":"fuel_249722201","lat":51.4433563,"lon":7.0194415,"name":"Star","city":"Essen","category":"tankstelle","tags":[],"opening_hours":"Mo-Fr 06:00-22:00, Sa 07:00-22:00, Su 08:00-22:00","operator":"Mustafa Erdogan","hours":{"type":"weekly","weekly":{"0":{"isOpen":false,"periods":[]},"1":{"isOpen":true,"periods":[{"open":360,"close":1320},{"open":420,"close":1320},{"open":480,"close":1320}]},"2":{"isOpen":true,"periods":[{"open":360,"close":1320},{"open":420,"close":1320},{"open":480,"close":1320}]},"3":{"isOpen":true,"periods":[{"open":360,"close":1320},{"open":420,"close":1320},{"open":480,"close":1320}]},"4":{"isOpen":true,"periods":[{"open":360,"close":1320},{"open":420,"close":1320},{"open":480,"close":1320}]},"5":{"isOpen":true,"periods":[{"open":360,"close":1320},{"open":420,"close":1320},{"open":480,"close":1320}]},"6":{"isOpen":false,"periods":[]}},"original":"Mo-Fr 06:00-22:00, Sa 07:00-22:00, Su 08:00-22:00"}},{"id":"fuel_251187882","lat":51.4941443,"lon":7.3738576,"name":"Metro","city":"","category":"other","tags":[],"operator":"METRO","gplace_id":"ChIJ1Wv655oZuUcRRt-2m602sfQ","hours":{"type":"unknown"}},{"id":"fuel_251612271","lat":51.5841172,"lon":7.2126171,"name":"Markant","city":"","category":"tankstelle","tags":[],"operator":"Markant","opening_hours":"Su 07:00-23:00; Mo 05:00-23:00; Tu 05:00-23:00; We 05:00-23:00; Th 05:00-23:00; Fr 05:00-23:00; Sa 07:00-23:00","gplace_id":"ChIJF-p09QbjuEcRnISZ5ugYpWE","hours":{"type":"weekly","weekly":{"0":{"isOpen":true,"periods":[{"open":420,"close":1380}]},"1":{"isOpen":true,"periods":[{"open":300,"close":1380}]},"2":{"isOpen":true,"periods":[{"open":300,"close":1380}]},"3":{"isOpen":true,"periods":[{"open":300,"close":1380}]},"4":{"isOpen":true,"periods":[{"open":300,"close":1380}]},"5":{"isOpen":true,"periods":[{"open":300,"close":1380}]},"6":{"isOpen":true,"periods":[{"open":420,"close":1380}]}},"original":"Su 07:00-23:00; Mo 05:00-23:00; Tu 05:00-23:00; We 05:00-23:00; Th 05:00-23:00; Fr 05:00-23:00; Sa 07:00-23:00"}},{"id":"fuel_251612272","lat":51.5828603,"lon":7.2130561,"name":"Bavaria Petrol","city":"Recklinghausen","category":"other","tags":[],"opening_hours":"24/7","hours":{"type":"24_7"}},{"id":"fuel_251741961","lat":51.4962953,"lon":7.3727134,"name":"Supermarkt-Tankstelle am Kaufland","city":"Dortmund","category":"tankstelle","tags":[],"opening_hours":"Mo-Sa 08:00-22:00","hours":{"type":"weekly","weekly":{"0":{"isOpen":false,"periods":[]},"1":{"isOpen":true,"periods":[{"open":480,"close":1320}]},"2":{"isOpen":true,"periods":[{"open":480,"close":1320}]},"3":{"isOpen":true,"periods":[{"open":480,"close":1320}]},"4":{"isOpen":true,"periods":[{"open":480,"close":1320}]},"5":{"isOpen":true,"periods":[{"open":480,"close":1320}]},"6":{"isOpen":true,"periods":[{"open":480,"close":1320}]}},"original":"Mo-Sa 08:00-22:00"}},{"id":"fuel_252585517","lat":51.7379103,"lon":7.1873042,"name":"Tankstelle","city":"","category":"tankstelle","tags":[],"opening_hours":"Su 00:00+","gplace_id":"ChIJeT7u5kf5uEcRRlYDhEUutEM","hours":{"type":"unknown","original":"Su 00:00+"}},{"id":"fuel_253707003","lat":51.3323161,"lon":7.0488775,"name":"Shell","city":"","category":"tankstelle","tags":[],"opening_hours":"24/7","operator":"Patrick Gohr","hours":{"type":"24_7"}},{"id":"fuel_254137073","lat":51.3349503,"lon":7.0489747,"name":"TotalEnergies","city":"","category":"tankstelle","tags":[],"opening_hours":"Mo-Fr 06:00-22:00; Sa 07:00-22:00; PH,Su 08:00-22:00","operator":"TotalEnergies","hours":{"type":"weekly","weekly":{"0":{"isOpen":true,"periods":[{"open":480,"close":1320}]},"1":{"isOpen":true,"periods":[{"open":360,"close":1320}]},"2":{"isOpen":true,"periods":[{"open":360,"close":1320}]},"3":{"isOpen":true,"periods":[{"open":360,"close":1320}]},"4":{"isOpen":true,"periods":[{"open":360,"close":1320}]},"5":{"isOpen":true,"periods":[{"open":360,"close":1320}]},"6":{"isOpen":true,"periods":[{"open":420,"close":1320}]}},"original":"Mo-Fr 06:00-22:00; Sa 07:00-22:00; PH,Su 08:00-22:00"}},{"id":"fuel_254325072","lat":51.7660746,"lon":7.4256462,"name":"Shell","city":"Lüdinghausen","category":"tankstelle","tags":[],"opening_hours":"24/7","operator":"Shell","hours":{"type":"24_7"}},{"id":"fuel_254658099","lat":51.9316212,"lon":7.6272933,"name":"Aral","city":"Münster","category":"tankstelle","tags":[],"opening_hours":"24/7","operator":"Aral","hours":{"type":"24_7"}},{"id":"fuel_254769872","lat":51.4206972,"lon":7.0916185,"name":"Star","city":"Essen","category":"tankstelle","tags":[],"opening_hours":"Mo-Fr 06:00-23:00; Sa 07:00-23:00; Su 08:00-23:00","operator":"Star","hours":{"type":"weekly","weekly":{"0":{"isOpen":true,"periods":[{"open":480,"close":1380}]},"1":{"isOpen":true,"periods":[{"open":360,"close":1380}]},"2":{"isOpen":true,"periods":[{"open":360,"close":1380}]},"3":{"isOpen":true,"periods":[{"open":360,"close":1380}]},"4":{"isOpen":true,"periods":[{"open":360,"close":1380}]},"5":{"isOpen":true,"periods":[{"open":360,"close":1380}]},"6":{"isOpen":true,"periods":[{"open":420,"close":1380}]}},