{
  "generated": "2026-04-12",
  "source": "Autobahn GmbH API (autobahn.api.bund.dev)",
  "count": 1778,
  "toilets": [
    {
      "id": "autobahn_DE-SL-000008",
      "lat": 49.30983599999335,
      "lon": 6.968945999997056,
      "name": "Neuhaus O (A1)",
      "city": "",
      "category": "other",
      "tags": [
        "autobahn",
        "a1"
      ],
      "operator": "Autobahn GmbH"
    },
    {
      "id": "autobahn_DE-SL-000009",
      "lat": 49.31074199999335,
      "lon": 6.968335999997053,
      "name": "Neuhaus W (A1)",
      "city": "",
      "category": "other",
      "tags": [
        "autobahn",
        "a1"
      ],
      "operator": "Autobahn GmbH"
    },
    {
      "id": "autobahn_DE-SL-000007",
      "lat": 49.43646099999342,
      "lon": 6.973513999997128,
      "name": "Schellenbach W (A1)",
      "city": "",
      "category": "other",
      "tags": [
        "autobahn",
        "a1"
      ],
      "operator": "Autobahn GmbH"
    },
    {
      "id": "autobahn_DE-SL-000006",
      "lat": 49.4653819999935,
      "lon": 6.97693299999716,
      "name": "Schaumberg Kreuz W (A1)",
      "city": "",
      "category": "other",
      "tags": [
        "autobahn",
        "a1"
      ],
      "operator": "Autobahn GmbH"
    },
    {
      "id": "autobahn_DE-SL-000004",
      "lat": 49.50521699999376,
      "lon": 6.991882999997273,
      "name": "Sombach Mühle West (A1)",
      "city": "",
      "category": "other",
      "tags": [
        "autobahn",
        "a1"
      ],
      "operator": "Autobahn GmbH"
    },
    {
      "id": "autobahn_DE-SL-000001",
      "lat": 49.56583299999337,
      "lon": 6.970805999997148,
      "name": "Kastel West (A1)",
      "city": "",
      "category": "other",
      "tags": [
        "autobahn",
        "a1"
      ],
      "operator": "Autobahn GmbH"
    },
    {
      "id": "autobahn_DE-SL-000002",
      "lat": 49.54531599999372,
      "lon": 6.9898129999972705,
      "name": "Peterberg Ost (A1)",
      "city": "",
      "category": "other",
      "tags": [
        "autobahn",
        "a1"
      ],
      "operator": "Autobahn GmbH"
    },
    {
      "id": "autobahn_DE-RP-000016",
      "lat": 49.640333999992365,
      "lon": 6.923154999996832,
      "name": "Katzenberg (A1)",
      "city": "",
      "category": "public_24h",
      "tags": [
        "autobahn",
        "a1",
        "toilette"
      ],
      "opening_hours": "24/7",
      "operator": "Autobahn GmbH"
    },
    {
      "id": "autobahn_DE-RP-000014",
      "lat": 49.690169999991774,
      "lon": 6.897347999996654,
      "name": "Hochwald West (A1)",
      "city": "",
      "category": "station",
      "tags": [
        "autobahn",
        "a1",
        "toilette",
        "tankstelle",
        "raststätte"
      ],
      "operator": "Tank & Rast"
    },
    {
      "id": "autobahn_DE-RP-000013",
      "lat": 49.69058899999181,
      "lon": 6.898912999996669,
      "name": "Hochwald Ost (A1)",
      "city": "",
      "category": "station",
      "tags": [
        "autobahn",
        "a1",
        "toilette",
        "tankstelle",
        "raststätte"
      ],
      "operator": "Tank & Rast"
    },
    {
      "id": "autobahn_DE-RP-000011",
      "lat": 49.78363299998961,
      "lon": 6.813621999996005,
      "name": "Rioler Wald (A1)",
      "city": "",
      "category": "public_24h",
      "tags": [
        "autobahn",
        "a1",
        "toilette"
      ],
      "opening_hours": "24/7",
      "operator": "Autobahn GmbH"
    },
    {
      "id": "autobahn_DE-RP-000012",
      "lat": 49.78496699998977,
      "lon": 6.8193419999960545,
      "name": "Mehringer Höhe (A1)",
      "city": "",
      "category": "public_24h",
      "tags": [
        "autobahn",
        "a1",
        "toilette"
      ],
      "opening_hours": "24/7",
      "operator": "Autobahn GmbH"
    },
    {
      "id": "autobahn_DE-RP-000010",
      "lat": 49.87444899999006,
      "lon": 6.830684999996193,
      "name": "Hetzerath (A1)",
      "city": "",
      "category": "public_24h",
      "tags": [
        "autobahn",
        "a1",
        "toilette"
      ],
      "opening_hours": "24/7",
      "operator": "Autobahn GmbH"
    },
    {
      "id": "autobahn_DE-RP-000009",
      "lat": 49.873498999990076,
      "lon": 6.830568999996192,
      "name": "Rivenich (A1)",
      "city": "",
      "category": "public_24h",
      "tags": [
        "autobahn",
        "a1",
        "toilette"
      ],
      "opening_hours": "24/7",
      "operator": "Autobahn GmbH"
    },
    {
      "id": "autobahn_DE-RP-000008",
      "lat": 49.92057499999075,
      "lon": 6.856415999996423,
      "name": "Salmrohr (A1)",
      "city": "",
      "category": "public_24h",
      "tags": [
        "autobahn",
        "a1",
        "toilette"
      ],
      "opening_hours": "24/7",
      "operator": "Autobahn GmbH"
    },
    {
      "id": "autobahn_DE-RP-000007",
      "lat": 49.92029199999078,
      "lon": 6.857790999996434,
      "name": "Pohlbach (A1)",
      "city": "",
      "category": "other",
      "tags": [
        "autobahn",
        "a1"
      ],
      "operator": "Autobahn GmbH"
    },
    {
      "id": "autobahn_DE-RP-000006",
      "lat": 49.994624999992396,
      "lon": 6.926284999996977,
      "name": "Lüxem (A1)",
      "city": "",
      "category": "public_24h",
      "tags": [
        "autobahn",
        "a1",
        "toilette"
      ],
      "opening_hours": "24/7",
      "operator": "Autobahn GmbH"
    },
    {
      "id": "autobahn_DE-RP-000005",
      "lat": 50.03122999999216,
      "lon": 6.915601999996913,
      "name": "Flußbach (A1)",
      "city": "",
      "category": "other",
      "tags": [
        "autobahn",
        "a1"
      ],
      "operator": "Autobahn GmbH"
    },
    {
      "id": "autobahn_DE-RP-000004",
      "lat": 50.06864999999135,
      "lon": 6.880558999996669,
      "name": "Eifel West (A1)",
      "city": "",
      "category": "station",
      "tags": [
        "autobahn",
        "a1",
        "toilette",
        "tankstelle",
        "raststätte",
        "dusche"
      ],
      "operator": "Tank & Rast"
    },
    {
      "id": "autobahn_DE-RP-000003",
      "lat": 50.07005199999132,
      "lon": 6.8804009999966675,
      "name": "Eifel Ost (A1)",
      "city": "",
      "category": "station",
      "tags": [
        "autobahn",
        "a1",
        "toilette",
        "tankstelle",
        "raststätte",
        "dusche"
      ],
      "operator": "Tank & Rast"
    },
    {
      "id": "autobahn_DE-RP-000001",
      "lat": 50.15489499999136,
      "lon": 6.881745999996711,
      "name": "Schalkenmehren (A1)",
      "city": "",
      "category": "public_24h",
      "tags": [
        "autobahn",
        "a1",
        "toilette"
      ],
      "opening_hours": "24/7",
      "operator": "Autobahn GmbH"
    },
    {
      "id": "autobahn_DE-RP-000002",
      "lat": 50.14030499999107,
      "lon": 6.869594999996614,
      "name": "Udler (A1)",
      "city": "",
      "category": "public_24h",
      "tags": [
        "autobahn",
        "a1",
        "toilette"
      ],
      "opening_hours": "24/7",
      "operator": "Autobahn GmbH"
    },
    {
      "id": "autobahn_DE-NW-000053",
      "lat": 50.488424999984844,
      "lon": 6.674234999995108,
      "name": "Engelgau (A1)",
      "city": "",
      "category": "public_24h",
      "tags": [
        "autobahn",
        "a1",
        "toilette"
      ],
      "opening_hours": "24/7",
      "operator": "Autobahn GmbH"
    },
    {
      "id": "autobahn_DE-NW-000052",
      "lat": 50.48959299998486,
      "lon": 6.674768999995115,
      "name": "Engelgau (A1)",
      "city": "",
      "category": "public_24h",
      "tags": [
        "autobahn",
        "a1",
        "toilette"
      ],
      "opening_hours": "24/7",
      "operator": "Autobahn GmbH"
    },
    {
      "id": "autobahn_DE-NW-000051",
      "lat": 50.60845399998617,
      "lon": 6.710018999995515,
      "name": "Grüner Winkel (West) (A1)",
      "city": "",
      "category": "public_24h",
      "tags": [
        "autobahn",
        "a1",
        "toilette"
      ],
      "opening_hours": "24/7",
      "operator": "Autobahn GmbH"
    },
    {
      "id": "autobahn_DE-NW-000049",
      "lat": 50.7418079999891,
      "lon": 6.799865999996334,
      "name": "Oberste Heide (A1)",
      "city": "",
      "category": "public_24h",
      "tags": [
        "autobahn",
        "a1",
        "toilette"
      ],
      "opening_hours": "24/7",
      "operator": "Autobahn GmbH"
    },
    {
      "id": "autobahn_DE-NW-000047",
      "lat": 50.857683999989234,
      "lon": 6.804702999996424,
      "name": "Ville West (A1)",
      "city": "",
      "category": "station",
      "tags": [
        "autobahn",
        "a1",
        "toilette",
        "tankstelle",
        "raststätte",
        "dusche"
      ],
      "operator": "Tank & Rast"
    },
    {
      "id": "autobahn_DE-NW-000046",
      "lat": 50.85768699998929,
      "lon": 6.806172999996437,
      "name": "Ville Ost (A1)",
      "city": "",
      "category": "station",
      "tags": [
        "autobahn",
        "a1",
        "toilette",
        "tankstelle",
        "raststätte",
        "dusche"
      ],
      "operator": "Tank & Rast"
    },
    {
      "id": "autobahn_DE-NW-000045",
      "lat": 51.15851199999702,
      "lon": 7.227285999998763,
      "name": "Remscheid West (A1)",
      "city": "",
      "category": "station",
      "tags": [
        "autobahn",
        "a1",
        "toilette",
        "tankstelle",
        "raststätte",
        "dusche"
      ],
      "operator": "Tank & Rast"
    },
    {
      "id": "autobahn_DE-NW-000044",
      "lat": 51.15797099999701,
      "lon": 7.22890699999877,
      "name": "Remscheid Ost (A1)",
      "city": "",
      "category": "station",
      "tags": [
        "autobahn",
        "a1",
        "toilette",
        "tankstelle",
        "raststätte",
        "dusche"
      ],
      "operator": "Tank & Rast"
    },
    {
      "id": "autobahn_DE-NW-000043",
      "lat": 51.265340999997164,
      "lon": 7.244722999998836,
      "name": "Ehrenberg (A1)",
      "city": "",
      "category": "public_24h",
      "tags": [
        "autobahn",
        "a1",
        "toilette",
        "raststätte",
        "dusche"
      ],
      "operator": "Tank & Rast"
    },
    {
      "id": "autobahn_DE-NW-000042",
      "lat": 51.26579299999722,
      "lon": 7.248835999998849,
      "name": "Kucksiepen (A1)",
      "city": "",
      "category": "public_24h",
      "tags": [
        "autobahn",
        "a1",
        "toilette",
        "raststätte",
        "dusche"
      ],
      "operator": "Tank & Rast"
    },
    {
      "id": "autobahn_DE-NW-000041",
      "lat": 51.32692099999773,
      "lon": 7.309657999999039,
      "name": "Bruchmühle (A1)",
      "city": "",
      "category": "public_24h",
      "tags": [
        "autobahn",
        "a1",
        "toilette"
      ],
      "opening_hours": "24/7",
      "operator": "Autobahn GmbH"
    },
    {
      "id": "autobahn_DE-NW-000040",
      "lat": 51.32849099999779,
      "lon": 7.315642999999056,
      "name": "Klosterholz (A1)",
      "city": "",
      "category": "other",
      "tags": [
        "autobahn",
        "a1"
      ],
      "operator": "Autobahn GmbH"
    },
    {
      "id": "autobahn_DE-NW-000039",
      "lat": 51.37208899999846,
      "lon": 7.413711999999303,
      "name": "Eichenkamp (A1)",
      "city": "",
      "category": "public_24h",
      "tags": [
        "autobahn",
        "a1",
        "toilette"
      ],
      "opening_hours": "24/7",
      "operator": "Autobahn GmbH"
    },
    {
      "id": "autobahn_DE-NW-000038",
      "lat": 51.373963999998495,
      "lon": 7.421347999999319,
      "name": "Funckenhausen (A1)",
      "city": "",
      "category": "public_24h",
      "tags": [
        "autobahn",
        "a1",
        "toilette"
      ],
      "opening_hours": "24/7",
      "operator": "Autobahn GmbH"
    },
    {
      "id": "autobahn_DE-NW-000037",
      "lat": 51.41157799999889,
      "lon": 7.499417999999473,
      "name": "Lennhof W (A1)",
      "city": "",
      "category": "public_24h",
      "tags": [
        "autobahn",
        "a1",
        "toilette",
        "raststätte"
      ],
      "operator": "Tank & Rast"
    },
    {
      "id": "autobahn_DE-NW-000036",
      "lat": 51.46824699999924,
      "lon": 7.594483999999621,
      "name": "Lichtendorf Nord (A1)",
      "city": "",
      "category": "station",
      "tags": [
        "autobahn",
        "a1",
        "toilette",
        "tankstelle",
        "raststätte",
        "dusche"
      ],
      "operator": "Tank & Rast"
    },
    {
      "id": "autobahn_DE-NW-000035",
      "lat": 51.467763999999256,
      "lon": 7.596170999999625,
      "name": "Lichtendorf Süd (A1)",
      "city": "",
      "category": "station",
      "tags": [
        "autobahn",
        "a1",
        "toilette",
        "tankstelle",
        "raststätte",
        "dusche"
      ],
      "operator": "Tank & Rast"
    },
    {
      "id": "autobahn_DE-NW-000034",
      "lat": 51.619429999999504,
      "lon": 7.689006999999738,
      "name": "Overberger Busch (A1)",
      "city": "",
      "category": "other",
      "tags": [
        "autobahn",
        "a1"
      ],
      "operator": "Autobahn GmbH"
    },
    {
      "id": "autobahn_DE-NW-000032",
      "lat": 51.67368999999948,
      "lon": 7.6796979999997275,
      "name": "Fuchseggen (West) (A1)",
      "city": "",
      "category": "public_24h",
      "tags": [
        "autobahn",
        "a1",
        "toilette"
      ],
      "opening_hours": "24/7",
      "operator": "Autobahn GmbH"
    },
    {
      "id": "autobahn_DE-NW-000031",
      "lat": 51.67495999999947,
      "lon": 7.680540999999731,
      "name": "An der Landwehr (A1)",
      "city": "",
      "category": "public_24h",
      "tags": [
        "autobahn",
        "a1",
        "toilette"
      ],
      "opening_hours": "24/7",
      "operator": "Autobahn GmbH"
    },
    {
      "id": "autobahn_DE-NW-000028",
      "lat": 51.74915399999941,
      "lon": 7.646824999999696,
      "name": "Westerwinkel (A1)",
      "city": "",
      "category": "other",
      "tags": [
        "autobahn",
        "a1"
      ],
      "operator": "Autobahn GmbH"
    },
    {
      "id": "autobahn_DE-NW-000026",
      "lat": 51.77376199999938,
      "lon": 7.639066999999689,
      "name": "Eichengrund (A1)",
      "city": "",
      "category": "public_24h",
      "tags": [
        "autobahn",
        "a1",
        "toilette",
        "raststätte",
        "dusche"
      ],
      "operator": "Tank & Rast"
    },
    {
      "id": "autobahn_DE-NW-000027",
      "lat": 51.77406799999939,
      "lon": 7.64055799999969,
      "name": "Im Mersch (A1)",
      "city": "",
      "category": "public_24h",
      "tags": [
        "autobahn",
        "a1",
        "toilette",
        "raststätte",
        "dusche"
      ],
      "operator": "Tank & Rast"
    },
    {
      "id": "autobahn_DE-NW-000021",
      "lat": 51.9415139999991,
      "lon": 7.551362999999583,
      "name": "Münsterland Ost (A1)",
      "city": "",
      "category": "station",
      "tags": [
        "autobahn",
        "a1",
        "toilette",
        "tankstelle",
        "raststätte",
        "dusche"
      ],
      "operator": "Tank & Rast"
    },
    {
      "id": "autobahn_DE-NW-000020",
      "lat": 51.945318999999074,
      "lon": 7.548183999999578,
      "name": "Münsterland West (A1)",
      "city": "",
      "category": "station",
      "tags": [
        "autobahn",
        "a1",
        "toilette",
        "tankstelle",
        "raststätte",
        "dusche"
      ],
      "operator": "Tank & Rast"
    },
    {
      "id": "autobahn_DE-NW-000019",
      "lat": 52.03240199999926,
      "lon": 7.601945999999655,
      "name": "Sandrup (West) (A1)",
      "city": "",
      "category": "public_24h",
      "tags": [
        "autobahn",
        "a1",
        "toilette"
      ],
      "opening_hours": "24/7",
      "operator": "Autobahn GmbH"
    },
    {
      "id": "autobahn_DE-NW-000017",
      "lat": 52.060097999999336,
      "lon": 7.620643999999677,
      "name": "Gimbter Heide (A1)",
      "city": "",
      "category": "other",
      "tags": [
        "autobahn",
        "a1"
      ],
      "operator": "Autobahn GmbH"
    },
    {
      "id": "autobahn_DE-NW-000018",
      "lat": 52.031918999999284,
      "lon": 7.603591999999656,
      "name": "Plugger Heide (Ost) (A1)",
      "city": "",
      "category": "public_24h",
      "tags": [
        "autobahn",
        "a1",
        "toilette"
      ],
      "opening_hours": "24/7",
      "operator": "Autobahn GmbH"
    },
    {
      "id": "autobahn_DE-NW-000016",
      "lat": 52.06689999999935,
      "lon": 7.627733999999686,
      "name": "Klaterberg (A1)",
      "city": "",
      "category": "other",
      "tags": [
        "autobahn",
        "a1"
      ],
      "operator": "Autobahn GmbH"
    },
    {
      "id": "autobahn_DE-NW-000015",
      "lat": 52.09252999999941,
      "lon": 7.65708499999972,
      "name": "Maestruper Brook (West) (A1)",
      "city": "",
      "category": "other",
      "tags": [
        "autobahn",
        "a1"
      ],
      "operator": "Autobahn GmbH"
    },
    {
      "id": "autobahn_DE-NW-000014",
      "lat": 52.09995699999948,
      "lon": 7.6765859999997375,
      "name": "Kroner Heide (Ost) (A1)",
      "city": "",
      "category": "public_24h",
      "tags": [
        "autobahn",
        "a1",
        "toilette"
      ],
      "opening_hours": "24/7",
      "operator": "Autobahn GmbH"
    },
    {
      "id": "autobahn_DE-NW-000012",
      "lat": 52.13787599999957,
      "lon": 7.724665999999784,
      "name": "Aabach (A1)",
      "city": "",
      "category": "other",
      "tags": [
        "autobahn",
        "a1"
      ],
      "operator": "Autobahn GmbH"
    },
    {
      "id": "autobahn_DE-NW-000013",
      "lat": 52.13251699999957,
      "lon": 7.721348999999781,
      "name": "Mühlenbach (A1)",
      "city": "",
      "category": "other",
      "tags": [
        "autobahn",
        "a1"
      ],
      "operator": "Autobahn GmbH"
    },
    {
      "id": "autobahn_DE-NW-000010",
      "lat": 52.17000999999965,
      "lon": 7.761024999999813,
      "name": "Buddenkuhle (West) (A1)",
      "city": "",
      "category": "public_24h",
      "tags": [
        "autobahn",
        "a1",
        "toilette"
      ],
      "opening_hours": "24/7",
      "operator": "Autobahn GmbH"
    },
    {
      "id": "autobahn_DE-NW-000009",
      "lat": 52.17991399999967,
      "lon": 7.781127999999828,
      "name": "Settel  (Ost) (A1)",
      "city": "",
      "category": "public_24h",
      "tags": [
        "autobahn",
        "a1",
        "toilette"
      ],
      "opening_hours": "24/7",
      "operator": "Autobahn GmbH"
    },
    {
      "id": "autobahn_DE-NW-000007",
      "lat": 52.196650999999704,
      "lon": 7.800088999999841,
      "name": "Wechte (A1)",
      "city": "",
      "category": "other",
      "tags": [
        "autobahn",
        "a1"
      ],
      "operator": "Autobahn GmbH"
    },
    {
      "id": "autobahn_DE-NW-000008",
      "lat": 52.1949179999997,
      "lon": 7.79907199999984,
      "name": "Sonnenhügel (A1)",
      "city": "",
      "category": "other",
      "tags": [
        "autobahn",
        "a1"
      ],
      "operator": "Autobahn GmbH"
    },
    {
      "id": "autobahn_DE-NW-000006",
      "lat": 52.20899799999975,
      "lon": 7.832926999999862,
      "name": "Exterheide (A1)",
      "city": "",
      "category": "other",
      "tags": [
        "autobahn",
        "a1"
      ],
      "operator": "Autobahn GmbH"
    },
    {
      "id": "autobahn_DE-NW-000004",
      "lat": 52.23177299999982,
      "lon": 7.877943999999887,
      "name": "Tecklenburger Land West (A1)",
      "city": "",
      "category": "station",
      "tags": [
        "autobahn",
        "a1",
        "toilette",
        "tankstelle",
        "raststätte",
        "dusche"
      ],
      "operator": "Tank & Rast"
    },
    {
      "id": "autobahn_DE-NW-000002",
      "lat": 52.243908999999825,
      "lon": 7.8988709999998985,
      "name": "Habichtswald (A1)",
      "city": "",
      "category": "other",
      "tags": [
        "autobahn",
        "a1"
      ],
      "operator": "Autobahn GmbH"
    },
    {
      "id": "autobahn_DE-NW-000003",
      "lat": 52.23341399999981,
      "lon": 7.881322999999889,
      "name": "Tecklenburger Land Ost (A1)",
      "city": "",
      "category": "station",
      "tags": [
        "autobahn",
        "a1",
        "toilette",
        "tankstelle",
        "raststätte",
        "dusche"
      ],
      "operator": "Tank & Rast"
    },
    {
      "id": "autobahn_DE-NW-000001",
      "lat": 52.244238999999816,
      "lon": 7.901818999999898,
      "name": "Petersberg (A1)",
      "city": "",
      "category": "other",
      "tags": [
        "autobahn",
        "a1"
      ],
      "operator": "Autobahn GmbH"
    },
    {
      "id": "autobahn_DE-NI-361301",
      "lat": 52.31967599999989,
      "lon": 7.958454999999924,
      "name": "Hasetal W (A1)",
      "city": "",
      "category": "public_24h",
      "tags": [
        "autobahn",
        "a1",
        "toilette"
      ],
      "opening_hours": "24/7",
      "operator": "Autobahn GmbH"
    },
    {
      "id": "autobahn_DE-NI-361302",
      "lat": 52.31874299999987,
      "lon": 7.959762999999924,
      "name": "Hasetal O (A1)",
      "city": "",
      "category": "public_24h",
      "tags": [
        "autobahn",
        "a1",
        "toilette"
      ],
      "opening_hours": "24/7",
      "operator": "Autobahn GmbH"
    },
    {
      "id": "autobahn_DE-NI-351404",
      "lat": 52.46981799999992,
      "lon": 8.053019999999954,
      "name": "NI 42 W bei km 203,3 (A1)",
      "city": "",
      "category": "other",
      "tags": [
        "autobahn",
        "a1"
      ],
      "operator": "Autobahn GmbH"
    },
    {
      "id": "autobahn_DE-NI-351402",
      "lat": 52.42220199999993,
      "lon": 8.030175999999948,
      "name": "Ahrensfeld West (A1)",
      "city": "",
      "category": "public_24h",
      "tags": [
        "autobahn",
        "a1",
        "toilette"
      ],
      "opening_hours": "24/7",
      "operator": "Autobahn GmbH"
    },
    {
      "id": "autobahn_DE-NI-351403",
      "lat": 52.41398899999992,
      "lon": 8.032025999999949,
      "name": "Ahrensfeld Ost (A1)",
      "city": "",
      "category": "public_24h",
      "tags": [
        "autobahn",
        "a1",
        "toilette"
      ],
      "opening_hours": "24/7",
      "operator": "Autobahn GmbH"
    },
    {
      "id": "autobahn_DE-NI-351401",
      "lat": 52.467689999999926,
      "lon": 8.052379999999951,
      "name": "NI 43 O bei km 203,5 (A1)",
      "city": "",
      "category": "other",
      "tags": [
        "autobahn",
        "a1"
      ],
      "operator": "Autobahn GmbH"
    },
    {
      "id": "autobahn_DE-NI-341404",
      "lat": 52.511050999999945,
      "lon": 8.093619999999964,
      "name": "NI 40 W bei km 197,8 (A1)",
      "city": "",
      "category": "other",
      "tags": [
        "autobahn",
        "a1"
      ],
      "operator": "Autobahn GmbH"
    },
    {
      "id": "autobahn_DE-NI-341405",
      "lat": 52.509257999999946,
      "lon": 8.092609999999961,
      "name": "NI 41 O bei km 198,2 (A1)",
      "city": "",
      "category": "other",
      "tags": [
        "autobahn",
        "a1"
      ],
      "operator": "Autobahn GmbH"
    },
    {
      "id": "autobahn_DE-NI-341401",
      "lat": 52.53660999999997,
      "lon": 8.113599999999966,
      "name": "Dammer Berge O (A1)",
      "city": "",
      "category": "station",
      "tags": [
        "autobahn",
        "a1",
        "toilette",
        "tankstelle",
        "raststätte",
        "dusche"
      ],
      "operator": "Tank & Rast"
    },
    {
      "id": "autobahn_DE-NI-341406",
      "lat": 52.541274999999956,
      "lon": 8.111811999999967,
      "name": "Dammer Berge W (A1)",
      "city": "",
      "category": "station",
      "tags": [
        "autobahn",
        "a1",
        "toilette",
        "tankstelle",
        "raststätte",
        "dusche"
      ],
      "operator": "Tank & Rast"
    },
    {
      "id": "autobahn_DE-NI-341403",
      "lat": 52.57466899999995,
      "lon": 8.110529999999967,
      "name": "NI 39 O bei km 190,5 (A1)",
      "city": "",
      "category": "other",
      "tags": [
        "autobahn",
        "a1"
      ],
      "operator": "Autobahn GmbH"
    },
    {
      "id": "autobahn_DE-NI-341402",
      "lat": 52.57762099999995,
      "lon": 8.10926999999997,
      "name": "NI 38 W bei km 190,1 (A1)",
      "city": "",
      "category": "other",
      "tags": [
        "autobahn",
        "a1"
      ],
      "operator": "Autobahn GmbH"
    },
    {
      "id": "autobahn_DE-NI-331403",
      "lat": 52.61286199999996,
      "lon": 8.125879999999968,
      "name": "Langwege Ost (nördl. Holdorf) (A1)",
      "city": "",
      "category": "public_24h",
      "tags": [
        "autobahn",
        "a1",
        "toilette"
      ],
      "opening_hours": "24/7",
      "operator": "Autobahn GmbH"
    },
    {
      "id": "autobahn_DE-NI-331402",
      "lat": 52.61477999999996,
      "lon": 8.12668999999997,
      "name": "Langwege West (nördl. Holdorf) (A1)",
      "city": "",
      "category": "public_24h",
      "tags": [
        "autobahn",
        "a1",
        "toilette"
      ],
      "opening_hours": "24/7",
      "operator": "Autobahn GmbH"
    },
    {
      "id": "autobahn_DE-NI-331401",
      "lat": 52.63682199999996,
      "lon": 8.149009999999974,
      "name": "NI 35 O bei km 183,0 (A1)",
      "city": "",
      "category": "other",
      "tags": [
        "autobahn",
        "a1"
      ],
      "operator": "Autobahn GmbH"
    },
    {
      "id": "autobahn_DE-NI-321503",
      "lat": 52.709491999999976,
      "lon": 8.173479999999977,
      "name": "Bakumer Wiesen O (NI 33 O) (A1)",
      "city": "",
      "category": "public_24h",
      "tags": [
        "autobahn",
        "a1",
        "toilette"
      ],
      "opening_hours": "24/7",
      "operator": "Autobahn GmbH"
    },
    {
      "id": "autobahn_DE-NI-321502",
      "lat": 52.714450999999954,
      "lon": 8.172229999999978,
      "name": "Bakumer Wiesen (A1)",
      "city": "",
      "category": "public_24h",
      "tags": [
        "autobahn",
        "a1",
        "toilette"
      ],
      "opening_hours": "24/7",
      "operator": "Autobahn GmbH"
    },
    {
      "id": "autobahn_DE-NI-321501",
      "lat": 52.78139899999998,
      "lon": 8.19871999999998,
      "name": "NI 30 O Cappeln Hagelage (A1)",
      "city": "",
      "category": "public_24h",
      "tags": [
        "autobahn",
        "a1",
        "toilette"
      ],
      "opening_hours": "24/7",
      "operator": "Autobahn GmbH"
    },
    {
      "id": "autobahn_DE-NI-321504",
      "lat": 52.78519799999998,
      "lon": 8.199489999999981,
      "name": "NI 29 W Cappeln Hagelage (A1)",
      "city": "",
      "category": "public_24h",
      "tags": [
        "autobahn",
        "a1",
        "toilette"
      ],
      "opening_hours": "24/7",
      "operator": "Autobahn GmbH"
    },
    {
      "id": "autobahn_DE-NI-311502",
      "lat": 52.84204099999997,
      "lon": 8.219769999999983,
      "name": "Garterfeld N (A1)",
      "city": "",
      "category": "other",
      "tags": [
        "autobahn",
        "a1"
      ],
      "operator": "Autobahn GmbH"
    },
    {
      "id": "autobahn_DE-NI-311503",
      "lat": 52.829120999999965,
      "lon": 8.215639999999983,
      "name": "Drantumer Mühle S (A1)",
      "city": "",
      "category": "other",
      "tags": [
        "autobahn",
        "a1"
      ],
      "operator": "Autobahn GmbH"
    },
    {
      "id": "autobahn_DE-NI-311504",
      "lat": 52.88615399999999,
      "lon": 8.282641999999987,
      "name": "Engelmannsbäke Nord (A1)",
      "city": "",
      "category": "public_24h",
      "tags": [
        "autobahn",
        "a1",
        "toilette"
      ],
      "opening_hours": "24/7",
      "operator": "Autobahn GmbH"
    },
    {
      "id": "autobahn_DE-NI-311501",
      "lat": 52.88316399999997,
      "lon": 8.27754499999999,
      "name": "Engelmannsbäke Süd (A1)",
      "city": "",
      "category": "other",
      "tags": [
        "autobahn",
        "a1"
      ],
      "operator": "Autobahn GmbH"
    },
    {
      "id": "autobahn_DE-NI-301602",
      "lat": 52.91204100000001,
      "lon": 8.380439999999995,
      "name": "NI 23 bei km 145,5 Nord (A1)",
      "city": "",
      "category": "other",
      "tags": [
        "autobahn",
        "a1"
      ],
      "operator": "Autobahn GmbH"
    },
    {
      "id": "autobahn_DE-NI-301604",
      "lat": 52.91502800000001,
      "lon": 8.422994999999997,
      "name": "Wildeshausen N (A1)",
      "city": "",
      "category": "station",
      "tags": [
        "autobahn",
        "a1",
        "toilette",
        "tankstelle",
        "raststätte",
        "dusche"
      ],
      "operator": "Tank & Rast"
    },
    {
      "id": "autobahn_DE-NI-301603",
      "lat": 52.90813799999998,
      "lon": 8.363549999999998,
      "name": "NI 24 Süd bei km 146,7 (A1)",
      "city": "",
      "category": "other",
      "tags": [
        "autobahn",
        "a1"
      ],
      "operator": "Autobahn GmbH"
    },
    {
      "id": "autobahn_DE-NI-301601",
      "lat": 52.91386099999999,
      "lon": 8.426543000000002,
      "name": "Wildeshausen S (A1)",
      "city": "",
      "category": "station",
      "tags": [
        "autobahn",
        "a1",
        "toilette",
        "tankstelle",
        "raststätte",
        "dusche"
      ],
      "operator": "Tank & Rast"
    },
    {
      "id": "autobahn_DE-NI-301704",
      "lat": 52.93695999999999,
      "lon": 8.506715000000002,
      "name": "NI 21 N bei km 136,1 (A1)",
      "city": "",
      "category": "other",
      "tags": [
        "autobahn",
        "a1"
      ],
      "operator": "Autobahn GmbH"
    },
    {
      "id": "autobahn_DE-NI-301705",
      "lat": 52.935169,
      "lon": 8.505379999999999,
      "name": "NI 22 Süd bei km 136,4 (A1)",
      "city": "",
      "category": "other",
      "tags": [
        "autobahn",
        "a1"
      ],
      "operator": "Autobahn GmbH"
    },
    {
      "id": "autobahn_DE-NI-005229",
      "lat": 52.954492999999985,
      "lon": 8.554095,
      "name": "Delmetal Nord (A1)",
      "city": "",
      "category": "other",
      "tags": [
        "autobahn",
        "a1"
      ],
      "operator": "Autobahn GmbH"
    },
    {
      "id": "autobahn_DE-NI-301701",
      "lat": 52.966648000000006,
      "lon": 8.60085,
      "name": "Ni18 Nord bei km 129,0  (A1)",
      "city": "",
      "category": "other",
      "tags": [
        "autobahn",
        "a1"
      ],
      "operator": "Autobahn GmbH"
    },
    {
      "id": "autobahn_DE-NI-301703",
      "lat": 52.947548,
      "lon": 8.535989999999998,
      "name": "Delmetal  S (NI 20 S) (A1)",
      "city": "",
      "category": "public_24h",
      "tags": [
        "autobahn",
        "a1",
        "toilette"
      ],
      "opening_hours": "24/7",
      "operator": "Autobahn GmbH"
    },
    {
      "id": "autobahn_DE-NI-301801",
      "lat": 52.99787500000001,
      "lon": 8.666029,
      "name": "NI 16 N bei km 123,4 (A1)",
      "city": "",
      "category": "public_24h",
      "tags": [
        "autobahn",
        "a1",
        "toilette"
      ],
      "opening_hours": "24/7",
      "operator": "Autobahn GmbH"
    },
    {
      "id": "autobahn_DE-NI-301702",
      "lat": 52.963451000000006,
      "lon": 8.593649999999998,
      "name": "NI 19 Süd bei km 129,6 (A1)",
      "city": "",
      "category": "other",
      "tags": [
        "autobahn",
        "a1"
      ],
      "operator": "Autobahn GmbH"
    },
    {
      "id": "autobahn_DE-NI-301706",
      "lat": 52.992583,
      "lon": 8.656168,
      "name": "NI 17 Süd bei km 124,2 (A1)",
      "city": "",
      "category": "public_24h",
      "tags": [
        "autobahn",
        "a1",
        "toilette"
      ],
      "opening_hours": "24/7",
      "operator": "Autobahn GmbH"
    },
    {
      "id": "autobahn_DE-HB-000003",
      "lat": 53.024255,
      "lon": 8.841262,
      "name": "Ahlken (A1)",
      "city": "",
      "category": "other",
      "tags": [
        "autobahn",
        "a1"
      ],
      "operator": "Autobahn GmbH"
    },
    {
      "id": "autobahn_DE-HB-000004",
      "lat": 53.02311300000001,
      "lon": 8.827308,
      "name": "Krummhörens Kuhlen (A1)",
      "city": "",
      "category": "public_24h",
      "tags": [
        "autobahn",
        "a1",
        "toilette"
      ],
      "opening_hours": "24/7",
      "operator": "Autobahn GmbH"
    },
    {
      "id": "autobahn_DE-HB-000001",
      "lat": 53.027942,
      "lon": 8.94152,
      "name": "Mahndorfer Marsch (A1)",
      "city": "",
      "category": "public_24h",
      "tags": [
        "autobahn",
        "a1",
        "toilette"
      ],
      "opening_hours": "24/7",
      "operator": "Autobahn GmbH"
    },
    {
      "id": "autobahn_DE-NI-292003",
      "lat": 53.052071000000005,
      "lon": 9.01387,
      "name": "Thünen N (NI 15 N) (A1)",
      "city": "",
      "category": "public_24h",
      "tags": [
        "autobahn",
        "a1",
        "toilette"
      ],
      "opening_hours": "24/7",
      "operator": "Autobahn GmbH"
    },
    {
      "id": "autobahn_DE-NI-292006",
      "lat": 53.05186099999999,
      "lon": 9.02342,
      "name": "Thünen S (A1)",
      "city": "",
      "category": "public_24h",
      "tags": [
        "autobahn",
        "a1",
        "toilette"
      ],
      "opening_hours": "24/7",
      "operator": "Autobahn GmbH"
    },
    {
      "id": "autobahn_DE-NI-292104",
      "lat": 53.090228,
      "lon": 9.176666,
      "name": "Grundbergsee N (A1)",
      "city": "",
      "category": "station",
      "tags": [
        "autobahn",
        "a1",
        "toilette",
        "tankstelle",
        "raststätte",
        "dusche"
      ],
      "operator": "Tank & Rast"
    },
    {
      "id": "autobahn_DE-NI-292101",
      "lat": 53.088759,
      "lon": 9.177642,
      "name": "Grundbergsee S (A1)",
      "city": "",
      "category": "station",
      "tags": [
        "autobahn",
        "a1",
        "toilette",
        "tankstelle",
        "raststätte",
        "dusche"
      ],
      "operator": "Tank & Rast"
    },
    {
      "id": "autobahn_DE-NI-272102",
      "lat": 53.20173,
      "lon": 9.296064,
      "name": "Glindebusch N (A1)",
      "city": "",
      "category": "public_24h",
      "tags": [
        "autobahn",
        "a1",
        "toilette"
      ],
      "opening_hours": "24/7",
      "operator": "Autobahn GmbH"
    },
    {
      "id": "autobahn_DE-NI-272101",
      "lat": 53.200614,
      "lon": 9.297143,
      "name": "Glindbusch S (A1)",
      "city": "",
      "category": "other",
      "tags": [
        "autobahn",
        "a1"
      ],
      "operator": "Autobahn GmbH"
    },
    {
      "id": "autobahn_DE-NI-272201",
      "lat": 53.25538400000001,
      "lon": 9.42786,
      "name": "Hatzte N (A1)",
      "city": "",
      "category": "public_24h",
      "tags": [
        "autobahn",
        "a1",
        "toilette"
      ],
      "opening_hours": "24/7",
      "operator": "Autobahn GmbH"
    },
    {
      "id": "autobahn_DE-NI-272202",
      "lat": 53.25517899999999,
      "lon": 9.430298,
      "name": "Hatzte S (A1)",
      "city": "",
      "category": "public_24h",
      "tags": [
        "autobahn",
        "a1",
        "toilette"
      ],
      "opening_hours": "24/7",
      "operator": "Autobahn GmbH"
    },
    {
      "id": "autobahn_DE-NI-262305",
      "lat": 53.30020199999999,
      "lon": 9.533484000000003,
      "name": "Ostetal N (A1)",
      "city": "",
      "category": "station",
      "tags": [
        "autobahn",
        "a1",
        "toilette",
        "tankstelle",
        "raststätte",
        "dusche"
      ],
      "operator": "Tank & Rast"
    },
    {
      "id": "autobahn_DE-NI-262301",
      "lat": 53.29928099999999,
      "lon": 9.535047000000004,
      "name": "Ostetal S (A1)",
      "city": "",
      "category": "station",
      "tags": [
        "autobahn",
        "a1",
        "toilette",
        "tankstelle",
        "raststätte",
        "dusche"
      ],
      "operator": "Tank & Rast"
    },
    {
      "id": "autobahn_DE-NI-262302",
      "lat": 53.342874,
      "lon": 9.656280000000008,
      "name": "Stellheide S (A1)",
      "city": "",
      "category": "public_24h",
      "tags": [
        "autobahn",
        "a1",
        "toilette"
      ],
      "opening_hours": "24/7",
      "operator": "Autobahn GmbH"
    },
    {
      "id": "autobahn_DE-NI-262402",
      "lat": 53.34866799999999,
      "lon": 9.672029000000009,
      "name": "Stellheide N (A1)",
      "city": "",
      "category": "public_24h",
      "tags": [
        "autobahn",
        "a1",
        "toilette"
      ],
      "opening_hours": "24/7",
      "operator": "Autobahn GmbH"
    },
    {
      "id": "autobahn_DE-NI-262403",
      "lat": 53.366571,
      "lon": 9.73632600000001,
      "name": "Hollenstedt N (A1)",
      "city": "",
      "category": "public_24h",
      "tags": [
        "autobahn",
        "a1",
        "toilette",
        "raststätte",
        "dusche"
      ],
      "operator": "Tank & Rast"
    },
    {
      "id": "autobahn_DE-NI-262401",
      "lat": 53.365383999999985,
      "lon": 9.73764100000001,
      "name": "Aarbachkate S (A1)",
      "city": "",
      "category": "public_24h",
      "tags": [
        "autobahn",
        "a1",
        "toilette",
        "raststätte",
        "dusche"
      ],
      "operator": "Tank & Rast"
    },
    {
      "id": "autobahn_DE-NI-262501",
      "lat": 53.377917999999944,
      "lon": 9.951500000000042,
      "name": "Sunderblick N (A1)",
      "city": "",
      "category": "public_24h",
      "tags": [
        "autobahn",
        "a1",
        "toilette"
      ],
      "opening_hours": "24/7",
      "operator": "Autobahn GmbH"
    },
    {
      "id": "autobahn_DE-NI-262504",
      "lat": 53.378180999999934,
      "lon": 9.959640000000046,
      "name": "Hittfeld S (A1)",
      "city": "",
      "category": "public_24h",
      "tags": [
        "autobahn",
        "a1",
        "toilette"
      ],
      "opening_hours": "24/7",
      "operator": "Autobahn GmbH"
    },
    {
      "id": "autobahn_DE-HH-000005",
      "lat": 53.48440499999988,
      "lon": 10.024803000000064,
      "name": "HH-Stillhorn W (A1)",
      "city": "",
      "category": "other",
      "tags": [
        "autobahn",
        "a1"
      ],
      "operator": "Autobahn GmbH"
    },
    {
      "id": "autobahn_DE-HH-000004",
      "lat": 53.48380799999988,
      "lon": 10.026519000000063,
      "name": "HH-Stillhorn O (A1)",
      "city": "",
      "category": "other",
      "tags": [
        "autobahn",
        "a1"
      ],
      "operator": "Autobahn GmbH"
    },
    {
      "id": "autobahn_DE-SH-001201",
      "lat": 53.62946999999963,
      "lon": 10.248005000000164,
      "name": "Ellerbrook (A1)",
      "city": "",
      "category": "public_24h",
      "tags": [
        "autobahn",
        "a1",
        "toilette"
      ],
      "opening_hours": "24/7",
      "operator": "Autobahn GmbH"
    },
    {
      "id": "autobahn_DE-SH-001202",
      "lat": 53.693122999999495,
      "lon": 10.321078000000215,
      "name": "Buddikate W (A1)",
      "city": "",
      "category": "public_24h",
      "tags": [
        "autobahn",
        "a1",
        "toilette"
      ],
      "opening_hours": "24/7",
      "operator": "Autobahn GmbH"
    },
    {
      "id": "autobahn_DE-SH-001101",
      "lat": 53.636750999999606,
      "lon": 10.260858000000173,
      "name": "Ohlendiek (A1)",
      "city": "",
      "category": "public_24h",
      "tags": [
        "autobahn",
        "a1",
        "toilette"
      ],
      "opening_hours": "24/7",
      "operator": "Autobahn GmbH"
    },
    {
      "id": "autobahn_DE-SH-001102",
      "lat": 53.69359099999947,
      "lon": 10.323388000000218,
      "name": "Buddikate O (A1)",
      "city": "",
      "category": "public_24h",
      "tags": [
        "autobahn",
        "a1",
        "toilette"
      ],
      "opening_hours": "24/7",
      "operator": "Autobahn GmbH"
    },
    {
      "id": "autobahn_DE-SH-001103",
      "lat": 53.80454699999908,
      "lon": 10.454643000000344,
      "name": "Melmshöhe (A1)",
      "city": "",
      "category": "public_24h",
      "tags": [
        "autobahn",
        "a1",
        "toilette"
      ],
      "opening_hours": "24/7",
      "operator": "Autobahn GmbH"
    },
    {
      "id": "autobahn_DE-SH-001203",
      "lat": 53.81894899999897,
      "lon": 10.480169000000373,
      "name": "Trave W (A1)",
      "city": "",
      "category": "public_24h",
      "tags": [
        "autobahn",
        "a1",
        "toilette"
      ],
      "opening_hours": "24/7",
      "operator": "Autobahn GmbH"
    },
    {
      "id": "autobahn_DE-SH-001204",
      "lat": 53.93084599999742,
      "lon": 10.729238000000777,
      "name": "Sereetzer Feld W (A1)",
      "city": "",
      "category": "public_24h",
      "tags": [
        "autobahn",
        "a1",
        "toilette"
      ],
      "opening_hours": "24/7",
      "operator": "Autobahn GmbH"
    },
    {
      "id": "autobahn_DE-SH-001104",
      "lat": 53.93221599999739,
      "lon": 10.732364000000782,
      "name": "Sereetzer Feld O (A1)",
      "city": "",
      "category": "public_24h",
      "tags": [
        "autobahn",
        "a1",
        "toilette"
      ],
      "opening_hours": "24/7",
      "operator": "Autobahn GmbH"
    },
    {
      "id": "autobahn_DE-SH-001105",
      "lat": 54.06874999999717,
      "lon": 10.756699000000822,
      "name": "Neustädter Bucht O (A1)",
      "city": "",
      "category": "public_24h",
      "tags": [
        "autobahn",
        "a1",
        "toilette"
      ],
      "opening_hours": "24/7",
      "operator": "Autobahn GmbH"
    },
    {
      "id": "autobahn_DE-SH-001205",
      "lat": 54.07059799999718,
      "lon": 10.755669000000818,
      "name": "Neustädter Bucht W (A1)",
      "city": "",
      "category": "public_24h",
      "tags": [
        "autobahn",
        "a1",
        "toilette"
      ],
      "opening_hours": "24/7",
      "operator": "Autobahn GmbH"
    },
    {
      "id": "autobahn_DE-SH-001206",
      "lat": 54.15512099999609,
      "lon": 10.855019000001047,
      "name": "Hasselburger Mühle W (A1)",
      "city": "",
      "category": "public_24h",
      "tags": [
        "autobahn",
        "a1",
        "toilette"
      ],
      "opening_hours": "24/7",
      "operator": "Autobahn GmbH"
    },
    {
      "id": "autobahn_DE-SH-001107",
      "lat": 54.2404069999956,
      "lon": 10.891838000001131,
      "name": "Damlos (A1)",
      "city": "",
      "category": "public_24h",
      "tags": [
        "autobahn",
        "a1",
        "toilette"
      ],
      "opening_hours": "24/7",
      "operator": "Autobahn GmbH"
    },
    {
      "id": "autobahn_DE-SH-001207",
      "lat": 54.3626719999942,
      "lon": 10.982374000001366,
      "name": "Ostseeblick N (A1)",
      "city": "",
      "category": "public_24h",
      "tags": [
        "autobahn",
        "a1",
        "toilette"
      ],
      "opening_hours": "24/7",
      "operator": "Autobahn GmbH"
    },
    {
      "id": "autobahn_DE-NW-000089",
      "lat": 51.54086799999135,
      "lon": 6.884395999997243,
      "name": "Schwarze Heide (Nord) (A2)",
      "city": "",
      "category": "public_24h",
      "tags": [
        "autobahn",
        "a2",
        "toilette"
      ],
      "opening_hours": "24/7",
      "operator": "Autobahn GmbH"
    },
    {
      "id": "autobahn_DE-NW-000088",
      "lat": 51.54003999999139,
      "lon": 6.886748999997257,
      "name": "Bottrop Süd (A2)",
      "city": "",
      "category": "station",
      "tags": [
        "autobahn",
        "a2",
        "toilette",
        "tankstelle",
        "raststätte",
        "dusche"
      ],
      "operator": "Tank & Rast"
    },
    {
      "id": "autobahn_DE-NW-000087",
      "lat": 51.55718999999435,
      "lon": 7.029777999998032,
      "name": "Allenstein (Süd) (A2)",
      "city": "",
      "category": "public_24h",
      "tags": [
        "autobahn",
        "a2",
        "toilette"
      ],
      "opening_hours": "24/7",
      "operator": "Autobahn GmbH"
    },
    {
      "id": "autobahn_DE-NW-000085",
      "lat": 51.57096099999545,
      "lon": 7.100453999998351,
      "name": "Resser Mark Nord (A2)",
      "city": "",
      "category": "station",
      "tags": [
        "autobahn",
        "a2",
        "toilette",
        "tankstelle",
        "raststätte",
        "dusche"
      ],
      "operator": "Tank & Rast"
    },
    {
      "id": "autobahn_DE-NW-000086",
      "lat": 51.56995399999546,
      "lon": 7.100374999998349,
      "name": "Resser Mark S (A2)",
      "city": "",
      "category": "public_24h",
      "tags": [
        "autobahn",
        "a2",
        "toilette"
      ],
      "opening_hours": "24/7",
      "operator": "Autobahn GmbH"
    },
    {
      "id": "autobahn_DE-NW-000083",
      "lat": 51.581572999996474,
      "lon": 7.178112999998653,
      "name": "Hohenhorst (A2)",
      "city": "",
      "category": "public_24h",
      "tags": [
        "autobahn",
        "a2",
        "toilette"
      ],
      "opening_hours": "24/7",
      "operator": "Autobahn GmbH"
    },
    {
      "id": "autobahn_DE-NW-000084",
      "lat": 51.58030099999647,
      "lon": 7.179253999998658,
      "name": "Stuckenbusch (A2)",
      "city": "",
      "category": "public_24h",
      "tags": [
        "autobahn",
        "a2",
        "toilette"
      ],
      "opening_hours": "24/7",
      "operator": "Autobahn GmbH"
    },
    {
      "id": "autobahn_DE-NW-000082",
      "lat": 51.59960899999792,
      "lon": 7.334315999999134,
      "name": "Ickern (A2)",
      "city": "",
      "category": "public_24h",
      "tags": [
        "autobahn",
        "a2",
        "toilette"
      ],
      "opening_hours": "24/7",
      "operator": "Autobahn GmbH"
    },
    {
      "id": "autobahn_DE-NW-000081",
      "lat": 51.58226299999854,
      "lon": 7.431307999999354,
      "name": "Kleine Herrenthey (A2)",
      "city": "",
      "category": "public_24h",
      "tags": [
        "autobahn",
        "a2",
        "toilette"
      ],
      "opening_hours": "24/7",
      "operator": "Autobahn GmbH"
    },
    {
      "id": "autobahn_DE-NW-000080",
      "lat": 51.58956499999922,
      "lon": 7.587437999999617,
      "name": "Paschheide (A2)",
      "city": "",
      "category": "public_24h",
      "tags": [
        "autobahn",
        "a2",
        "toilette"
      ],
      "opening_hours": "24/7",
      "operator": "Autobahn GmbH"
    },
    {
      "id": "autobahn_DE-NW-000079",
      "lat": 51.606388999999595,
      "lon": 7.73555399999978,
      "name": "Kolberg (A2)",
      "city": "",
      "category": "public_24h",
      "tags": [
        "autobahn",
        "a2",
        "toilette"
      ],
      "opening_hours": "24/7",
      "operator": "Autobahn GmbH"
    },
    {
      "id": "autobahn_DE-NW-000077",
      "lat": 51.630308999999784,
      "lon": 7.8738639999998785,
      "name": "Rhynern Süd (A2)",
      "city": "",
      "category": "station",
      "tags": [
        "autobahn",
        "a2",
        "toilette",
        "tankstelle",
        "raststätte",
        "dusche"
      ],
      "operator": "Tank & Rast"
    },
    {
      "id": "autobahn_DE-NW-000078",
      "lat": 51.631748999999814,
      "lon": 7.873201999999877,
      "name": "Rhynern Nord (A2)",
      "city": "",
      "category": "station",
      "tags": [
        "autobahn",
        "a2",
        "toilette",
        "tankstelle",
        "raststätte",
        "dusche"
      ],
      "operator": "Tank & Rast"
    },
    {
      "id": "autobahn_DE-NW-000076",
      "lat": 51.67098499999986,
      "lon": 7.935890999999907,
      "name": "Im Großen Klei (A2)",
      "city": "",
      "category": "other",
      "tags": [
        "autobahn",
        "a2"
      ],
      "operator": "Autobahn GmbH"
    },
    {
      "id": "autobahn_DE-NW-000074",
      "lat": 51.723840999999894,
      "lon": 7.979268999999926,
      "name": "Brunsberg (A2)",
      "city": "",
      "category": "other",
      "tags": [
        "autobahn",
        "a2"
      ],
      "operator": "Autobahn GmbH"
    },
    {
      "id": "autobahn_DE-NW-000073",
      "lat": 51.723857999999886,
      "lon": 7.981131999999926,
      "name": "Stettin (A2)",
      "city": "",
      "category": "other",
      "tags": [
        "autobahn",
        "a2"
      ],
      "operator": "Autobahn GmbH"
    },
    {
      "id": "autobahn_DE-NW-000071",
      "lat": 51.79215399999994,
      "lon": 8.073598999999955,
      "name": "Vellern (A2)",
      "city": "",
      "category": "public_24h",
      "tags": [
        "autobahn",
        "a2",
        "toilette"
      ],
      "opening_hours": "24/7",
      "operator": "Autobahn GmbH"
    },
    {
      "id": "autobahn_DE-NW-000072",
      "lat": 51.791521999999944,
      "lon": 8.074787999999955,
      "name": "Vellern Süd (A2)",
      "city": "",
      "category": "other",
      "tags": [
        "autobahn",
        "a2"
      ],
      "operator": "Autobahn GmbH"
    },
    {
      "id": "autobahn_DE-NW-000069",
      "lat": 51.82642499999997,
      "lon": 8.199930999999978,
      "name": "Marburg (A2)",
      "city": "",
      "category": "other",
      "tags": [
        "autobahn",
        "a2"
      ],
      "operator": "Autobahn GmbH"
    },
    {
      "id": "autobahn_DE-NW-000067",
      "lat": 51.86606799999999,
      "lon": 8.369126999999994,
      "name": "Gütersloh Nord (A2)",
      "city": "",
      "category": "station",
      "tags": [
        "autobahn",
        "a2",
        "toilette",
        "tankstelle",
        "raststätte",
        "dusche"
      ],
      "operator": "Tank & Rast"
    },
    {
      "id": "autobahn_DE-NW-000066",
      "lat": 51.865318999999985,
      "lon": 8.370254999999995,
      "name": "Gütersloh Süd (A2)",
      "city": "",
      "category": "station",
      "tags": [
        "autobahn",
        "a2",
        "toilette",
        "tankstelle",
        "raststätte",
        "dusche"
      ],
      "operator": "Tank & Rast"
    },
    {
      "id": "autobahn_DE-NW-000065",
      "lat": 51.893232000000005,
      "lon": 8.452702999999998,
      "name": "Sürenheide (A2)",
      "city": "",
      "category": "other",
      "tags": [
        "autobahn",
        "a2"
      ],
      "operator": "Autobahn GmbH"
    },
    {
      "id": "autobahn_DE-NW-000064",
      "lat": 51.895895,
      "lon": 8.456329999999998,
      "name": "Heideplatz (A2)",
      "city": "",
      "category": "other",
      "tags": [
        "autobahn",
        "a2"
      ],
      "operator": "Autobahn GmbH"
    },
    {
      "id": "autobahn_DE-NW-000063",
      "lat": 51.927791,
      "lon": 8.529508999999997,
      "name": "Niedergassel (A2)",
      "city": "",
      "category": "public_24h",
      "tags": [
        "autobahn",
        "a2",
        "toilette",
        "raststätte",
        "dusche"
      ],
      "operator": "Tank & Rast"
    },
    {
      "id": "autobahn_DE-NW-000062",
      "lat": 51.929291000000006,
      "lon": 8.531933999999998,
      "name": "Obergassel (A2)",
      "city": "",
      "category": "public_24h",
      "tags": [
        "autobahn",
        "a2",
        "toilette",
        "raststätte",
        "dusche"
      ],
      "operator": "Tank & Rast"
    },
    {
      "id": "autobahn_DE-NW-000060",
      "lat": 52.019462000000004,
      "lon": 8.633352,
      "name": "Brönninghausen (A2)",
      "city": "",
      "category": "public_24h",
      "tags": [
        "autobahn",
        "a2",
        "toilette"
      ],
      "opening_hours": "24/7",
      "operator": "Autobahn GmbH"
    },
    {
      "id": "autobahn_DE-NW-000061",
      "lat": 52.018095999999986,
      "lon": 8.63481,
      "name": "Lipperland Süd (A2)",
      "city": "",
      "category": "station",
      "tags": [
        "autobahn",
        "a2",
        "toilette",
        "tankstelle",
        "raststätte",
        "dusche"
      ],
      "operator": "Tank & Rast"
    },
    {
      "id": "autobahn_DE-NW-000059",
      "lat": 52.07206,
      "lon": 8.664697,
      "name": "Lipperland Nord (A2)",
      "city": "",
      "category": "station",
      "tags": [
        "autobahn",
        "a2",
        "toilette",
        "tankstelle",
        "raststätte",
        "dusche"
      ],
      "operator": "Tank & Rast"
    },
    {
      "id": "autobahn_DE-NW-000058",
      "lat": 52.102575999999985,
      "lon": 8.719765,
      "name": "Herford Nord (A2)",
      "city": "",
      "category": "station",
      "tags": [
        "autobahn",
        "a2",
        "toilette",
        "tankstelle",
        "raststätte"
      ],
      "operator": "Tank & Rast"
    },
    {
      "id": "autobahn_DE-NW-000055",
      "lat": 52.211167999999994,
      "lon": 8.930938,
      "name": "Löwenburg (A2)",
      "city": "",
      "category": "public_24h",
      "tags": [
        "autobahn",
        "a2",
        "toilette"
      ],
      "opening_hours": "24/7",
      "operator": "Autobahn GmbH"
    },
    {
      "id": "autobahn_DE-NW-007344",
      "lat": 52.211001999999986,
      "lon": 8.934010000000002,
      "name": "Fuchsgrund (Süd) (A2)",
      "city": "",
      "category": "other",
      "tags": [
        "autobahn",
        "a2"
      ],
      "operator": "Autobahn GmbH"
    },
    {
      "id": "autobahn_DE-NI-372001",
      "lat": 52.21902,
      "lon": 9.055618,
      "name": "Papenbrink N (A2)",
      "city": "",
      "category": "public_24h",
      "tags": [
        "autobahn",
        "a2",
        "toilette"
      ],
      "opening_hours": "24/7",
      "operator": "Autobahn GmbH"
    },
    {
      "id": "autobahn_DE-NI-372002",
      "lat": 52.217653,
      "lon": 9.054136,
      "name": "Papenbrink S (A2)",
      "city": "",
      "category": "public_24h",
      "tags": [
        "autobahn",
        "a2",
        "toilette"
      ],
      "opening_hours": "24/7",
      "operator": "Autobahn GmbH"
    },
    {
      "id": "autobahn_DE-NI-372101",
      "lat": 52.223363,
      "lon": 9.222244,
      "name": "Auetal N (A2)",
      "city": "",
      "category": "station",
      "tags": [
        "autobahn",
        "a2",
        "toilette",
        "tankstelle",
        "raststätte",
        "dusche"
      ],
      "operator": "Tank & Rast"
    },
    {
      "id": "autobahn_DE-NI-372104",
      "lat": 52.21577100000001,
      "lon": 9.16833,
      "name": "Bernser Kirchweg S (A2)",
      "city": "",
      "category": "other",
      "tags": [
        "autobahn",
        "a2"
      ],
      "operator": "Autobahn GmbH"
    },
    {
      "id": "autobahn_DE-NI-372105",
      "lat": 52.25798499999999,
      "lon": 9.307398,
      "name": "Schafstrift N (A2)",
      "city": "",
      "category": "public_24h",
      "tags": [
        "autobahn",
        "a2",
        "toilette",
        "raststätte",
        "dusche"
      ],
      "operator": "Tank & Rast"
    },
    {
      "id": "autobahn_DE-NI-372102",
      "lat": 52.226501000000006,
      "lon": 9.23209,
      "name": "Auetal S (A2)",
      "city": "",
      "category": "station",
      "tags": [
        "autobahn",
        "a2",
        "toilette",
        "tankstelle",
        "raststätte",
        "dusche"
      ],
      "operator": "Tank & Rast"
    },
    {
      "id": "autobahn_DE-NI-372103",
      "lat": 52.262019,
      "lon": 9.314116,
      "name": "Schafstrift S (A2)",
      "city": "",
      "category": "public_24h",
      "tags": [
        "autobahn",
        "a2",
        "toilette"
      ],
      "opening_hours": "24/7",
      "operator": "Autobahn GmbH"
    },
    {
      "id": "autobahn_DE-NI-362201",
      "lat": 52.34807600000001,
      "lon": 9.420964000000001,
      "name": "Bückethaler Knick N (Bad Nenndorf N) (A2)",
      "city": "",
      "category": "public_24h",
      "tags": [
        "autobahn",
        "a2",
        "toilette"
      ],
      "opening_hours": "24/7",
      "operator": "Autobahn GmbH"
    },
    {
      "id": "autobahn_DE-NI-362202",
      "lat": 52.34591500000001,
      "lon": 9.422876,
      "name": "Bückethaler Knick S (Bad Nenndorf S) (A2)",
      "city": "",
      "category": "public_24h",
      "tags": [
        "autobahn",
        "a2",
        "toilette"
      ],
      "opening_hours": "24/7",
      "operator": "Autobahn GmbH"
    },
    {
      "id": "autobahn_DE-NI-005252",
      "lat": 52.422056999999995,
      "lon": 9.553318000000003,
      "name": "Garbsen N (A2)",
      "city": "",
      "category": "other",
      "tags": [
        "autobahn",
        "a2"
      ],
      "operator": "Autobahn GmbH"
    },
    {
      "id": "autobahn_DE-NI-352301",
      "lat": 52.421417999999996,
      "lon": 9.565118000000004,
      "name": "Garbsen S (A2)",
      "city": "",
      "category": "station",
      "tags": [
        "autobahn",
        "a2",
        "toilette",
        "tankstelle",
        "raststätte",
        "dusche"
      ],
      "operator": "Tank & Rast"
    },
    {
      "id": "autobahn_DE-NI-352401",
      "lat": 52.43097299999999,
      "lon": 9.696235000000009,
      "name": "Godshorn N (A2)",
      "city": "",
      "category": "public_24h",
      "tags": [
        "autobahn",
        "a2",
        "toilette"
      ],
      "opening_hours": "24/7",
      "operator": "Autobahn GmbH"
    },
    {
      "id": "autobahn_DE-NI-352402",
      "lat": 52.426622999999985,
      "lon": 9.755352000000016,
      "name": "Vahrenheide S (A2)",
      "city": "",
      "category": "public_24h",
      "tags": [
        "autobahn",
        "a2",
        "toilette"
      ],
      "opening_hours": "24/7",
      "operator": "Autobahn GmbH"
    },
    {
      "id": "autobahn_DE-NI-352403",
      "lat": 52.42667599999998,
      "lon": 9.823702000000026,
      "name": "Varrelheide N (A2)",
      "city": "",
      "category": "public_24h",
      "tags": [
        "autobahn",
        "a2",
        "toilette"
      ],
      "opening_hours": "24/7",
      "operator": "Autobahn GmbH"
    },
    {
      "id": "autobahn_DE-NI-352404",
      "lat": 52.42657099999998,
      "lon": 9.819886000000023,
      "name": "Varrelheide S (A2)",
      "city": "",
      "category": "public_24h",
      "tags": [
        "autobahn",
        "a2",
        "toilette"
      ],
      "opening_hours": "24/7",
      "operator": "Autobahn GmbH"
    },
    {
      "id": "autobahn_DE-NI-005250",
      "lat": 52.3883979999999,
      "lon": 9.997048000000062,
      "name": "Lehrter See N (A2)",
      "city": "",
      "category": "other",
      "tags": [
        "autobahn",
        "a2"
      ],
      "operator": "Autobahn GmbH"
    },
    {
      "id": "autobahn_DE-NI-005355",
      "lat": 52.386553999999904,
      "lon": 9.999511000000064,
      "name": "Lehrter See Süd (A2)",
      "city": "",
      "category": "other",
      "tags": [
        "autobahn",
        "a2"
      ],
      "operator": "Autobahn GmbH"
    },
    {
      "id": "autobahn_DE-NI-362603",
      "lat": 52.36059099999975,
      "lon": 10.165003000000139,
      "name": "Röhrse N (A2)",
      "city": "",
      "category": "public_24h",
      "tags": [
        "autobahn",
        "a2",
        "toilette"
      ],
      "opening_hours": "24/7",
      "operator": "Autobahn GmbH"
    },
    {
      "id": "autobahn_DE-NI-362602",
      "lat": 52.35988199999976,
      "lon": 10.155308000000128,
      "name": "Röhrse S (A2)",
      "city": "",
      "category": "public_24h",
      "tags": [
        "autobahn",
        "a2",
        "toilette"
      ],
      "opening_hours": "24/7",
      "operator": "Autobahn GmbH"
    },
    {
      "id": "autobahn_DE-NI-362802",
      "lat": 52.3406189999994,
      "lon": 10.355050000000286,
      "name": "Zweidorfer Holz N (A2)",
      "city": "",
      "category": "station",
      "tags": [
        "autobahn",
        "a2",
        "toilette",
        "tankstelle",
        "raststätte",
        "dusche"
      ],
      "operator": "Tank & Rast"
    },
    {
      "id": "autobahn_DE-NI-362801",
      "lat": 52.33884599999937,
      "lon": 10.360508000000292,
      "name": "Zweidorfer Holz S (A2)",
      "city": "",
      "category": "station",
      "tags": [
        "autobahn",
        "a2",
        "toilette",
        "tankstelle",
        "raststätte",
        "dusche"
      ],
      "operator": "Tank & Rast"
    },
    {
      "id": "autobahn_DE-NI-362901",
      "lat": 52.31010799999801,
      "lon": 10.653812000000771,
      "name": "Essehof N (A2)",
      "city": "",
      "category": "public_24h",
      "tags": [
        "autobahn",
        "a2",
        "toilette"
      ],
      "opening_hours": "24/7",
      "operator": "Autobahn GmbH"
    },
    {
      "id": "autobahn_DE-NI-363001",
      "lat": 52.30729599999767,
      "lon": 10.700518000000883,
      "name": "Essehof S (A2)",
      "city": "",
      "category": "public_24h",
      "tags": [
        "autobahn",
        "a2",
        "toilette"
      ],
      "opening_hours": "24/7",
      "operator": "Autobahn GmbH"
    },
    {
      "id": "autobahn_DE-NI-363101",
      "lat": 52.306441999996196,
      "lon": 10.843638000001304,
      "name": "Uhry N (A2)",
      "city": "",
      "category": "public_24h",
      "tags": [
        "autobahn",
        "a2",
        "toilette"
      ],
      "opening_hours": "24/7",
      "operator": "Autobahn GmbH"
    },
    {
      "id": "autobahn_DE-NI-363102",
      "lat": 52.304818999996215,
      "lon": 10.842321000001302,
      "name": "Uhry S (A2)",
      "city": "",
      "category": "public_24h",
      "tags": [
        "autobahn",
        "a2",
        "toilette"
      ],
      "opening_hours": "24/7",
      "operator": "Autobahn GmbH"
    },
    {
      "id": "autobahn_DE-NI-373202",
      "lat": 52.233001999993355,
      "lon": 11.023770000002047,
      "name": "Helmstedt S (A2)",
      "city": "",
      "category": "station",
      "tags": [
        "autobahn",
        "a2",
        "toilette",
        "tankstelle",
        "raststätte",
        "dusche"
      ],
      "operator": "Tank & Rast"
    },
    {
      "id": "autobahn_DE-NI-373201",
      "lat": 52.22106799999271,
      "lon": 11.0551490000022,
      "name": "Lappwald N (A2)",
      "city": "",
      "category": "station",
      "tags": [
        "autobahn",
        "a2",
        "toilette",
        "tankstelle",
        "raststätte",
        "dusche"
      ],
      "operator": "Tank & Rast"
    },
    {
      "id": "autobahn_DE-NI-373204",
      "lat": 52.22027399999275,
      "lon": 11.053709000002193,
      "name": "Waldkater (A2)",
      "city": "",
      "category": "other",
      "tags": [
        "autobahn",
        "a2"
      ],
      "operator": "Autobahn GmbH"
    },
    {
      "id": "autobahn_DE-NI-373203",
      "lat": 52.22190099999285,
      "lon": 11.048800000002169,
      "name": "RA A2 km 129 S (A2)",
      "city": "",
      "category": "other",
      "tags": [
        "autobahn",
        "a2"
      ],
      "operator": "Autobahn GmbH"
    },
    {
      "id": "autobahn_DE-ST-002050",
      "lat": 52.215568999992165,
      "lon": 11.080230000002329,
      "name": "Marienborn  (A2)",
      "city": "",
      "category": "station",
      "tags": [
        "autobahn",
        "a2",
        "toilette",
        "tankstelle",
        "raststätte",
        "dusche"
      ],
      "operator": "Tank & Rast"
    },
    {
      "id": "autobahn_DE-ST-002041",
      "lat": 52.199782999987626,
      "lon": 11.245480000003292,
      "name": "Lorkberg Nord (A2)",
      "city": "",
      "category": "public_24h",
      "tags": [
        "autobahn",
        "a2",
        "toilette"
      ],
      "opening_hours": "24/7",
      "operator": "Autobahn GmbH"
    },
    {
      "id": "autobahn_DE-ST-002040",
      "lat": 52.19847599998757,
      "lon": 11.2465630000033,
      "name": "Lorkberg Sued (A2)",
      "city": "",
      "category": "public_24h",
      "tags": [
        "autobahn",
        "a2",
        "toilette"
      ],
      "opening_hours": "24/7",
      "operator": "Autobahn GmbH"
    },
    {
      "id": "autobahn_DE-ST-002031",
      "lat": 52.18525599997903,
      "lon": 11.452319000004781,
      "name": "Börde Nord (A2)",
      "city": "",
      "category": "station",
      "tags": [
        "autobahn",
        "a2",
        "toilette",
        "tankstelle",
        "raststätte",
        "dusche"
      ],
      "operator": "Tank & Rast"
    },
    {
      "id": "autobahn_DE-ST-002030",
      "lat": 52.18339999997903,
      "lon": 11.452171000004778,
      "name": "Börde Sued (A2)",
      "city": "",
      "category": "station",
      "tags": [
        "autobahn",
        "a2",
        "toilette",
        "tankstelle",
        "raststätte",
        "dusche"
      ],
      "operator": "Tank & Rast"
    },
    {
      "id": "autobahn_DE-ST-002021",
      "lat": 52.22822199995795,
      "lon": 11.754016000007152,
      "name": "Krähenberge Nord (A2)",
      "city": "",
      "category": "public_24h",
      "tags": [
        "autobahn",
        "a2",
        "toilette"
      ],
      "opening_hours": "24/7",
      "operator": "Autobahn GmbH"
    },
    {
      "id": "autobahn_DE-ST-002020",
      "lat": 52.22695499995789,
      "lon": 11.754681000007155,
      "name": "Krähenberge Sued (A2)",
      "city": "",
      "category": "public_24h",
      "tags": [
        "autobahn",
        "a2",
        "toilette"
      ],
      "opening_hours": "24/7",
      "operator": "Autobahn GmbH"
    },
    {
      "id": "autobahn_DE-ST-001211",
      "lat": 52.23615199993176,
      "lon": 11.985801000008543,
      "name": "Ihlegrund Nord (A2)",
      "city": "",
      "category": "other",
      "tags": [
        "autobahn",
        "a2"
      ],
      "operator": "Autobahn GmbH"
    },
    {
      "id": "autobahn_DE-ST-001212",
      "lat": 52.23507799993422,
      "lon": 11.96764400000847,
      "name": "Ihlegrund Sued (A2)",
      "city": "",
      "category": "other",
      "tags": [
        "autobahn",
        "a2"
      ],
      "operator": "Autobahn GmbH"
    },
    {
      "id": "autobahn_DE-ST-002010",
      "lat": 52.24494999990636,
      "lon": 12.147838000008637,
      "name": "Wüstenforst Nord (A2)",
      "city": "",
      "category": "public_24h",
      "tags": [
        "autobahn",
        "a2",
        "toilette"
      ],
      "opening_hours": "24/7",
      "operator": "Autobahn GmbH"
    },
    {
      "id": "autobahn_DE-ST-002011",
      "lat": 52.24312599990723,
      "lon": 12.142861000008658,
      "name": "Wüstenforst Sued (A2)",
      "city": "",
      "category": "public_24h",
      "tags": [
        "autobahn",
        "a2",
        "toilette"
      ],
      "opening_hours": "24/7",
      "operator": "Autobahn GmbH"
    },
    {
      "id": "autobahn_DE-BB-373901",
      "lat": 52.25190799987397,
      "lon": 12.307746000007342,
      "name": "Buckautal N (A2)",
      "city": "",
      "category": "station",
      "tags": [
        "autobahn",
        "a2",
        "toilette",
        "tankstelle",
        "raststätte",
        "dusche"
      ],
      "operator": "Tank & Rast"
    },
    {
      "id": "autobahn_DE-BB-373902",
      "lat": 52.250983999873526,
      "lon": 12.309836000007316,
      "name": "Buckautal S (A2)",
      "city": "",
      "category": "station",
      "tags": [
        "autobahn",
        "a2",
        "toilette",
        "tankstelle",
        "raststätte",
        "dusche"
      ],
      "operator": "Tank & Rast"
    },
    {
      "id": "autobahn_DE-BB-364103",
      "lat": 52.3419929998186,
      "lon": 12.515211000001482,
      "name": "Wendgräben (A2)",
      "city": "",
      "category": "public_24h",
      "tags": [
        "autobahn",
        "a2",
        "toilette"
      ],
      "opening_hours": "24/7",
      "operator": "Autobahn GmbH"
    },
    {
      "id": "autobahn_DE-BB-364104",
      "lat": 52.341358999818105,
      "lon": 12.516849000001422,
      "name": "Temnitz (A2)",
      "city": "",
      "category": "public_24h",
      "tags": [
        "autobahn",
        "a2",
        "toilette"
      ],
      "opening_hours": "24/7",
      "operator": "Autobahn GmbH"
    },
    {
      "id": "autobahn_DE-BB-364102",
      "lat": 52.339921999775605,
      "lon": 12.642374999995045,
      "name": "Rietzer See (A2)",
      "city": "",
      "category": "public_24h",
      "tags": [
        "autobahn",
        "a2",
        "toilette"
      ],
      "opening_hours": "24/7",
      "operator": "Autobahn GmbH"
    },
    {
      "id": "autobahn_DE-BB-364101",
      "lat": 52.33815099977449,
      "lon": 12.645403999994869,
      "name": "Grebser Heide (A2)",
      "city": "",
      "category": "public_24h",
      "tags": [
        "autobahn",
        "a2",
        "toilette"
      ],
      "opening_hours": "24/7",
      "operator": "Autobahn GmbH"
    },
    {
      "id": "autobahn_DE-BY-000131",
      "lat": 48.41522899931397,
      "lon": 13.416121999971182,
      "name": "Vorstauraum Suben (A3)",
      "city": "",
      "category": "public_24h",
      "tags": [
        "autobahn",
        "a3",
        "toilette"
      ],
      "opening_hours": "24/7",
      "operator": "Autobahn GmbH"
    },
    {
      "id": "autobahn_DE-BY-000130",
      "lat": 48.4548329993506,
      "lon": 13.375228999979031,
      "name": "Rottal W (A3)",
      "city": "",
      "category": "public_24h",
      "tags": [
        "autobahn",
        "a3",
        "toilette"
      ],
      "opening_hours": "24/7",
      "operator": "Autobahn GmbH"
    },
    {
      "id": "autobahn_DE-BY-000129",
      "lat": 48.46145099935042,
      "lon": 13.375341999978767,
      "name": "Rottal O (A3)",
      "city": "",
      "category": "public_24h",
      "tags": [
        "autobahn",
        "a3",
        "toilette"
      ],
      "opening_hours": "24/7",
      "operator": "Autobahn GmbH"
    },
    {
      "id": "autobahn_DE-BY-000127",
      "lat": 48.55845199933683,
      "lon": 13.389302999972086,
      "name": "Hammerbach (A3)",
      "city": "",
      "category": "other",
      "tags": [
        "autobahn",
        "a3"
      ],
      "operator": "Autobahn GmbH"
    },
    {
      "id": "autobahn_DE-BY-000128",
      "lat": 48.546095999328735,
      "lon": 13.39835399997043,
      "name": "Brentermais  (A3)",
      "city": "",
      "category": "other",
      "tags": [
        "autobahn",
        "a3"
      ],
      "operator": "Autobahn GmbH"
    },
    {
      "id": "autobahn_DE-BY-000126",
      "lat": 48.58951199935785,
      "lon": 13.365275999976355,
      "name": "Donautal W (A3)",
      "city": "",
      "category": "station",
      "tags": [
        "autobahn",
        "a3",
        "toilette",
        "tankstelle",
        "raststätte",
        "dusche"
      ],
      "operator": "Tank & Rast"
    },
    {
      "id": "autobahn_DE-BY-000125",
      "lat": 48.588523999356724,
      "lon": 13.366574999976107,
      "name": "Donautal O (A3)",
      "city": "",
      "category": "station",
      "tags": [
        "autobahn",
        "a3",
        "toilette",
        "tankstelle",
        "raststätte",
        "dusche"
      ],
      "operator": "Tank & Rast"
    },
    {
      "id": "autobahn_DE-BY-000124",
      "lat": 48.62066899937029,
      "lon": 13.350647999978401,
      "name": "Eichet  (A3)",
      "city": "",
      "category": "other",
      "tags": [
        "autobahn",
        "a3"
      ],
      "operator": "Autobahn GmbH"
    },
    {
      "id": "autobahn_DE-BY-000123",
      "lat": 48.63566699941341,
      "lon": 13.299104999988026,
      "name": "Jägerhölzl  (A3)",
      "city": "",
      "category": "public_24h",
      "tags": [
        "autobahn",
        "a3",
        "toilette"
      ],
      "opening_hours": "24/7",
      "operator": "Autobahn GmbH"
    },
    {
      "id": "autobahn_DE-BY-000122",
      "lat": 48.639444999416874,
      "lon": 13.294808999988685,
      "name": "Stierwaid (A3)",
      "city": "",
      "category": "other",
      "tags": [
        "autobahn",
        "a3"
      ],
      "operator": "Autobahn GmbH"
    },
    {
      "id": "autobahn_DE-BY-000120",
      "lat": 48.67563099946254,
      "lon": 13.236153999997322,
      "name": "Schaufelholz  (A3)",
      "city": "",
      "category": "other",
      "tags": [
        "autobahn",
        "a3"
      ],
      "operator": "Autobahn GmbH"
    },
    {
      "id": "autobahn_DE-BY-000121",
      "lat": 48.67553999945729,
      "lon": 13.243059999996262,
      "name": "Geißberg  (A3)",
      "city": "",
      "category": "other",
      "tags": [
        "autobahn",
        "a3"
      ],
      "operator": "Autobahn GmbH"
    },
    {
      "id": "autobahn_DE-BY-000119",
      "lat": 48.720221999521,
      "lon": 13.154813000007087,
      "name": "Scherbach  (A3)",
      "city": "",
      "category": "other",
      "tags": [
        "autobahn",
        "a3"
      ],
      "operator": "Autobahn GmbH"
    },
    {
      "id": "autobahn_DE-BY-000118",
      "lat": 48.74082499954965,
      "lon": 13.111908000011315,
      "name": "Roßrückholz  (A3)",
      "city": "",
      "category": "other",
      "tags": [
        "autobahn",
        "a3"
      ],
      "operator": "Autobahn GmbH"
    },
    {
      "id": "autobahn_DE-BY-000117",
      "lat": 48.74358299955306,
      "lon": 13.106698000011782,
      "name": "Birket  (A3)",
      "city": "",
      "category": "other",
      "tags": [
        "autobahn",
        "a3"
      ],
      "operator": "Autobahn GmbH"
    },
    {
      "id": "autobahn_DE-BY-008568",
      "lat": 48.75788199957802,
      "lon": 13.06726300001517,
      "name": "Ohetal Nord (A3)",
      "city": "",
      "category": "other",
      "tags": [
        "autobahn",
        "a3"
      ],
      "operator": "Autobahn GmbH"
    },
    {
      "id": "autobahn_DE-BY-008569",
      "lat": 48.757105999578876,
      "lon": 13.065870000015309,
      "name": "Ohetal Süd (A3)",
      "city": "",
      "category": "other",
      "tags": [
        "autobahn",
        "a3"
      ],
      "operator": "Autobahn GmbH"
    },
    {
      "id": "autobahn_DE-BY-000114",
      "lat": 48.78798199961191,
      "lon": 13.010395000019031,
      "name": "Griesweiher (A3)",
      "city": "",
      "category": "other",
      "tags": [
        "autobahn",
        "a3"
      ],
      "operator": "Autobahn GmbH"
    },
    {
      "id": "autobahn_DE-BY-000112",
      "lat": 48.80312999962868,
      "lon": 12.980710000020718,
      "name": "Isarmündung  (A3)",
      "city": "",
      "category": "other",
      "tags": [
        "autobahn",
        "a3"
      ],
      "operator": "Autobahn GmbH"
    },
    {
      "id": "autobahn_DE-BY-000110",
      "lat": 48.86014899969197,
      "lon": 12.857680000025663,
      "name": "Kronawitt S (A3)",
      "city": "",
      "category": "public_24h",
      "tags": [
        "autobahn",
        "a3",
        "toilette"
      ],
      "opening_hours": "24/7",
      "operator": "Autobahn GmbH"
    },
    {
      "id": "autobahn_DE-BY-000111",
      "lat": 48.85946999969242,
      "lon": 12.856780000025706,
      "name": "Geigenbühl Nord (A3)",
      "city": "",
      "category": "public_24h",
      "tags": [
        "autobahn",
        "a3",
        "toilette"
      ],
      "opening_hours": "24/7",
      "operator": "Autobahn GmbH"
    },
    {
      "id": "autobahn_DE-BY-000108",
      "lat": 48.931065999757294,
      "lon": 12.706375000028036,
      "name": "Bayerischer Wald S (A3)",
      "city": "",
      "category": "station",
      "tags": [
        "autobahn",
        "a3",
        "toilette",
        "tankstelle",
        "raststätte",
        "dusche"
      ],
      "operator": "Tank & Rast"
    },
    {
      "id": "autobahn_DE-BY-000107",
      "lat": 48.93216699975707,
      "lon": 12.706934000028024,
      "name": "Bayerischer Wald N (A3)",
      "city": "",
      "category": "station",
      "tags": [
        "autobahn",
        "a3",
        "toilette",
        "tankstelle",
        "raststätte",
        "dusche"
      ],
      "operator": "Tank & Rast"
    },
    {
      "id": "autobahn_DE-BY-000105",
      "lat": 48.992497999850045,
      "lon": 12.419432000026388,
      "name": "Wiesenttal S (A3)",
      "city": "",
      "category": "public_24h",
      "tags": [
        "autobahn",
        "a3",
        "toilette"
      ],
      "opening_hours": "24/7",
      "operator": "Autobahn GmbH"
    },
    {
      "id": "autobahn_DE-BY-000106",
      "lat": 48.99330099984971,
      "lon": 12.420681000026399,
      "name": "Wellenbach N (A3)",
      "city": "",
      "category": "public_24h",
      "tags": [
        "autobahn",
        "a3",
        "toilette"
      ],
      "opening_hours": "24/7",
      "operator": "Autobahn GmbH"
    },
    {
      "id": "autobahn_DE-BY-000101",
      "lat": 49.00134699992484,
      "lon": 12.046971000018896,
      "name": "Sparlberg N (A3)",
      "city": "",
      "category": "other",
      "tags": [
        "autobahn",
        "a3"
      ],
      "operator": "Autobahn GmbH"
    },
    {
      "id": "autobahn_DE-BY-000100",
      "lat": 49.00888599993228,
      "lon": 11.994297000017697,
      "name": "Erlgrund N (A3)",
      "city": "",
      "category": "public_24h",
      "tags": [
        "autobahn",
        "a3",
        "toilette"
      ],
      "opening_hours": "24/7",
      "operator": "Autobahn GmbH"
    },
    {
      "id": "autobahn_DE-BY-000099",
      "lat": 49.008818999932494,
      "lon": 11.992820000017668,
      "name": "Erlgrund S (A3)",
      "city": "",
      "category": "public_24h",
      "tags": [
        "autobahn",
        "a3",
        "toilette"
      ],
      "opening_hours": "24/7",
      "operator": "Autobahn GmbH"
    },
    {
      "id": "autobahn_DE-BY-000098",
      "lat": 49.03249399993864,
      "lon": 11.945240000016556,
      "name": "Pollenried N (A3)",
      "city": "",
      "category": "other",
      "tags": [
        "autobahn",
        "a3"
      ],
      "operator": "Autobahn GmbH"
    },
    {
      "id": "autobahn_DE-BY-000095",
      "lat": 49.12896999994748,
      "lon": 11.869232000014708,
      "name": "Lindaholz Süd (A3)",
      "city": "",
      "category": "other",
      "tags": [
        "autobahn",
        "a3"
      ],
      "operator": "Autobahn GmbH"
    },
    {
      "id": "autobahn_DE-BY-000096",
      "lat": 49.11732699994708,
      "lon": 11.87288400001481,
      "name": "Hofschlag N (A3)",
      "city": "",
      "category": "other",
      "tags": [
        "autobahn",
        "a3"
      ],
      "operator": "Autobahn GmbH"
    },
    {
      "id": "autobahn_DE-BY-000094",
      "lat": 49.16655799995145,
      "lon": 11.83148400001386,
      "name": "Buchhausen S (A3)",
      "city": "",
      "category": "other",
      "tags": [
        "autobahn",
        "a3"
      ],
      "operator": "Autobahn GmbH"
    },
    {
      "id": "autobahn_DE-BY-000093",
      "lat": 49.16822299995172,
      "lon": 11.828665000013803,
      "name": "Buchhausen N (A3)",
      "city": "",
      "category": "other",
      "tags": [
        "autobahn",
        "a3"
      ],
      "operator": "Autobahn GmbH"
    },
    {
      "id": "autobahn_DE-BY-008558",
      "lat": 49.17647499995926,
      "lon": 11.749760000012257,
      "name": "Hüttberg (A3)",
      "city": "",
      "category": "other",
      "tags": [
        "autobahn",
        "a3"
      ],
      "operator": "Autobahn GmbH"
    },
    {
      "id": "autobahn_DE-BY-008559",
      "lat": 49.177612999959265,
      "lon": 11.74962400001225,
      "name": "Höll (A3)",
      "city": "",
      "category": "other",
      "tags": [
        "autobahn",
        "a3"
      ],
      "operator": "Autobahn GmbH"
    },
    {
      "id": "autobahn_DE-BY-000091",
      "lat": 49.18574899996445,
      "lon": 11.687800000011105,
      "name": "Spitzig Berg (A3)",
      "city": "",
      "category": "other",
      "tags": [
        "autobahn",
        "a3"
      ],
      "operator": "Autobahn GmbH"
    },
    {
      "id": "autobahn_DE-BY-000088",
      "lat": 49.222400999967654,
      "lon": 11.645550000010312,
      "name": "Malerholz (wird aufgelassen) (A3)",
      "city": "",
      "category": "other",
      "tags": [
        "autobahn",
        "a3"
      ],
      "operator": "Autobahn GmbH"
    },
    {
      "id": "autobahn_DE-BY-000089",
      "lat": 49.20939999996715,
      "lon": 11.652550000010448,
      "name": "Kalkhofen (wird aufgelassen)  (A3)",
      "city": "",
      "category": "other",
      "tags": [
        "autobahn",
        "a3"
      ],
      "operator": "Autobahn GmbH"
    },
    {
      "id": "autobahn_DE-BY-000087",
      "lat": 49.255298999970066,
      "lon": 11.61125000000969,
      "name": "Deusmauerermoor  (A3)",
      "city": "",
      "category": "other",
      "tags": [
        "autobahn",
        "a3"
      ],
      "operator": "Autobahn GmbH"
    },
    {
      "id": "autobahn_DE-BY-000086",
      "lat": 49.2716879999708,
      "lon": 11.600201000009491,
      "name": "Jura W (A3)",
      "city": "",
      "category": "station",
      "tags": [
        "autobahn",
        "a3",
        "toilette",
        "tankstelle",
        "raststätte",
        "dusche"
      ],
      "operator": "Tank & Rast"
    },
    {
      "id": "autobahn_DE-BY-000085",
      "lat": 49.27138799997068,
      "lon": 11.602177000009522,
      "name": "Jura O (A3)",
      "city": "",
      "category": "station",
      "tags": [
        "autobahn",
        "a3",
        "toilette",
        "tankstelle",
        "raststätte",
        "dusche"
      ],
      "operator": "Tank & Rast"
    },
    {
      "id": "autobahn_DE-BY-000082",
      "lat": 49.31370199997725,
      "lon": 11.494250000007828,
      "name": "Wolfstein (wird aufgelassen) (A3)",
      "city": "",
      "category": "other",
      "tags": [
        "autobahn",
        "a3"
      ],
      "operator": "Autobahn GmbH"
    },
    {
      "id": "autobahn_DE-BY-000083",
      "lat": 49.31430099997629,
      "lon": 11.511500000008075,
      "name": "Rödlberg (wird aufgelassen) (A3)",
      "city": "",
      "category": "other",
      "tags": [
        "autobahn",
        "a3"
      ],
      "operator": "Autobahn GmbH"
    },
    {
      "id": "autobahn_DE-BY-000080",
      "lat": 49.354049999980234,
      "lon": 11.43600000000699,
      "name": "Eichenäcker (A3)",
      "city": "",
      "category": "other",
      "tags": [
        "autobahn",
        "a3"
      ],
      "operator": "Autobahn GmbH"
    },
    {
      "id": "autobahn_DE-BY-000078",
      "lat": 49.38330099998484,
      "lon": 11.33030000000566,
      "name": "Vogelherd (wird aufgelassen) (A3)",
      "city": "",
      "category": "other",
      "tags": [
        "autobahn",
        "a3"
      ],
      "operator": "Autobahn GmbH"
    },
    {
      "id": "autobahn_DE-BY-000079",
      "lat": 49.36650099998152,
      "lon": 11.408750000006624,
      "name": "Klosterblick (A3)",
      "city": "",
      "category": "other",
      "tags": [
        "autobahn",
        "a3"
      ],
      "operator": "Autobahn GmbH"
    },
    {
      "id": "autobahn_DE-BY-000076",
      "lat": 49.435569999987045,
      "lon": 11.269259000004963,
      "name": "Ludergraben West (A3)",
      "city": "",
      "category": "public_24h",
      "tags": [
        "autobahn",
        "a3",
        "toilette"
      ],
      "opening_hours": "24/7",
      "operator": "Autobahn GmbH"
    },
    {
      "id": "autobahn_DE-BY-000077",
      "lat": 49.436051999987,
      "lon": 11.270960000004981,
      "name": "Ludergraben Ost (bisher Fuchsmühle) (A3)",
      "city": "",
      "category": "public_24h",
      "tags": [
        "autobahn",
        "a3",
        "toilette"
      ],
      "opening_hours": "24/7",
      "operator": "Autobahn GmbH"
    },
    {
      "id": "autobahn_DE-BY-000074",
      "lat": 49.52579899999259,
      "lon": 11.066670000003132,
      "name": "Weißer Graben S (A3)",
      "city": "",
      "category": "public_24h",
      "tags": [
        "autobahn",
        "a3",
        "toilette"
      ],
      "opening_hours": "24/7",
      "operator": "Autobahn GmbH"
    },
    {
      "id": "autobahn_DE-BY-000075",
      "lat": 49.52682899999259,
      "lon": 11.067050000003135,
      "name": "Weißer Graben N (A3)",
      "city": "",
      "category": "public_24h",
      "tags": [
        "autobahn",
        "a3",
        "toilette"
      ],
      "opening_hours": "24/7",
      "operator": "Autobahn GmbH"
    },
    {
      "id": "autobahn_DE-BY-000072",
      "lat": 49.58143499999514,
      "lon": 10.926532000002206,
      "name": "Aurach S (A3)",
      "city": "",
      "category": "station",
      "tags": [
        "autobahn",
        "a3",
        "toilette",
        "tankstelle",
        "raststätte",
        "dusche"
      ],
      "operator": "Tank & Rast"
    },
    {
      "id": "autobahn_DE-BY-000071",
      "lat": 49.58097599999509,
      "lon": 10.929751000002224,
      "name": "Aurach N (A3)",
      "city": "",
      "category": "station",
      "tags": [
        "autobahn",
        "a3",
        "toilette",
        "tankstelle",
        "raststätte",
        "dusche"
      ],
      "operator": "Tank & Rast"
    },
    {
      "id": "autobahn_DE-BY-000069",
      "lat": 49.62070099999522,
      "lon": 10.920250000002161,
      "name": "Lachgraben (A3)",
      "city": "",
      "category": "other",
      "tags": [
        "autobahn",
        "a3"
      ],
      "operator": "Autobahn GmbH"
    },
    {
      "id": "autobahn_DE-BY-000070",
      "lat": 49.605948999995114,
      "lon": 10.928300000002213,
      "name": "Kleinauweiher (A3)",
      "city": "",
      "category": "other",
      "tags": [
        "autobahn",
        "a3"
      ],
      "operator": "Autobahn GmbH"
    },
    {
      "id": "autobahn_DE-BY-000067",
      "lat": 49.657180999995596,
      "lon": 10.895051000002018,
      "name": "Geierbusch (A3)",
      "city": "",
      "category": "other",
      "tags": [
        "autobahn",
        "a3"
      ],
      "operator": "Autobahn GmbH"
    },
    {
      "id": "autobahn_DE-BY-000068",
      "lat": 49.6453509999954,
      "lon": 10.907850000002087,
      "name": "Röhrhölzer (A3)",
      "city": "",
      "category": "other",
      "tags": [
        "autobahn",
        "a3"
      ],
      "operator": "Autobahn GmbH"
    },
    {
      "id": "autobahn_DE-BY-000065",
      "lat": 49.668651999995795,
      "lon": 10.879400000001935,
      "name": "Brandweiher West (A3)",
      "city": "",
      "category": "other",
      "tags": [
        "autobahn",
        "a3"
      ],
      "operator": "Autobahn GmbH"
    },
    {
      "id": "autobahn_DE-BY-000064",
      "lat": 49.679318999995964,
      "lon": 10.866865000001871,
      "name": "Seeleite W (A3)",
      "city": "",
      "category": "other",
      "tags": [
        "autobahn",
        "a3"
      ],
      "operator": "Autobahn GmbH"
    },
    {
      "id": "autobahn_DE-BY-000066",
      "lat": 49.667672999995766,
      "lon": 10.882672000001952,
      "name": "Brandweiher Ost (A3)",
      "city": "",
      "category": "public_24h",
      "tags": [
        "autobahn",
        "a3",
        "toilette"
      ],
      "opening_hours": "24/7",
      "operator": "Autobahn GmbH"
    },
    {
      "id": "autobahn_DE-BY-000061",
      "lat": 49.712150999996254,
      "lon": 10.843800000001753,
      "name": "Steinknuck (A3)",
      "city": "",
      "category": "other",
      "tags": [
        "autobahn",
        "a3"
      ],
      "operator": "Autobahn GmbH"
    },
    {
      "id": "autobahn_DE-BY-000059",
      "lat": 49.73500099999668,
      "lon": 10.807250000001583,
      "name": "Limbacher Leiten (A3)",
      "city": "",
      "category": "other",
      "tags": [
        "autobahn",
        "a3"
      ],
      "operator": "Autobahn GmbH"
    },
    {
      "id": "autobahn_DE-BY-000060",
      "lat": 49.72109999999642,
      "lon": 10.831150000001692,
      "name": "Vögelsacker (A3)",
      "city": "",
      "category": "other",
      "tags": [
        "autobahn",
        "a3"
      ],
      "operator": "Autobahn GmbH"
    },
    {
      "id": "autobahn_DE-BY-000057",
      "lat": 49.737800999996956,
      "lon": 10.780400000001471,
      "name": "Flurholz (A3)",
      "city": "",
      "category": "other",
      "tags": [
        "autobahn",
        "a3"
      ],
      "operator": "Autobahn GmbH"
    },
    {
      "id": "autobahn_DE-BY-000058",
      "lat": 49.73849099999694,
      "lon": 10.78281000000148,
      "name": "Glöcklein (A3)",
      "city": "",
      "category": "other",
      "tags": [
        "autobahn",
        "a3"
      ],
      "operator": "Autobahn GmbH"
    },
    {
      "id": "autobahn_DE-BY-000054",
      "lat": 49.730700999997836,
      "lon": 10.683200000001111,
      "name": "Schwarze Föhre (A3)",
      "city": "",
      "category": "other",
      "tags": [
        "autobahn",
        "a3"
      ],
      "operator": "Autobahn GmbH"
    },
    {
      "id": "autobahn_DE-BY-000056",
      "lat": 49.73078499999748,
      "lon": 10.724032000001253,
      "name": "Steigerwald S (A3)",
      "city": "",
      "category": "station",
      "tags": [
        "autobahn",
        "a3",
        "toilette",
        "tankstelle",
        "raststätte",
        "dusche"
      ],
      "operator": "Tank & Rast"
    },
    {
      "id": "autobahn_DE-BY-000055",
      "lat": 49.73214399999745,
      "lon": 10.72853700000127,
      "name": "Steigerwald N (A3)",
      "city": "",
      "category": "station",
      "tags": [
        "autobahn",
        "a3",
        "toilette",
        "tankstelle",
        "raststätte",
        "dusche"
      ],
      "operator": "Tank & Rast"
    },
    {
      "id": "autobahn_DE-BY-000053",
      "lat": 49.73139999999788,
      "lon": 10.675400000001087,
      "name": "Elsendorf (A3)",
      "city": "",
      "category": "other",
      "tags": [
        "autobahn",
        "a3"
      ],
      "operator": "Autobahn GmbH"
    },
    {
      "id": "autobahn_DE-BY-000051",
      "lat": 49.7588999999985,
      "lon": 10.580200000000808,
      "name": "Heuchelheim S (A3)",
      "city": "",
      "category": "other",
      "tags": [
        "autobahn",
        "a3"
      ],
      "operator": "Autobahn GmbH"
    },
    {
      "id": "autobahn_DE-BY-000049",
      "lat": 49.762649999998715,
      "lon": 10.541400000000712,
      "name": "Äppeleinsholz (A3)",
      "city": "",
      "category": "other",
      "tags": [
        "autobahn",
        "a3"
      ],
      "operator": "Autobahn GmbH"
    },
    {
      "id": "autobahn_DE-BY-000050",
      "lat": 49.76150099999864,
      "lon": 10.55650000000075,
      "name": "Mannlehen (A3)",
      "city": "",
      "category": "other",
      "tags": [
        "autobahn",
        "a3"
      ],
      "operator": "Autobahn GmbH"
    },
    {
      "id": "autobahn_DE-BY-000048",
      "lat": 49.76435099999881,
      "lon": 10.521650000000667,
      "name": "Wasserberndorf (A3)",
      "city": "",
      "category": "other",
      "tags": [
        "autobahn",
        "a3"
      ],
      "operator": "Autobahn GmbH"
    },
    {
      "id": "autobahn_DE-BY-008548",
      "lat": 49.785344999999154,
      "lon": 10.432730000000491,
      "name": "Obersambacher Wald Süd (A3)",
      "city": "",
      "category": "other",
      "tags": [
        "autobahn",
        "a3"
      ],
      "operator": "Autobahn GmbH"
    },
    {
      "id": "autobahn_DE-BY-000043",
      "lat": 49.77629899999929,
      "lon": 10.395400000000432,
      "name": "Friedrichsberg (A3)",
      "city": "",
      "category": "other",
      "tags": [
        "autobahn",
        "a3"
      ],
      "operator": "Autobahn GmbH"
    },
    {
      "id": "autobahn_DE-BY-000044",
      "lat": 49.77654999999928,
      "lon": 10.393300000000432,
      "name": "Wildpark (A3)",
      "city": "",
      "category": "other",
      "tags": [
        "autobahn",
        "a3"
      ],
      "operator": "Autobahn GmbH"
    },
    {
      "id": "autobahn_DE-BY-000041",
      "lat": 49.77354799999949,
      "lon": 10.320850000000327,
      "name": "Steigerwald-Blick (A3)",
      "city": "",
      "category": "other",
      "tags": [
        "autobahn",
        "a3"
      ],
      "operator": "Autobahn GmbH"
    },
    {
      "id": "autobahn_DE-BY-000038",
      "lat": 49.77961499999964,
      "lon": 10.245889000000245,
      "name": "Haidt S (A3)",
      "city": "",
      "category": "station",
      "tags": [
        "autobahn",
        "a3",
        "toilette",
        "tankstelle",
        "raststätte",
        "dusche"
      ],
      "operator": "Tank & Rast"
    },
    {
      "id": "autobahn_DE-BY-000040",
      "lat": 49.77619899999952,
      "lon": 10.309800000000314,
      "name": "Feuerbach (A3)",
      "city": "",
      "category": "other",
      "tags": [
        "autobahn",
        "a3"
      ],
      "operator": "Autobahn GmbH"
    },
    {
      "id": "autobahn_DE-BY-000039",
      "lat": 49.780625999999636,
      "lon": 10.245248000000242,
      "name": "Haidt N (A3)",
      "city": "",
      "category": "station",
      "tags": [
        "autobahn",
        "a3",
        "toilette",
        "tankstelle",
        "raststätte",
        "dusche"
      ],
      "operator": "Tank & Rast"
    },
    {
      "id": "autobahn_DE-BY-000037",
      "lat": 49.78905099999974,
      "lon": 10.181550000000188,
      "name": "Hunnenhügel (A3)",
      "city": "",
      "category": "other",
      "tags": [
        "autobahn",
        "a3"
      ],
      "operator": "Autobahn GmbH"
    },
    {
      "id": "autobahn_DE-BY-000034",
      "lat": 49.74953099999989,
      "lon": 10.0395900000001,
      "name": "Sandgraben (Süd) (A3)",
      "city": "",
      "category": "public_24h",
      "tags": [
        "autobahn",
        "a3",
        "toilette"
      ],
      "opening_hours": "24/7",
      "operator": "Autobahn GmbH"
    },
    {
      "id": "autobahn_DE-BY-000035",
      "lat": 49.76077999999986,
      "lon": 10.055550000000107,
      "name": "Sandgraben (Nord) (A3)",
      "city": "",
      "category": "public_24h",
      "tags": [
        "autobahn",
        "a3",
        "toilette"
      ],
      "opening_hours": "24/7",
      "operator": "Autobahn GmbH"
    },
    {
      "id": "autobahn_DE-BY-000032",
      "lat": 49.75189699999993,
      "lon": 9.962953000000068,
      "name": "Würzburg Süd (A3)",
      "city": "",
      "category": "station",
      "tags": [
        "autobahn",
        "a3",
        "toilette",
        "tankstelle",
        "raststätte",
        "dusche"
      ],
      "operator": "Tank & Rast"
    },
    {
      "id": "autobahn_DE-BY-000033",
      "lat": 49.754981999999934,
      "lon": 9.96113000000007,
      "name": "Würzburg N (A3)",
      "city": "",
      "category": "station",
      "tags": [
        "autobahn",
        "a3",
        "toilette",
        "tankstelle",
        "raststätte",
        "dusche"
      ],
      "operator": "Tank & Rast"
    },
    {
      "id": "autobahn_DE-BY-000030",
      "lat": 49.77349299999999,
      "lon": 9.716129000000015,
      "name": "Fronberg (Süd) (A3)",
      "city": "",
      "category": "public_24h",
      "tags": [
        "autobahn",
        "a3",
        "toilette"
      ],
      "opening_hours": "24/7",
      "operator": "Autobahn GmbH"
    },
    {
      "id": "autobahn_DE-BY-000031",
      "lat": 49.774691999999995,
      "lon": 9.715447000000013,
      "name": "Fronberg (Nord) (A3)",
      "city": "",
      "category": "public_24h",
      "tags": [
        "autobahn",
        "a3",
        "toilette"
      ],
      "opening_hours": "24/7",
      "operator": "Autobahn GmbH"
    },
    {
      "id": "autobahn_DE-BY-000019",
      "lat": 49.836138,
      "lon": 9.514740000000003,
      "name": "Kohlsberg Süd (bisher Bärenroth) (A3)",
      "city": "",
      "category": "public_24h",
      "tags": [
        "autobahn",
        "a3",
        "toilette"
      ],
      "opening_hours": "24/7",
      "operator": "Autobahn GmbH"
    },
    {
      "id": "autobahn_DE-BY-000014",
      "lat": 49.895929,
      "lon": 9.394278000000002,
      "name": "Spessart S (A3)",
      "city": "",
      "category": "station",
      "tags": [
        "autobahn",
        "a3",
        "toilette",
        "tankstelle",
        "raststätte",
        "dusche"
      ],
      "operator": "Tank & Rast"
    },
    {
      "id": "autobahn_DE-BY-000020",
      "lat": 49.83788899999999,
      "lon": 9.515673000000001,
      "name": "Kohlsberg Nord (bisher Bärenroth) (A3)",
      "city": "",
      "category": "public_24h",
      "tags": [
        "autobahn",
        "a3",
        "toilette"
      ],
      "opening_hours": "24/7",
      "operator": "Autobahn GmbH"
    },
    {
      "id": "autobahn_DE-BY-000013",
      "lat": 49.897584,
      "lon": 9.394361,
      "name": "Spessart N (A3)",
      "city": "",
      "category": "station",
      "tags": [
        "autobahn",
        "a3",
        "toilette",
        "tankstelle",
        "raststätte",
        "dusche"
      ],
      "operator": "Tank & Rast"
    },
    {
      "id": "autobahn_DE-BY-000004",
      "lat": 49.980515000000004,
      "lon": 9.265351,
      "name": "Röthenwald (bisher Lerchenrain S) (A3)",
      "city": "",
      "category": "public_24h",
      "tags": [
        "autobahn",
        "a3",
        "toilette"
      ],
      "opening_hours": "24/7",
      "operator": "Autobahn GmbH"
    },
    {
      "id": "autobahn_DE-BY-000003",
      "lat": 49.99862000000001,
      "lon": 9.2454,
      "name": "Birkenhain (bisher Schafwiese N) (A3)",
      "city": "",
      "category": "public_24h",
      "tags": [
        "autobahn",
        "a3",
        "toilette"
      ],
      "opening_hours": "24/7",
      "operator": "Autobahn GmbH"
    },
    {
      "id": "autobahn_DE-BY-000001",
      "lat": 49.990808,
      "lon": 9.101738,
      "name": "Strietwald S (A3)",
      "city": "",
      "category": "public_24h",
      "tags": [
        "autobahn",
        "a3",
        "toilette"
      ],
      "opening_hours": "24/7",
      "operator": "Autobahn GmbH"
    },
    {
      "id": "autobahn_DE-BY-000002",
      "lat": 49.995161,
      "lon": 9.118244,
      "name": "Strietwald N (A3)",
      "city": "",
      "category": "public_24h",
      "tags": [
        "autobahn",
        "a3",
        "toilette"
      ],
      "opening_hours": "24/7",
      "operator": "Autobahn GmbH"
    },
    {
      "id": "autobahn_DE-HE-300016",
      "lat": 50.00269900000001,
      "lon": 8.991597,
      "name": "Mainhausen W (A3)",
      "city": "",
      "category": "public_24h",
      "tags": [
        "autobahn",
        "a3",
        "toilette"
      ],
      "opening_hours": "24/7",
      "operator": "Autobahn GmbH"
    },